var st={
"type":"FeatureCollection",
"features":[
{
"type":"Feature",
"properties":{
"Name":"忌部小学校",
"Jusho":"島根県松江市東忌部町915-1",
"Capacity":"－",
"la":"35.39985800000",
"ln":"133.03073000000"
},
"geometry":{
"type":"Point",
"coordinates":[
133.03073,
35.399858
]
}
},
{
"type":"Feature",
"properties":{
"Name":"旧千酌小学校体育館",
"Jusho":"島根県松江市美保関町千酌1095-1",
"Capacity":"－",
"la":"35.56354690210",
"ln":"133.13707142100"
},
"geometry":{
"type":"Point",
"coordinates":[
133.137071421,
35.5635469021
]
}
},
{
"type":"Feature",
"properties":{
"Name":"旧美保関東小学校体育館",
"Jusho":"島根県松江市美保関町美保関1661-1",
"Capacity":"－",
"la":"35.55828585250",
"ln":"133.30279825300"
},
"geometry":{
"type":"Point",
"coordinates":[
133.302798253,
35.5582858525
]
}
},
{
"type":"Feature",
"properties":{
"Name":"玉湯小学校",
"Jusho":"島根県松江市玉湯町玉造4",
"Capacity":"－",
"la":"35.42605000000",
"ln":"133.00940900000"
},
"geometry":{
"type":"Point",
"coordinates":[
133.009409,
35.42605
]
}
},
{
"type":"Feature",
"properties":{
"Name":"恵曇小学校",
"Jusho":"島根県松江市鹿島町手結201",
"Capacity":"－",
"la":"35.53298000000",
"ln":"132.97508300000"
},
"geometry":{
"type":"Point",
"coordinates":[
132.975083,
35.53298
]
}
},
{
"type":"Feature",
"properties":{
"Name":"古江小学校",
"Jusho":"島根県松江市古曽志町1759",
"Capacity":"－",
"la":"35.48570800000",
"ln":"132.99959100000"
},
"geometry":{
"type":"Point",
"coordinates":[
132.999591,
35.485708
]
}
},
{
"type":"Feature",
"properties":{
"Name":"古志原小学校",
"Jusho":"島根県松江市古志原4-6-1",
"Capacity":"－",
"la":"35.44146500000",
"ln":"133.07536200000"
},
"geometry":{
"type":"Point",
"coordinates":[
133.075362,
35.441465
]
}
},
{
"type":"Feature",
"properties":{
"Name":"佐太小学校",
"Jusho":"島根県松江市鹿島町佐陀本郷1186",
"Capacity":"－",
"la":"35.52030900000",
"ln":"132.99705400000"
},
"geometry":{
"type":"Point",
"coordinates":[
132.997054,
35.520309
]
}
},
{
"type":"Feature",
"properties":{
"Name":"雑賀小学校",
"Jusho":"島根県松江市雑賀町586",
"Capacity":"－",
"la":"35.45696400000",
"ln":"133.06133500000"
},
"geometry":{
"type":"Point",
"coordinates":[
133.061335,
35.456964
]
}
},
{
"type":"Feature",
"properties":{
"Name":"持田小学校",
"Jusho":"島根県松江市東持田町81",
"Capacity":"－",
"la":"35.50079200000",
"ln":"133.07960900000"
},
"geometry":{
"type":"Point",
"coordinates":[
133.079609,
35.500792
]
}
},
{
"type":"Feature",
"properties":{
"Name":"鹿島東小学校",
"Jusho":"島根県松江市鹿島町北講武599",
"Capacity":"－",
"la":"35.52281600000",
"ln":"133.02230900000"
},
"geometry":{
"type":"Point",
"coordinates":[
133.022309,
35.522816
]
}
},
{
"type":"Feature",
"properties":{
"Name":"宍道小学校",
"Jusho":"島根県松江市宍道町宍道1276",
"Capacity":"－",
"la":"35.40252200000",
"ln":"132.90453600000"
},
"geometry":{
"type":"Point",
"coordinates":[
132.904536,
35.402522
]
}
},
{
"type":"Feature",
"properties":{
"Name":"秋鹿小学校",
"Jusho":"島根県松江市岡本町992-1",
"Capacity":"－",
"la":"35.48059600000",
"ln":"132.94904000000"
},
"geometry":{
"type":"Point",
"coordinates":[
132.94904,
35.480596
]
}
},
{
"type":"Feature",
"properties":{
"Name":"城北小学校",
"Jusho":"島根県松江市東奥谷町229",
"Capacity":"－",
"la":"35.48559900000",
"ln":"133.05355700000"
},
"geometry":{
"type":"Point",
"coordinates":[
133.053557,
35.485599
]
}
},
{
"type":"Feature",
"properties":{
"Name":"生馬小学校",
"Jusho":"島根県松江市西生馬町8",
"Capacity":"－",
"la":"35.49451400000",
"ln":"133.02639300000"
},
"geometry":{
"type":"Point",
"coordinates":[
133.026393,
35.494514
]
}
},
{
"type":"Feature",
"properties":{
"Name":"川津小学校",
"Jusho":"島根県松江市西川津町500",
"Capacity":"－",
"la":"35.48704400000",
"ln":"133.07697100000"
},
"geometry":{
"type":"Point",
"coordinates":[
133.076971,
35.487044
]
}
},
{
"type":"Feature",
"properties":{
"Name":"大谷小学校",
"Jusho":"島根県松江市玉湯町大谷299",
"Capacity":"－",
"la":"35.38855892290",
"ln":"132.98889550800"
},
"geometry":{
"type":"Point",
"coordinates":[
132.988895508,
35.3885589229
]
}
},
{
"type":"Feature",
"properties":{
"Name":"大庭小学校",
"Jusho":"島根県松江市大庭町1074",
"Capacity":"－",
"la":"35.43160500000",
"ln":"133.08069600000"
},
"geometry":{
"type":"Point",
"coordinates":[
133.080696,
35.431605
]
}
},
{
"type":"Feature",
"properties":{
"Name":"大野小学校",
"Jusho":"島根県松江市上大野町1826",
"Capacity":"－",
"la":"35.49137200000",
"ln":"132.92140400000"
},
"geometry":{
"type":"Point",
"coordinates":[
132.921404,
35.491372
]
}
},
{
"type":"Feature",
"properties":{
"Name":"竹矢小学校",
"Jusho":"島根県松江市八幡町379-1",
"Capacity":"－",
"la":"35.44518900000",
"ln":"133.11863500000"
},
"geometry":{
"type":"Point",
"coordinates":[
133.118635,
35.445189
]
}
},
{
"type":"Feature",
"properties":{
"Name":"中央小学校",
"Jusho":"島根県松江市大正町398",
"Capacity":"－",
"la":"35.46174100000",
"ln":"133.06375100000"
},
"geometry":{
"type":"Point",
"coordinates":[
133.063751,
35.461741
]
}
},
{
"type":"Feature",
"properties":{
"Name":"中島小学校",
"Jusho":"島根県松江市秋鹿町636",
"Capacity":"－",
"la":"35.50578700000",
"ln":"132.94606800000"
},
"geometry":{
"type":"Point",
"coordinates":[
132.946068,
35.505787
]
}
},
{
"type":"Feature",
"properties":{
"Name":"朝酌小学校",
"Jusho":"島根県松江市朝酌町115",
"Capacity":"－",
"la":"35.46518600000",
"ln":"133.10485900000"
},
"geometry":{
"type":"Point",
"coordinates":[
133.104859,
35.465186
]
}
},
{
"type":"Feature",
"properties":{
"Name":"長江小学校",
"Jusho":"島根県松江市東長江町259-2",
"Capacity":"－",
"la":"35.48990100000",
"ln":"132.97373200000"
},
"geometry":{
"type":"Point",
"coordinates":[
132.973732,
35.489901
]
}
},
{
"type":"Feature",
"properties":{
"Name":"津田小学校",
"Jusho":"島根県松江市東津田町1166",
"Capacity":"－",
"la":"35.45754700000",
"ln":"133.08244400000"
},
"geometry":{
"type":"Point",
"coordinates":[
133.082444,
35.457547
]
}
},
{
"type":"Feature",
"properties":{
"Name":"島根小学校",
"Jusho":"島根県松江市島根町加賀1325-1",
"Capacity":"－",
"la":"35.56545100000",
"ln":"133.06852400000"
},
"geometry":{
"type":"Point",
"coordinates":[
133.068524,
35.565451
]
}
},
{
"type":"Feature",
"properties":{
"Name":"島根大学教育学部附属小学校",
"Jusho":"島根県松江市大輪町416-4",
"Capacity":"－",
"la":"35.48026700000",
"ln":"133.06038900000"
},
"geometry":{
"type":"Point",
"coordinates":[
133.060389,
35.480267
]
}
},
{
"type":"Feature",
"properties":{
"Name":"内中原小学校",
"Jusho":"島根県松江市内中原町225",
"Capacity":"－",
"la":"35.47198900000",
"ln":"133.04678000000"
},
"geometry":{
"type":"Point",
"coordinates":[
133.04678,
35.471989
]
}
},
{
"type":"Feature",
"properties":{
"Name":"乃木小学校",
"Jusho":"島根県松江市浜乃木5-1-10",
"Capacity":"－",
"la":"35.44477000000",
"ln":"133.05444700000"
},
"geometry":{
"type":"Point",
"coordinates":[
133.054447,
35.44477
]
}
},
{
"type":"Feature",
"properties":{
"Name":"八雲小学校",
"Jusho":"島根県松江市八雲町西岩坂947",
"Capacity":"－",
"la":"35.40400500000",
"ln":"133.08933300000"
},
"geometry":{
"type":"Point",
"coordinates":[
133.089333,
35.404005
]
}
},
{
"type":"Feature",
"properties":{
"Name":"八束小学校",
"Jusho":"島根県松江市八束町波入1975",
"Capacity":"－",
"la":"35.49475400000",
"ln":"133.17501500000"
},
"geometry":{
"type":"Point",
"coordinates":[
133.175015,
35.494754
]
}
},
{
"type":"Feature",
"properties":{
"Name":"美保関小学校",
"Jusho":"島根県松江市美保関町下宇部尾555-1",
"Capacity":"－",
"la":"35.53528800000",
"ln":"133.16617500000"
},
"geometry":{
"type":"Point",
"coordinates":[
133.166175,
35.535288
]
}
},
{
"type":"Feature",
"properties":{
"Name":"母衣小学校",
"Jusho":"島根県松江市北田町273",
"Capacity":"－",
"la":"35.47621900000",
"ln":"133.06550400000"
},
"geometry":{
"type":"Point",
"coordinates":[
133.065504,
35.476219
]
}
},
{
"type":"Feature",
"properties":{
"Name":"法吉小学校",
"Jusho":"島根県松江市比津町532",
"Capacity":"－",
"la":"35.48757000000",
"ln":"133.03505900000"
},
"geometry":{
"type":"Point",
"coordinates":[
133.035059,
35.48757
]
}
},
{
"type":"Feature",
"properties":{
"Name":"本庄小学校",
"Jusho":"島根県松江市邑生町76-3",
"Capacity":"－",
"la":"35.51476600000",
"ln":"133.13279800000"
},
"geometry":{
"type":"Point",
"coordinates":[
133.132798,
35.514766
]
}
},
{
"type":"Feature",
"properties":{
"Name":"来待小学校",
"Jusho":"島根県松江市宍道町上来待125",
"Capacity":"－",
"la":"35.40664700000",
"ln":"132.95599500000"
},
"geometry":{
"type":"Point",
"coordinates":[
132.955995,
35.406647
]
}
},
{
"type":"Feature",
"properties":{
"Name":"井野小学校",
"Jusho":"島根県浜田市三隅町井野ニ798",
"Capacity":"－",
"la":"34.78865300000",
"ln":"132.03114800000"
},
"geometry":{
"type":"Point",
"coordinates":[
132.031148,
34.788653
]
}
},
{
"type":"Feature",
"properties":{
"Name":"雲城小学校",
"Jusho":"島根県浜田市金城町下来原1541-5",
"Capacity":"－",
"la":"34.86095700000",
"ln":"132.16067800000"
},
"geometry":{
"type":"Point",
"coordinates":[
132.160678,
34.860957
]
}
},
{
"type":"Feature",
"properties":{
"Name":"雲雀丘小学校",
"Jusho":"島根県浜田市原井町1045",
"Capacity":"－",
"la":"34.88643300000",
"ln":"132.06614000000"
},
"geometry":{
"type":"Point",
"coordinates":[
132.06614,
34.886433
]
}
},
{
"type":"Feature",
"properties":{
"Name":"岡見小学校",
"Jusho":"島根県浜田市三隅町岡見4743",
"Capacity":"－",
"la":"34.76760300000",
"ln":"131.92207400000"
},
"geometry":{
"type":"Point",
"coordinates":[
131.922074,
34.767603
]
}
},
{
"type":"Feature",
"properties":{
"Name":"旧宇野小学校",
"Jusho":"島根県浜田市宇野町281-3",
"Capacity":"－",
"la":"34.92332000000",
"ln":"132.15377100000"
},
"geometry":{
"type":"Point",
"coordinates":[
132.153771,
34.92332
]
}
},
{
"type":"Feature",
"properties":{
"Name":"旧都川小学校（体育館）",
"Jusho":"島根県浜田市旭町都川896-1",
"Capacity":"－",
"la":"34.83544000000",
"ln":"132.31007900000"
},
"geometry":{
"type":"Point",
"coordinates":[
132.310079,
34.83544
]
}
},
{
"type":"Feature",
"properties":{
"Name":"旧弥栄小学校",
"Jusho":"島根県浜田市",
"Capacity":"－",
"la":"34.77052417400",
"ln":"132.07015167200"
},
"geometry":{
"type":"Point",
"coordinates":[
132.070151672,
34.770524174
]
}
},
{
"type":"Feature",
"properties":{
"Name":"原井小学校",
"Jusho":"島根県浜田市港町208",
"Capacity":"－",
"la":"34.89884200000",
"ln":"132.07054800000"
},
"geometry":{
"type":"Point",
"coordinates":[
132.070548,
34.898842
]
}
},
{
"type":"Feature",
"properties":{
"Name":"後野小学校",
"Jusho":"島根県浜田市後野町779-2",
"Capacity":"－",
"la":"34.89379500000",
"ln":"132.13255100000"
},
"geometry":{
"type":"Point",
"coordinates":[
132.132551,
34.893795
]
}
},
{
"type":"Feature",
"properties":{
"Name":"国府小学校",
"Jusho":"島根県浜田市国分町2205-3",
"Capacity":"－",
"la":"34.93606800000",
"ln":"132.10849600000"
},
"geometry":{
"type":"Point",
"coordinates":[
132.108496,
34.936068
]
}
},
{
"type":"Feature",
"properties":{
"Name":"今市小学校（体育館）",
"Jusho":"島根県浜田市旭町今市615",
"Capacity":"－",
"la":"34.86134800000",
"ln":"132.25871500000"
},
"geometry":{
"type":"Point",
"coordinates":[
132.258715,
34.861348
]
}
},
{
"type":"Feature",
"properties":{
"Name":"今福小学校",
"Jusho":"島根県浜田市金城町今福1425-5",
"Capacity":"－",
"la":"34.87970500000",
"ln":"132.19392600000"
},
"geometry":{
"type":"Point",
"coordinates":[
132.193926,
34.879705
]
}
},
{
"type":"Feature",
"properties":{
"Name":"佐野小学校",
"Jusho":"島根県浜田市佐野町イ337-1",
"Capacity":"－",
"la":"34.88649100000",
"ln":"132.16146500000"
},
"geometry":{
"type":"Point",
"coordinates":[
132.161465,
34.886491
]
}
},
{
"type":"Feature",
"properties":{
"Name":"三階小学校",
"Jusho":"島根県浜田市竹迫町2396-2",
"Capacity":"－",
"la":"34.89343300000",
"ln":"132.08680500000"
},
"geometry":{
"type":"Point",
"coordinates":[
132.086805,
34.893433
]
}
},
{
"type":"Feature",
"properties":{
"Name":"三隅小学校",
"Jusho":"島根県浜田市三隅町古市場450",
"Capacity":"－",
"la":"34.78309600000",
"ln":"131.95346800000"
},
"geometry":{
"type":"Point",
"coordinates":[
131.953468,
34.783096
]
}
},
{
"type":"Feature",
"properties":{
"Name":"周布小学校",
"Jusho":"島根県浜田市周布町イ63-3",
"Capacity":"－",
"la":"34.86490700000",
"ln":"132.02397700000"
},
"geometry":{
"type":"Point",
"coordinates":[
132.023977,
34.864907
]
}
},
{
"type":"Feature",
"properties":{
"Name":"小国公民館（旧小国小学校）",
"Jusho":"島根県浜田市金城町小国イ160番地1",
"Capacity":"－",
"la":"34.81643400000",
"ln":"132.19866500000"
},
"geometry":{
"type":"Point",
"coordinates":[
132.198665,
34.816434
]
}
},
{
"type":"Feature",
"properties":{
"Name":"松原小学校",
"Jusho":"島根県浜田市浅井町1415-2",
"Capacity":"－",
"la":"34.90734800000",
"ln":"132.08366500000"
},
"geometry":{
"type":"Point",
"coordinates":[
132.083665,
34.907348
]
}
},
{
"type":"Feature",
"properties":{
"Name":"上府小学校",
"Jusho":"島根県浜田市上府町イ2488-1",
"Capacity":"－",
"la":"34.92556900000",
"ln":"132.12593900000"
},
"geometry":{
"type":"Point",
"coordinates":[
132.125939,
34.925569
]
}
},
{
"type":"Feature",
"properties":{
"Name":"石見小学校",
"Jusho":"島根県浜田市黒川町3738-4",
"Capacity":"－",
"la":"34.90279400000",
"ln":"132.09688700000"
},
"geometry":{
"type":"Point",
"coordinates":[
132.096887,
34.902794
]
}
},
{
"type":"Feature",
"properties":{
"Name":"長浜小学校",
"Jusho":"島根県浜田市長浜町1",
"Capacity":"－",
"la":"34.86996200000",
"ln":"132.04814200000"
},
"geometry":{
"type":"Point",
"coordinates":[
132.048142,
34.869962
]
}
},
{
"type":"Feature",
"properties":{
"Name":"波佐小学校",
"Jusho":"島根県浜田市金城町波佐イ553",
"Capacity":"－",
"la":"34.77954200000",
"ln":"132.19646800000"
},
"geometry":{
"type":"Point",
"coordinates":[
132.196468,
34.779542
]
}
},
{
"type":"Feature",
"properties":{
"Name":"美川小学校",
"Jusho":"島根県浜田市内田町1020",
"Capacity":"－",
"la":"34.85571400000",
"ln":"132.05261400000"
},
"geometry":{
"type":"Point",
"coordinates":[
132.052614,
34.855714
]
}
},
{
"type":"Feature",
"properties":{
"Name":"木田小学校（体育館）",
"Jusho":"島根県浜田市旭町木田488",
"Capacity":"－",
"la":"34.88981700000",
"ln":"132.28298100000"
},
"geometry":{
"type":"Point",
"coordinates":[
132.282981,
34.889817
]
}
},
{
"type":"Feature",
"properties":{
"Name":"弥栄小学校",
"Jusho":"島根県浜田市弥栄町長安本郷325-1",
"Capacity":"－",
"la":"34.78277800000",
"ln":"132.11250000000"
},
"geometry":{
"type":"Point",
"coordinates":[
132.1125,
34.782778
]
}
},
{
"type":"Feature",
"properties":{
"Name":"有福小学校",
"Jusho":"島根県浜田市下有福町436",
"Capacity":"－",
"la":"34.94556800000",
"ln":"132.18551800000"
},
"geometry":{
"type":"Point",
"coordinates":[
132.185518,
34.945568
]
}
},
{
"type":"Feature",
"properties":{
"Name":"和田小学校（体育館）",
"Jusho":"島根県浜田市旭町和田1284",
"Capacity":"－",
"la":"34.86204300000",
"ln":"132.29714000000"
},
"geometry":{
"type":"Point",
"coordinates":[
132.29714,
34.862043
]
}
},
{
"type":"Feature",
"properties":{
"Name":"伊野小学校（体育館）",
"Jusho":"島根県出雲市野郷町459-2",
"Capacity":"380",
"la":"35.48665000000",
"ln":"132.89449000000"
},
"geometry":{
"type":"Point",
"coordinates":[
132.89449,
35.48665
]
}
},
{
"type":"Feature",
"properties":{
"Name":"鵜鷺小学校（体育館）",
"Jusho":"島根県出雲市大社町鷺浦275",
"Capacity":"236",
"la":"35.44179400000",
"ln":"132.69312800000"
},
"geometry":{
"type":"Point",
"coordinates":[
132.693128,
35.441794
]
}
},
{
"type":"Feature",
"properties":{
"Name":"塩津小学校（体育館）",
"Jusho":"島根県出雲市塩津町101-2",
"Capacity":"102",
"la":"35.47986900000",
"ln":"132.78863700000"
},
"geometry":{
"type":"Point",
"coordinates":[
132.788637,
35.479869
]
}
},
{
"type":"Feature",
"properties":{
"Name":"塩冶小学校（第１体育館）",
"Jusho":"島根県出雲市塩冶町709",
"Capacity":"838",
"la":"35.35085599910",
"ln":"132.75031200000"
},
"geometry":{
"type":"Point",
"coordinates":[
132.750312,
35.3508559991
]
}
},
{
"type":"Feature",
"properties":{
"Name":"乙立小学校（体育館）",
"Jusho":"島根県出雲市乙立町1028-4",
"Capacity":"272",
"la":"35.28675200000",
"ln":"132.72390000000"
},
"geometry":{
"type":"Point",
"coordinates":[
132.7239,
35.286752
]
}
},
{
"type":"Feature",
"properties":{
"Name":"岐久小学校",
"Jusho":"島根県出雲市多伎町多岐900",
"Capacity":"－",
"la":"35.28321800000",
"ln":"132.62942200000"
},
"geometry":{
"type":"Point",
"coordinates":[
132.629422,
35.283218
]
}
},
{
"type":"Feature",
"properties":{
"Name":"久多美小学校（体育館）",
"Jusho":"島根県出雲市東福町453",
"Capacity":"495",
"la":"35.45398400000",
"ln":"132.82202300000"
},
"geometry":{
"type":"Point",
"coordinates":[
132.822023,
35.453984
]
}
},
{
"type":"Feature",
"properties":{
"Name":"窪田小学校（体育館）",
"Jusho":"島根県出雲市佐田町一窪田1416-2",
"Capacity":"393",
"la":"35.23279200000",
"ln":"132.66916400000"
},
"geometry":{
"type":"Point",
"coordinates":[
132.669164,
35.232792
]
}
},
{
"type":"Feature",
"properties":{
"Name":"湖陵小学校（体育館）",
"Jusho":"島根県出雲市湖陵町二部1100",
"Capacity":"455",
"la":"35.31646000000",
"ln":"132.67174900000"
},
"geometry":{
"type":"Point",
"coordinates":[
132.671749,
35.31646
]
}
},
{
"type":"Feature",
"properties":{
"Name":"荒木小学校（体育館）",
"Jusho":"島根県出雲市大社町北荒木413",
"Capacity":"529",
"la":"35.38437900000",
"ln":"132.69000600000"
},
"geometry":{
"type":"Point",
"coordinates":[
132.690006,
35.384379
]
}
},
{
"type":"Feature",
"properties":{
"Name":"高松小学校（体育館）",
"Jusho":"島根県出雲市松寄下町724",
"Capacity":"522",
"la":"35.36196500000",
"ln":"132.72212100000"
},
"geometry":{
"type":"Point",
"coordinates":[
132.722121,
35.361965
]
}
},
{
"type":"Feature",
"properties":{
"Name":"高浜小学校（体育館）",
"Jusho":"島根県出雲市里方町108",
"Capacity":"429",
"la":"35.39285100000",
"ln":"132.74250600000"
},
"geometry":{
"type":"Point",
"coordinates":[
132.742506,
35.392851
]
}
},
{
"type":"Feature",
"properties":{
"Name":"国富小学校（体育館）",
"Jusho":"島根県出雲市国富町381",
"Capacity":"339",
"la":"35.42582000000",
"ln":"132.80122100000"
},
"geometry":{
"type":"Point",
"coordinates":[
132.801221,
35.42582
]
}
},
{
"type":"Feature",
"properties":{
"Name":"今市小学校（体育館）",
"Jusho":"島根県出雲市今市町北本町1丁目1",
"Capacity":"586",
"la":"35.36835400000",
"ln":"132.75761700000"
},
"geometry":{
"type":"Point",
"coordinates":[
132.757617,
35.368354
]
}
},
{
"type":"Feature",
"properties":{
"Name":"佐香小学校（体育館）",
"Jusho":"島根県出雲市坂浦町2472-1",
"Capacity":"204",
"la":"35.49925600000",
"ln":"132.84677400000"
},
"geometry":{
"type":"Point",
"coordinates":[
132.846774,
35.499256
]
}
},
{
"type":"Feature",
"properties":{
"Name":"四絡小学校（体育館）",
"Jusho":"島根県出雲市大塚町821-3",
"Capacity":"309",
"la":"35.37601900000",
"ln":"132.74908900000"
},
"geometry":{
"type":"Point",
"coordinates":[
132.749089,
35.376019
]
}
},
{
"type":"Feature",
"properties":{
"Name":"上津小学校（体育館）",
"Jusho":"島根県出雲市上島町869",
"Capacity":"465",
"la":"35.33588700000",
"ln":"132.83333200000"
},
"geometry":{
"type":"Point",
"coordinates":[
132.833332,
35.335887
]
}
},
{
"type":"Feature",
"properties":{
"Name":"神戸川小学校（体育館）",
"Jusho":"島根県出雲市下古志町808",
"Capacity":"587",
"la":"35.34146700000",
"ln":"132.72917600000"
},
"geometry":{
"type":"Point",
"coordinates":[
132.729176,
35.341467
]
}
},
{
"type":"Feature",
"properties":{
"Name":"神西小学校（体育館）",
"Jusho":"島根県出雲市神西沖町1090",
"Capacity":"459",
"la":"35.33419000000",
"ln":"132.69773500000"
},
"geometry":{
"type":"Point",
"coordinates":[
132.697735,
35.33419
]
}
},
{
"type":"Feature",
"properties":{
"Name":"須佐小学校（体育館）",
"Jusho":"島根県出雲市佐田町須佐1137-1",
"Capacity":"645",
"la":"35.24325200000",
"ln":"132.72604300000"
},
"geometry":{
"type":"Point",
"coordinates":[
132.726043,
35.243252
]
}
},
{
"type":"Feature",
"properties":{
"Name":"西田小学校（体育館）",
"Jusho":"島根県出雲市万田町702-1",
"Capacity":"208",
"la":"35.44276300000",
"ln":"132.78341700000"
},
"geometry":{
"type":"Point",
"coordinates":[
132.783417,
35.442763
]
}
},
{
"type":"Feature",
"properties":{
"Name":"大社小学校（体育館）",
"Jusho":"島根県出雲市大社町杵築南900-1",
"Capacity":"475",
"la":"35.39479500000",
"ln":"132.68439100000"
},
"geometry":{
"type":"Point",
"coordinates":[
132.684391,
35.394795
]
}
},
{
"type":"Feature",
"properties":{
"Name":"大津小学校（体育館）",
"Jusho":"島根県出雲市大津町370-1",
"Capacity":"424",
"la":"35.37149300000",
"ln":"132.77661400000"
},
"geometry":{
"type":"Point",
"coordinates":[
132.776614,
35.371493
]
}
},
{
"type":"Feature",
"properties":{
"Name":"朝山小学校（体育館）",
"Jusho":"島根県出雲市所原町185",
"Capacity":"305",
"la":"35.31808300000",
"ln":"132.76481200000"
},
"geometry":{
"type":"Point",
"coordinates":[
132.764812,
35.318083
]
}
},
{
"type":"Feature",
"properties":{
"Name":"長浜小学校（体育館）",
"Jusho":"島根県出雲市荒茅町3848",
"Capacity":"436",
"la":"35.36060400000",
"ln":"132.69081800000"
},
"geometry":{
"type":"Point",
"coordinates":[
132.690818,
35.360604
]
}
},
{
"type":"Feature",
"properties":{
"Name":"田儀小学校",
"Jusho":"島根県出雲市多伎町口田儀1221",
"Capacity":"437",
"la":"35.26000100000",
"ln":"132.58372600000"
},
"geometry":{
"type":"Point",
"coordinates":[
132.583726,
35.260001
]
}
},
{
"type":"Feature",
"properties":{
"Name":"東小学校（体育館）",
"Jusho":"島根県出雲市鹿園寺町1004-6",
"Capacity":"455",
"la":"35.46542900000",
"ln":"132.87740800000"
},
"geometry":{
"type":"Point",
"coordinates":[
132.877408,
35.465429
]
}
},
{
"type":"Feature",
"properties":{
"Name":"灘分小学校（体育館）",
"Jusho":"島根県出雲市灘分町2091",
"Capacity":"339",
"la":"35.43223700000",
"ln":"132.83691200000"
},
"geometry":{
"type":"Point",
"coordinates":[
132.836912,
35.432237
]
}
},
{
"type":"Feature",
"properties":{
"Name":"日御碕小学校（体育館）",
"Jusho":"島根県出雲市大社町日御碕521-1",
"Capacity":"264",
"la":"35.43042300000",
"ln":"132.63444300000"
},
"geometry":{
"type":"Point",
"coordinates":[
132.634443,
35.430423
]
}
},
{
"type":"Feature",
"properties":{
"Name":"稗原小学校（体育館）",
"Jusho":"島根県出雲市稗原町2825",
"Capacity":"457",
"la":"35.30626600000",
"ln":"132.80576900000"
},
"geometry":{
"type":"Point",
"coordinates":[
132.805769,
35.306266
]
}
},
{
"type":"Feature",
"properties":{
"Name":"平田小学校（体育館）",
"Jusho":"島根県出雲市西平田町1",
"Capacity":"427",
"la":"35.43398600000",
"ln":"132.81735800000"
},
"geometry":{
"type":"Point",
"coordinates":[
132.817358,
35.433986
]
}
},
{
"type":"Feature",
"properties":{
"Name":"北浜小学校（体育館）",
"Jusho":"島根県出雲市十六島町1383-5",
"Capacity":"345",
"la":"35.45723300000",
"ln":"132.75583600000"
},
"geometry":{
"type":"Point",
"coordinates":[
132.755836,
35.457233
]
}
},
{
"type":"Feature",
"properties":{
"Name":"北陽小学校（体育館）",
"Jusho":"島根県出雲市稲岡町10",
"Capacity":"309",
"la":"35.38965700000",
"ln":"132.77033700000"
},
"geometry":{
"type":"Point",
"coordinates":[
132.770337,
35.389657
]
}
},
{
"type":"Feature",
"properties":{
"Name":"遥堪小学校（体育館）",
"Jusho":"島根県出雲市大社町遥堪73",
"Capacity":"295",
"la":"35.39276700000",
"ln":"132.71839700000"
},
"geometry":{
"type":"Point",
"coordinates":[
132.718397,
35.392767
]
}
},
{
"type":"Feature",
"properties":{
"Name":"鰐淵小学校（体育館）",
"Jusho":"島根県出雲市河下町607",
"Capacity":"230",
"la":"35.44131800000",
"ln":"132.74530900000"
},
"geometry":{
"type":"Point",
"coordinates":[
132.745309,
35.441318
]
}
},
{
"type":"Feature",
"properties":{
"Name":"鰐淵小学校猪目分校校庭",
"Jusho":"島根県出雲市猪目町425-1",
"Capacity":"－",
"la":"35.43814375900",
"ln":"132.71156579500"
},
"geometry":{
"type":"Point",
"coordinates":[
132.711565795,
35.438143759
]
}
},
{
"type":"Feature",
"properties":{
"Name":"檜山小学校（体育館）",
"Jusho":"島根県出雲市多久谷町182-1",
"Capacity":"339",
"la":"35.46009500000",
"ln":"132.84510400000"
},
"geometry":{
"type":"Point",
"coordinates":[
132.845104,
35.460095
]
}
},
{
"type":"Feature",
"properties":{
"Name":"安田小学校",
"Jusho":"島根県益田市遠田町758-1",
"Capacity":"1000",
"la":"34.71391900000",
"ln":"131.85949300000"
},
"geometry":{
"type":"Point",
"coordinates":[
131.859493,
34.713919
]
}
},
{
"type":"Feature",
"properties":{
"Name":"益田小学校",
"Jusho":"島根県益田市本町7-17",
"Capacity":"400",
"la":"34.67778300000",
"ln":"131.86113200000"
},
"geometry":{
"type":"Point",
"coordinates":[
131.861132,
34.677783
]
}
},
{
"type":"Feature",
"properties":{
"Name":"鎌手小学校",
"Jusho":"島根県益田市西平原町584",
"Capacity":"500",
"la":"34.75333200000",
"ln":"131.87999000000"
},
"geometry":{
"type":"Point",
"coordinates":[
131.87999,
34.753332
]
}
},
{
"type":"Feature",
"properties":{
"Name":"吉田小学校",
"Jusho":"島根県益田市中吉田町272",
"Capacity":"1500",
"la":"34.68419900000",
"ln":"131.83674500000"
},
"geometry":{
"type":"Point",
"coordinates":[
131.836745,
34.684199
]
}
},
{
"type":"Feature",
"properties":{
"Name":"吉田南小学校",
"Jusho":"島根県益田市水分町11-3",
"Capacity":"1000",
"la":"34.66870100000",
"ln":"131.84421700000"
},
"geometry":{
"type":"Point",
"coordinates":[
131.844217,
34.668701
]
}
},
{
"type":"Feature",
"properties":{
"Name":"旧種小学校",
"Jusho":"島根県益田市下種町1251",
"Capacity":"300",
"la":"34.72555800000",
"ln":"131.91854300000"
},
"geometry":{
"type":"Point",
"coordinates":[
131.918543,
34.725558
]
}
},
{
"type":"Feature",
"properties":{
"Name":"旧馬谷小学校",
"Jusho":"島根県益田市",
"Capacity":"100",
"la":"34.64307972450",
"ln":"131.91311117600"
},
"geometry":{
"type":"Point",
"coordinates":[
131.913111176,
34.6430797245
]
}
},
{
"type":"Feature",
"properties":{
"Name":"旧飯浦小学校",
"Jusho":"島根県益田市飯浦町イ895番地",
"Capacity":"150",
"la":"34.67025399910",
"ln":"131.70109000000"
},
"geometry":{
"type":"Point",
"coordinates":[
131.70109,
34.6702539991
]
}
},
{
"type":"Feature",
"properties":{
"Name":"桂平小学校",
"Jusho":"島根県益田市桂平町427",
"Capacity":"150",
"la":"34.60051600000",
"ln":"131.72531900000"
},
"geometry":{
"type":"Point",
"coordinates":[
131.725319,
34.600516
]
}
},
{
"type":"Feature",
"properties":{
"Name":"戸田小学校",
"Jusho":"島根県益田市戸田町イ952-1",
"Capacity":"200",
"la":"34.67255900000",
"ln":"131.74672700000"
},
"geometry":{
"type":"Point",
"coordinates":[
131.746727,
34.672559
]
}
},
{
"type":"Feature",
"properties":{
"Name":"高津小学校",
"Jusho":"島根県益田市高津1-34-1",
"Capacity":"1000",
"la":"34.68162700000",
"ln":"131.82291500000"
},
"geometry":{
"type":"Point",
"coordinates":[
131.822915,
34.681627
]
}
},
{
"type":"Feature",
"properties":{
"Name":"真砂小学校",
"Jusho":"島根県益田市波田町イ266-1",
"Capacity":"200",
"la":"34.63137300000",
"ln":"131.93615700000"
},
"geometry":{
"type":"Point",
"coordinates":[
131.936157,
34.631373
]
}
},
{
"type":"Feature",
"properties":{
"Name":"西益田小学校",
"Jusho":"島根県益田市横田町147",
"Capacity":"500",
"la":"34.62534400000",
"ln":"131.81008300000"
},
"geometry":{
"type":"Point",
"coordinates":[
131.810083,
34.625344
]
}
},
{
"type":"Feature",
"properties":{
"Name":"中西小学校",
"Jusho":"島根県益田市白上町イ682",
"Capacity":"200",
"la":"34.64870200000",
"ln":"131.77639100000"
},
"geometry":{
"type":"Point",
"coordinates":[
131.776391,
34.648702
]
}
},
{
"type":"Feature",
"properties":{
"Name":"都茂小学校",
"Jusho":"島根県益田市美都町都茂1887-1",
"Capacity":"100",
"la":"34.66631200000",
"ln":"131.98359700000"
},
"geometry":{
"type":"Point",
"coordinates":[
131.983597,
34.666312
]
}
},
{
"type":"Feature",
"properties":{
"Name":"東仙道小学校",
"Jusho":"島根県益田市美都町仙道125",
"Capacity":"100",
"la":"34.68102300000",
"ln":"131.93003600000"
},
"geometry":{
"type":"Point",
"coordinates":[
131.930036,
34.681023
]
}
},
{
"type":"Feature",
"properties":{
"Name":"道川小学校",
"Jusho":"島根県益田市匹見町道川イ39",
"Capacity":"100",
"la":"34.64170700000",
"ln":"132.09052300000"
},
"geometry":{
"type":"Point",
"coordinates":[
132.090523,
34.641707
]
}
},
{
"type":"Feature",
"properties":{
"Name":"二川小学校",
"Jusho":"島根県益田市美都町宇津川ロ386-3",
"Capacity":"100",
"la":"34.69070200000",
"ln":"132.02734300000"
},
"geometry":{
"type":"Point",
"coordinates":[
132.027343,
34.690702
]
}
},
{
"type":"Feature",
"properties":{
"Name":"美濃小学校",
"Jusho":"島根県益田市美濃地町イ146",
"Capacity":"100",
"la":"34.62755300000",
"ln":"131.72580700000"
},
"geometry":{
"type":"Point",
"coordinates":[
131.725807,
34.627553
]
}
},
{
"type":"Feature",
"properties":{
"Name":"匹見小学校",
"Jusho":"島根県益田市匹見町匹見イ1324",
"Capacity":"100",
"la":"34.57140100000",
"ln":"132.01318900000"
},
"geometry":{
"type":"Point",
"coordinates":[
132.013189,
34.571401
]
}
},
{
"type":"Feature",
"properties":{
"Name":"豊川小学校",
"Jusho":"島根県益田市大谷町347-2",
"Capacity":"200",
"la":"34.67170100000",
"ln":"131.87638100000"
},
"geometry":{
"type":"Point",
"coordinates":[
131.876381,
34.671701
]
}
},
{
"type":"Feature",
"properties":{
"Name":"温泉津小学校（校舎）",
"Jusho":"島根県大田市温泉津町小浜イ280-1",
"Capacity":"－",
"la":"35.09075100000",
"ln":"132.35098900000"
},
"geometry":{
"type":"Point",
"coordinates":[
132.350989,
35.090751
]
}
},
{
"type":"Feature",
"properties":{
"Name":"久屋小学校（校舎）",
"Jusho":"島根県大田市久利町久利794-2",
"Capacity":"－",
"la":"35.15279700000",
"ln":"132.47418100000"
},
"geometry":{
"type":"Point",
"coordinates":[
132.474181,
35.152797
]
}
},
{
"type":"Feature",
"properties":{
"Name":"久手小学校（校舎）",
"Jusho":"島根県大田市久手町刺鹿2585",
"Capacity":"－",
"la":"35.22778900000",
"ln":"132.50973300000"
},
"geometry":{
"type":"Point",
"coordinates":[
132.509733,
35.227789
]
}
},
{
"type":"Feature",
"properties":{
"Name":"旧井田小学校（校舎）",
"Jusho":"島根県大田市温泉津町井田ロ255",
"Capacity":"－",
"la":"35.03220700000",
"ln":"132.38628900000"
},
"geometry":{
"type":"Point",
"coordinates":[
132.386289,
35.032207
]
}
},
{
"type":"Feature",
"properties":{
"Name":"旧温泉津小学校（校舎）",
"Jusho":"島根県大田市",
"Capacity":"－",
"la":"35.09082287180",
"ln":"132.35005135800"
},
"geometry":{
"type":"Point",
"coordinates":[
132.350051358,
35.0908228718
]
}
},
{
"type":"Feature",
"properties":{
"Name":"旧大代小学校（校舎）",
"Jusho":"島根県大田市大代町大家281",
"Capacity":"－",
"la":"35.03711500000",
"ln":"132.41544000000"
},
"geometry":{
"type":"Point",
"coordinates":[
132.41544,
35.037115
]
}
},
{
"type":"Feature",
"properties":{
"Name":"旧湯里小学校（校舎）",
"Jusho":"島根県大田市温泉津町湯里1655",
"Capacity":"－",
"la":"35.10689500000",
"ln":"132.37930500000"
},
"geometry":{
"type":"Point",
"coordinates":[
132.379305,
35.106895
]
}
},
{
"type":"Feature",
"properties":{
"Name":"五十猛小学校（校舎）",
"Jusho":"島根県大田市五十猛町1518",
"Capacity":"－",
"la":"35.18804100000",
"ln":"132.43052000000"
},
"geometry":{
"type":"Point",
"coordinates":[
132.43052,
35.188041
]
}
},
{
"type":"Feature",
"properties":{
"Name":"高山小学校（校舎）",
"Jusho":"島根県大田市水上町白坏140",
"Capacity":"－",
"la":"35.07405600000",
"ln":"132.45607500000"
},
"geometry":{
"type":"Point",
"coordinates":[
132.456075,
35.074056
]
}
},
{
"type":"Feature",
"properties":{
"Name":"志学小学校（校舎）",
"Jusho":"島根県大田市三瓶町志学2065",
"Capacity":"－",
"la":"35.11533000000",
"ln":"132.63511200000"
},
"geometry":{
"type":"Point",
"coordinates":[
132.635112,
35.11533
]
}
},
{
"type":"Feature",
"properties":{
"Name":"仁摩小学校（校舎）",
"Jusho":"島根県大田市仁摩町仁万176-2",
"Capacity":"－",
"la":"35.15012000000",
"ln":"132.39912700000"
},
"geometry":{
"type":"Point",
"coordinates":[
132.399127,
35.15012
]
}
},
{
"type":"Feature",
"properties":{
"Name":"静間小学校（校舎）",
"Jusho":"島根県大田市静間町548",
"Capacity":"－",
"la":"35.20334600000",
"ln":"132.46232100000"
},
"geometry":{
"type":"Point",
"coordinates":[
132.462321,
35.203346
]
}
},
{
"type":"Feature",
"properties":{
"Name":"川合小学校（校舎）",
"Jusho":"島根県大田市川合町川合3025",
"Capacity":"－",
"la":"35.15201900000",
"ln":"132.51403800000"
},
"geometry":{
"type":"Point",
"coordinates":[
132.514038,
35.152019
]
}
},
{
"type":"Feature",
"properties":{
"Name":"大森小学校（校舎）",
"Jusho":"島根県大田市大森町ニ-32",
"Capacity":"－",
"la":"35.11119200000",
"ln":"132.43999300000"
},
"geometry":{
"type":"Point",
"coordinates":[
132.439993,
35.111192
]
}
},
{
"type":"Feature",
"properties":{
"Name":"大田小学校（校舎）",
"Jusho":"島根県大田市大田町大田イ590",
"Capacity":"－",
"la":"35.19454200000",
"ln":"132.50784500000"
},
"geometry":{
"type":"Point",
"coordinates":[
132.507845,
35.194542
]
}
},
{
"type":"Feature",
"properties":{
"Name":"池田小学校（校舎）",
"Jusho":"島根県大田市三瓶町池田2242",
"Capacity":"－",
"la":"35.14718700000",
"ln":"132.58397800000"
},
"geometry":{
"type":"Point",
"coordinates":[
132.583978,
35.147187
]
}
},
{
"type":"Feature",
"properties":{
"Name":"朝波小学校（校舎）",
"Jusho":"島根県大田市波根町15",
"Capacity":"－",
"la":"35.24423000000",
"ln":"132.54142400000"
},
"geometry":{
"type":"Point",
"coordinates":[
132.541424,
35.24423
]
}
},
{
"type":"Feature",
"properties":{
"Name":"長久小学校（校舎）",
"Jusho":"島根県大田市長久町長久イ782",
"Capacity":"－",
"la":"35.19577400000",
"ln":"132.48300500000"
},
"geometry":{
"type":"Point",
"coordinates":[
132.483005,
35.195774
]
}
},
{
"type":"Feature",
"properties":{
"Name":"鳥井小学校（校舎）",
"Jusho":"島根県大田市鳥井町鳥井417",
"Capacity":"－",
"la":"35.21895500000",
"ln":"132.48079200000"
},
"geometry":{
"type":"Point",
"coordinates":[
132.480792,
35.218955
]
}
},
{
"type":"Feature",
"properties":{
"Name":"富山小学校（校舎）",
"Jusho":"島根県大田市富山町山中1684",
"Capacity":"－",
"la":"35.21476876490",
"ln":"132.57674044800"
},
"geometry":{
"type":"Point",
"coordinates":[
132.576740448,
35.2147687649
]
}
},
{
"type":"Feature",
"properties":{
"Name":"北三瓶小学校（校舎）",
"Jusho":"島根県大田市三瓶町多根イ934",
"Capacity":"－",
"la":"35.16890600000",
"ln":"132.61872400000"
},
"geometry":{
"type":"Point",
"coordinates":[
132.618724,
35.168906
]
}
},
{
"type":"Feature",
"properties":{
"Name":"安田小学校",
"Jusho":"島根県安来市伯太町安田1213-1",
"Capacity":"120",
"la":"35.37211300000",
"ln":"133.28316400000"
},
"geometry":{
"type":"Point",
"coordinates":[
133.283164,
35.372113
]
}
},
{
"type":"Feature",
"properties":{
"Name":"井尻小学校",
"Jusho":"島根県安来市伯太町井尻859-2",
"Capacity":"360",
"la":"35.32819300000",
"ln":"133.26261100000"
},
"geometry":{
"type":"Point",
"coordinates":[
133.262611,
35.328193
]
}
},
{
"type":"Feature",
"properties":{
"Name":"宇賀荘小学校",
"Jusho":"島根県安来市清井町300",
"Capacity":"420",
"la":"35.39372700000",
"ln":"133.26465100000"
},
"geometry":{
"type":"Point",
"coordinates":[
133.264651,
35.393727
]
}
},
{
"type":"Feature",
"properties":{
"Name":"旧奥田原小学校",
"Jusho":"島根県安来市広瀬町奥田原479",
"Capacity":"290",
"la":"35.28385994840",
"ln":"133.07789031800"
},
"geometry":{
"type":"Point",
"coordinates":[
133.077890318,
35.2838599484
]
}
},
{
"type":"Feature",
"properties":{
"Name":"旧山佐小学校",
"Jusho":"島根県安来市広瀬町上山佐",
"Capacity":"240",
"la":"35.32519410800",
"ln":"133.11066068400"
},
"geometry":{
"type":"Point",
"coordinates":[
133.110660684,
35.325194108
]
}
},
{
"type":"Feature",
"properties":{
"Name":"旧比田小学校",
"Jusho":"島根県安来市広瀬町西比田1636-3",
"Capacity":"290",
"la":"35.24136149150",
"ln":"133.13393226100"
},
"geometry":{
"type":"Point",
"coordinates":[
133.133932261,
35.2413614915
]
}
},
{
"type":"Feature",
"properties":{
"Name":"広瀬小学校",
"Jusho":"島根県安来市広瀬町広瀬751",
"Capacity":"410",
"la":"35.36573000000",
"ln":"133.17164800000"
},
"geometry":{
"type":"Point",
"coordinates":[
133.171648,
35.36573
]
}
},
{
"type":"Feature",
"properties":{
"Name":"荒島小学校",
"Jusho":"島根県安来市荒島町2728",
"Capacity":"570",
"la":"35.42797300000",
"ln":"133.20576500000"
},
"geometry":{
"type":"Point",
"coordinates":[
133.205765,
35.427973
]
}
},
{
"type":"Feature",
"properties":{
"Name":"山佐小学校",
"Jusho":"島根県安来市広瀬町上山佐608-2",
"Capacity":"160",
"la":"35.32547900000",
"ln":"133.11086100000"
},
"geometry":{
"type":"Point",
"coordinates":[
133.110861,
35.325479
]
}
},
{
"type":"Feature",
"properties":{
"Name":"社日小学校",
"Jusho":"島根県安来市宮内町101",
"Capacity":"630",
"la":"35.42231681760",
"ln":"133.24863002400"
},
"geometry":{
"type":"Point",
"coordinates":[
133.248630024,
35.4223168176
]
}
},
{
"type":"Feature",
"properties":{
"Name":"十神小学校",
"Jusho":"島根県安来市安来町843-3",
"Capacity":"680",
"la":"35.42980600000",
"ln":"133.24826200000"
},
"geometry":{
"type":"Point",
"coordinates":[
133.248262,
35.429806
]
}
},
{
"type":"Feature",
"properties":{
"Name":"赤屋小学校",
"Jusho":"島根県安来市伯太町赤屋123",
"Capacity":"220",
"la":"35.29625200000",
"ln":"133.26105000000"
},
"geometry":{
"type":"Point",
"coordinates":[
133.26105,
35.296252
]
}
},
{
"type":"Feature",
"properties":{
"Name":"赤江小学校",
"Jusho":"島根県安来市赤江町1843",
"Capacity":"530",
"la":"35.43025000000",
"ln":"133.22537500000"
},
"geometry":{
"type":"Point",
"coordinates":[
133.225375,
35.43025
]
}
},
{
"type":"Feature",
"properties":{
"Name":"島田小学校",
"Jusho":"島根県安来市穂日島町485",
"Capacity":"480",
"la":"35.41891900000",
"ln":"133.29462000000"
},
"geometry":{
"type":"Point",
"coordinates":[
133.29462,
35.418919
]
}
},
{
"type":"Feature",
"properties":{
"Name":"南小学校",
"Jusho":"島根県安来市清瀬町230",
"Capacity":"600",
"la":"35.38572700000",
"ln":"133.25734700000"
},
"geometry":{
"type":"Point",
"coordinates":[
133.257347,
35.385727
]
}
},
{
"type":"Feature",
"properties":{
"Name":"能義小学校",
"Jusho":"島根県安来市飯生町265",
"Capacity":"430",
"la":"35.39461500000",
"ln":"133.22754300000"
},
"geometry":{
"type":"Point",
"coordinates":[
133.227543,
35.394615
]
}
},
{
"type":"Feature",
"properties":{
"Name":"飯梨小学校",
"Jusho":"島根県安来市植田町398",
"Capacity":"400",
"la":"35.39167000000",
"ln":"133.20282200000"
},
"geometry":{
"type":"Point",
"coordinates":[
133.202822,
35.39167
]
}
},
{
"type":"Feature",
"properties":{
"Name":"比田小学校",
"Jusho":"島根県安来市広瀬町西比田1659",
"Capacity":"300",
"la":"35.24096200000",
"ln":"133.13277700000"
},
"geometry":{
"type":"Point",
"coordinates":[
133.132777,
35.240962
]
}
},
{
"type":"Feature",
"properties":{
"Name":"布部小学校",
"Jusho":"島根県安来市広瀬町布部1152",
"Capacity":"240",
"la":"35.30171800000",
"ln":"133.14733600000"
},
"geometry":{
"type":"Point",
"coordinates":[
133.147336,
35.301718
]
}
},
{
"type":"Feature",
"properties":{
"Name":"母里小学校",
"Jusho":"島根県安来市伯太町西母里1040-1",
"Capacity":"140",
"la":"35.35201900000",
"ln":"133.27276500000"
},
"geometry":{
"type":"Point",
"coordinates":[
133.272765,
35.352019
]
}
},
{
"type":"Feature",
"properties":{
"Name":"旧有福温泉小学校",
"Jusho":"島根県江津市有福温泉町本明1472",
"Capacity":"－",
"la":"34.94340200000",
"ln":"132.20569573900"
},
"geometry":{
"type":"Point",
"coordinates":[
132.205695739,
34.943402
]
}
},
{
"type":"Feature",
"properties":{
"Name":"郷田小学校",
"Jusho":"島根県江津市江津町536",
"Capacity":"－",
"la":"35.00811700000",
"ln":"132.22473500000"
},
"geometry":{
"type":"Point",
"coordinates":[
132.224735,
35.008117
]
}
},
{
"type":"Feature",
"properties":{
"Name":"江津東小学校",
"Jusho":"島根県江津市後地町1035",
"Capacity":"－",
"la":"35.04166900000",
"ln":"132.29309000000"
},
"geometry":{
"type":"Point",
"coordinates":[
132.29309,
35.041669
]
}
},
{
"type":"Feature",
"properties":{
"Name":"高角小学校",
"Jusho":"島根県江津市嘉久志町645",
"Capacity":"－",
"la":"35.00300000000",
"ln":"132.20949900000"
},
"geometry":{
"type":"Point",
"coordinates":[
132.209499,
35.003
]
}
},
{
"type":"Feature",
"properties":{
"Name":"跡市小学校",
"Jusho":"島根県江津市跡市町632",
"Capacity":"－",
"la":"34.95623400000",
"ln":"132.22437500000"
},
"geometry":{
"type":"Point",
"coordinates":[
132.224375,
34.956234
]
}
},
{
"type":"Feature",
"properties":{
"Name":"川波小学校",
"Jusho":"島根県江津市敬川町2225",
"Capacity":"－",
"la":"34.97367600000",
"ln":"132.15843600000"
},
"geometry":{
"type":"Point",
"coordinates":[
132.158436,
34.973676
]
}
},
{
"type":"Feature",
"properties":{
"Name":"津宮小学校",
"Jusho":"島根県江津市都野津町2110-1",
"Capacity":"－",
"la":"34.98336563000",
"ln":"132.19313626600"
},
"geometry":{
"type":"Point",
"coordinates":[
132.193136266,
34.98336563
]
}
},
{
"type":"Feature",
"properties":{
"Name":"渡津小学校",
"Jusho":"島根県江津市渡津町674-1",
"Capacity":"－",
"la":"35.02264300000",
"ln":"132.23370700000"
},
"geometry":{
"type":"Point",
"coordinates":[
132.233707,
35.022643
]
}
},
{
"type":"Feature",
"properties":{
"Name":"阿用小学校",
"Jusho":"島根県雲南市大東町東阿用109",
"Capacity":"－",
"la":"35.30367449260",
"ln":"132.96890126100"
},
"geometry":{
"type":"Point",
"coordinates":[
132.968901261,
35.3036744926
]
}
},
{
"type":"Feature",
"properties":{
"Name":"塩田小学校",
"Jusho":"島根県雲南市大東町塩田96-1",
"Capacity":"－",
"la":"35.29472600000",
"ln":"133.02122700000"
},
"geometry":{
"type":"Point",
"coordinates":[
133.021227,
35.294726
]
}
},
{
"type":"Feature",
"properties":{
"Name":"温泉小学校",
"Jusho":"島根県雲南市木次町平田507-2",
"Capacity":"－",
"la":"35.21270400000",
"ln":"132.93886200000"
},
"geometry":{
"type":"Point",
"coordinates":[
132.938862,
35.212704
]
}
},
{
"type":"Feature",
"properties":{
"Name":"加茂小学校",
"Jusho":"島根県雲南市加茂町加茂中1031",
"Capacity":"－",
"la":"35.34758100000",
"ln":"132.90883400000"
},
"geometry":{
"type":"Point",
"coordinates":[
132.908834,
35.347581
]
}
},
{
"type":"Feature",
"properties":{
"Name":"掛合小学校",
"Jusho":"島根県雲南市掛合町掛合2280-1",
"Capacity":"－",
"la":"35.19848736600",
"ln":"132.81739732200"
},
"geometry":{
"type":"Point",
"coordinates":[
132.817397322,
35.198487366
]
}
},
{
"type":"Feature",
"properties":{
"Name":"久野小学校",
"Jusho":"島根県雲南市大東町上久野44-1",
"Capacity":"－",
"la":"35.26656945540",
"ln":"133.02538697100"
},
"geometry":{
"type":"Point",
"coordinates":[
133.025386971,
35.2665694554
]
}
},
{
"type":"Feature",
"properties":{
"Name":"佐世小学校",
"Jusho":"島根県雲南市大東町上佐世1394-1",
"Capacity":"－",
"la":"35.30882800000",
"ln":"132.94555000000"
},
"geometry":{
"type":"Point",
"coordinates":[
132.94555,
35.308828
]
}
},
{
"type":"Feature",
"properties":{
"Name":"三刀屋小学校",
"Jusho":"島根県雲南市三刀屋町給下1007-1",
"Capacity":"－",
"la":"35.30340200000",
"ln":"132.87744200000"
},
"geometry":{
"type":"Point",
"coordinates":[
132.877442,
35.303402
]
}
},
{
"type":"Feature",
"properties":{
"Name":"寺領小学校",
"Jusho":"島根県雲南市木次町寺領612",
"Capacity":"－",
"la":"35.27979600000",
"ln":"132.93007400000"
},
"geometry":{
"type":"Point",
"coordinates":[
132.930074,
35.279796
]
}
},
{
"type":"Feature",
"properties":{
"Name":"西小学校",
"Jusho":"島根県雲南市大東町仁和寺2435-11",
"Capacity":"－",
"la":"35.33682000000",
"ln":"132.94994400000"
},
"geometry":{
"type":"Point",
"coordinates":[
132.949944,
35.33682
]
}
},
{
"type":"Feature",
"properties":{
"Name":"西日登小学校",
"Jusho":"島根県雲南市木次町西日登985",
"Capacity":"－",
"la":"35.26842500000",
"ln":"132.90820100000"
},
"geometry":{
"type":"Point",
"coordinates":[
132.908201,
35.268425
]
}
},
{
"type":"Feature",
"properties":{
"Name":"大東小学校",
"Jusho":"島根県雲南市大東町田中43-4",
"Capacity":"－",
"la":"35.32492900000",
"ln":"132.97655200000"
},
"geometry":{
"type":"Point",
"coordinates":[
132.976552,
35.324929
]
}
},
{
"type":"Feature",
"properties":{
"Name":"中野小学校",
"Jusho":"島根県雲南市三刀屋町中野375-2",
"Capacity":"－",
"la":"35.23092900000",
"ln":"132.85776800000"
},
"geometry":{
"type":"Point",
"coordinates":[
132.857768,
35.230929
]
}
},
{
"type":"Feature",
"properties":{
"Name":"田井小学校体育館",
"Jusho":"島根県雲南市",
"Capacity":"－",
"la":"35.20455665160",
"ln":"132.91835558800"
},
"geometry":{
"type":"Point",
"coordinates":[
132.918355588,
35.2045566516
]
}
},
{
"type":"Feature",
"properties":{
"Name":"鍋山小学校",
"Jusho":"島根県雲南市三刀屋町乙加宮1231",
"Capacity":"－",
"la":"35.26321600000",
"ln":"132.83081700000"
},
"geometry":{
"type":"Point",
"coordinates":[
132.830817,
35.263216
]
}
},
{
"type":"Feature",
"properties":{
"Name":"飯石小学校",
"Jusho":"島根県雲南市三刀屋町多久和528",
"Capacity":"－",
"la":"35.25505800000",
"ln":"132.87153600000"
},
"geometry":{
"type":"Point",
"coordinates":[
132.871536,
35.255058
]
}
},
{
"type":"Feature",
"properties":{
"Name":"斐伊小学校",
"Jusho":"島根県雲南市木次町里方1064",
"Capacity":"－",
"la":"35.30999900000",
"ln":"132.90239000000"
},
"geometry":{
"type":"Point",
"coordinates":[
132.90239,
35.309999
]
}
},
{
"type":"Feature",
"properties":{
"Name":"木次小学校",
"Jusho":"島根県雲南市木次町木次1001-1",
"Capacity":"－",
"la":"35.28669500000",
"ln":"132.90356300000"
},
"geometry":{
"type":"Point",
"coordinates":[
132.903563,
35.286695
]
}
},
{
"type":"Feature",
"properties":{
"Name":"阿井小学校",
"Jusho":"島根県仁多郡奥出雲町上阿井1108",
"Capacity":"－",
"la":"35.14674800000",
"ln":"132.95271300000"
},
"geometry":{
"type":"Point",
"coordinates":[
132.952713,
35.146748
]
}
},
{
"type":"Feature",
"properties":{
"Name":"横田小学校",
"Jusho":"島根県仁多郡奥出雲町横田1025-1",
"Capacity":"－",
"la":"35.17899600000",
"ln":"133.09222700000"
},
"geometry":{
"type":"Point",
"coordinates":[
133.092227,
35.178996
]
}
},
{
"type":"Feature",
"properties":{
"Name":"亀嵩小学校",
"Jusho":"島根県仁多郡奥出雲町亀嵩2206",
"Capacity":"－",
"la":"35.22110200000",
"ln":"133.07625400000"
},
"geometry":{
"type":"Point",
"coordinates":[
133.076254,
35.221102
]
}
},
{
"type":"Feature",
"properties":{
"Name":"高田小学校",
"Jusho":"島根県仁多郡奥出雲町高田25-2",
"Capacity":"－",
"la":"35.22896200000",
"ln":"133.04283900000"
},
"geometry":{
"type":"Point",
"coordinates":[
133.042839,
35.228962
]
}
},
{
"type":"Feature",
"properties":{
"Name":"高尾小学校",
"Jusho":"島根県仁多郡奥出雲町高尾823",
"Capacity":"－",
"la":"35.15560900000",
"ln":"133.01076200000"
},
"geometry":{
"type":"Point",
"coordinates":[
133.010762,
35.155609
]
}
},
{
"type":"Feature",
"properties":{
"Name":"三成小学校",
"Jusho":"島根県仁多郡奥出雲町三成348",
"Capacity":"－",
"la":"35.19835400000",
"ln":"133.00354000000"
},
"geometry":{
"type":"Point",
"coordinates":[
133.00354,
35.198354
]
}
},
{
"type":"Feature",
"properties":{
"Name":"三沢小学校",
"Jusho":"島根県仁多郡奥出雲町三沢1099-7",
"Capacity":"－",
"la":"35.20315900000",
"ln":"132.97470900000"
},
"geometry":{
"type":"Point",
"coordinates":[
132.974709,
35.203159
]
}
},
{
"type":"Feature",
"properties":{
"Name":"鳥上小学校",
"Jusho":"島根県仁多郡奥出雲町大呂1152-2",
"Capacity":"－",
"la":"35.18280200000",
"ln":"133.13236200000"
},
"geometry":{
"type":"Point",
"coordinates":[
133.132362,
35.182802
]
}
},
{
"type":"Feature",
"properties":{
"Name":"馬木小学校",
"Jusho":"島根県仁多郡奥出雲町大馬木1857-1",
"Capacity":"－",
"la":"35.12547400000",
"ln":"133.04503900000"
},
"geometry":{
"type":"Point",
"coordinates":[
133.045039,
35.125474
]
}
},
{
"type":"Feature",
"properties":{
"Name":"八川小学校",
"Jusho":"島根県仁多郡奥出雲町下横田500-2",
"Capacity":"－",
"la":"35.15624900000",
"ln":"133.08472800000"
},
"geometry":{
"type":"Point",
"coordinates":[
133.084728,
35.156249
]
}
},
{
"type":"Feature",
"properties":{
"Name":"布勢小学校",
"Jusho":"島根県仁多郡奥出雲町八代220",
"Capacity":"－",
"la":"35.22868300000",
"ln":"132.99481800000"
},
"geometry":{
"type":"Point",
"coordinates":[
132.994818,
35.228683
]
}
},
{
"type":"Feature",
"properties":{
"Name":"赤名小学校",
"Jusho":"島根県飯石郡飯南町下赤名713",
"Capacity":"－",
"la":"34.99537400000",
"ln":"132.71771800000"
},
"geometry":{
"type":"Point",
"coordinates":[
132.717718,
34.995374
]
}
},
{
"type":"Feature",
"properties":{
"Name":"頓原小学校",
"Jusho":"島根県飯石郡飯南町大字頓原2101",
"Capacity":"－",
"la":"35.08103400000",
"ln":"132.78117200000"
},
"geometry":{
"type":"Point",
"coordinates":[
132.781172,
35.081034
]
}
},
{
"type":"Feature",
"properties":{
"Name":"来島小学校",
"Jusho":"島根県飯石郡飯南町野萱1948",
"Capacity":"－",
"la":"35.03603700000",
"ln":"132.74104900000"
},
"geometry":{
"type":"Point",
"coordinates":[
132.741049,
35.036037
]
}
},
{
"type":"Feature",
"properties":{
"Name":"三原小学校",
"Jusho":"島根県邑智郡川本町大字南佐木230",
"Capacity":"－",
"la":"34.99462000000",
"ln":"132.41291400000"
},
"geometry":{
"type":"Point",
"coordinates":[
132.412914,
34.99462
]
}
},
{
"type":"Feature",
"properties":{
"Name":"川本小学校",
"Jusho":"島根県邑智郡川本町川本426",
"Capacity":"－",
"la":"34.99045600000",
"ln":"132.49590700000"
},
"geometry":{
"type":"Point",
"coordinates":[
132.495907,
34.990456
]
}
},
{
"type":"Feature",
"properties":{
"Name":"川本西小学校",
"Jusho":"島根県邑智郡川本町川下1510",
"Capacity":"－",
"la":"34.96993000000",
"ln":"132.46788100000"
},
"geometry":{
"type":"Point",
"coordinates":[
132.467881,
34.96993
]
}
},
{
"type":"Feature",
"properties":{
"Name":"旧吾郷小学校体育館",
"Jusho":"島根県邑智郡美郷町",
"Capacity":"－",
"la":"35.04164048330",
"ln":"132.56069996500"
},
"geometry":{
"type":"Point",
"coordinates":[
132.560699965,
35.0416404833
]
}
},
{
"type":"Feature",
"properties":{
"Name":"大和小学校体育館",
"Jusho":"島根県邑智郡美郷町都賀西311-4",
"Capacity":"－",
"la":"34.95010419100",
"ln":"132.63802234900"
},
"geometry":{
"type":"Point",
"coordinates":[
132.638022349,
34.950104191
]
}
},
{
"type":"Feature",
"properties":{
"Name":"阿須那小学校",
"Jusho":"島根県邑智郡邑南町阿須那108",
"Capacity":"－",
"la":"34.87274900000",
"ln":"132.61909400000"
},
"geometry":{
"type":"Point",
"coordinates":[
132.619094,
34.872749
]
}
},
{
"type":"Feature",
"properties":{
"Name":"口羽小学校",
"Jusho":"島根県邑智郡邑南町下口羽550",
"Capacity":"－",
"la":"34.88083200000",
"ln":"132.67025600000"
},
"geometry":{
"type":"Point",
"coordinates":[
132.670256,
34.880832
]
}
},
{
"type":"Feature",
"properties":{
"Name":"高原小学校",
"Jusho":"島根県邑智郡邑南町原村284-8",
"Capacity":"－",
"la":"34.89444000000",
"ln":"132.55468300000"
},
"geometry":{
"type":"Point",
"coordinates":[
132.554683,
34.89444
]
}
},
{
"type":"Feature",
"properties":{
"Name":"市木小学校",
"Jusho":"島根県邑智郡邑南町市木2091",
"Capacity":"－",
"la":"34.83488800000",
"ln":"132.40236400000"
},
"geometry":{
"type":"Point",
"coordinates":[
132.402364,
34.834888
]
}
},
{
"type":"Feature",
"properties":{
"Name":"瑞穂小学校",
"Jusho":"島根県邑智郡邑南町下田所280",
"Capacity":"－",
"la":"34.85463800000",
"ln":"132.52077000000"
},
"geometry":{
"type":"Point",
"coordinates":[
132.52077,
34.854638
]
}
},
{
"type":"Feature",
"properties":{
"Name":"石見東小学校",
"Jusho":"島根県邑智郡邑南町中野2306",
"Capacity":"－",
"la":"34.89979900000",
"ln":"132.46827200000"
},
"geometry":{
"type":"Point",
"coordinates":[
132.468272,
34.899799
]
}
},
{
"type":"Feature",
"properties":{
"Name":"日貫小学校",
"Jusho":"島根県邑智郡邑南町日貫3826",
"Capacity":"－",
"la":"34.88418700000",
"ln":"132.35739300000"
},
"geometry":{
"type":"Point",
"coordinates":[
132.357393,
34.884187
]
}
},
{
"type":"Feature",
"properties":{
"Name":"日和小学校",
"Jusho":"島根県邑智郡邑南町日和2582",
"Capacity":"－",
"la":"34.91379600000",
"ln":"132.37900100000"
},
"geometry":{
"type":"Point",
"coordinates":[
132.379001,
34.913796
]
}
},
{
"type":"Feature",
"properties":{
"Name":"矢上小学校",
"Jusho":"島根県邑智郡邑南町矢上3876",
"Capacity":"－",
"la":"34.89021600000",
"ln":"132.44255300000"
},
"geometry":{
"type":"Point",
"coordinates":[
132.442553,
34.890216
]
}
},
{
"type":"Feature",
"properties":{
"Name":"元須川小学校",
"Jusho":"島根県鹿足郡津和野町須川40",
"Capacity":"－",
"la":"34.56893399910",
"ln":"131.86985700000"
},
"geometry":{
"type":"Point",
"coordinates":[
131.869857,
34.5689339991
]
}
},
{
"type":"Feature",
"properties":{
"Name":"左鐙小学校",
"Jusho":"島根県鹿足郡津和野町左鐙888",
"Capacity":"－",
"la":"34.49619300000",
"ln":"131.86899800000"
},
"geometry":{
"type":"Point",
"coordinates":[
131.868998,
34.496193
]
}
},
{
"type":"Feature",
"properties":{
"Name":"青原小学校",
"Jusho":"島根県鹿足郡津和野町青原300",
"Capacity":"－",
"la":"34.57873800000",
"ln":"131.79514100000"
},
"geometry":{
"type":"Point",
"coordinates":[
131.795141,
34.578738
]
}
},
{
"type":"Feature",
"properties":{
"Name":"津和野小学校",
"Jusho":"島根県鹿足郡津和野町森村ロ104",
"Capacity":"－",
"la":"34.46414100000",
"ln":"131.77189600000"
},
"geometry":{
"type":"Point",
"coordinates":[
131.771896,
34.464141
]
}
},
{
"type":"Feature",
"properties":{
"Name":"日原小学校",
"Jusho":"島根県鹿足郡津和野町日原231-1",
"Capacity":"－",
"la":"34.54462100000",
"ln":"131.83688300000"
},
"geometry":{
"type":"Point",
"coordinates":[
131.836883,
34.544621
]
}
},
{
"type":"Feature",
"properties":{
"Name":"畑迫小学校",
"Jusho":"島根県鹿足郡津和野町部栄375",
"Capacity":"－",
"la":"34.48422200000",
"ln":"131.74359300000"
},
"geometry":{
"type":"Point",
"coordinates":[
131.743593,
34.484222
]
}
},
{
"type":"Feature",
"properties":{
"Name":"木部小学校",
"Jusho":"島根県鹿足郡津和野町中川424",
"Capacity":"－",
"la":"34.52621600000",
"ln":"131.72312200000"
},
"geometry":{
"type":"Point",
"coordinates":[
131.723122,
34.526216
]
}
},
{
"type":"Feature",
"properties":{
"Name":"柿木小学校",
"Jusho":"島根県鹿足郡吉賀町柿木村柿木613番地",
"Capacity":"200",
"la":"34.44007600000",
"ln":"131.86456800000"
},
"geometry":{
"type":"Point",
"coordinates":[
131.864568,
34.440076
]
}
},
{
"type":"Feature",
"properties":{
"Name":"七日市小学校",
"Jusho":"島根県鹿足郡吉賀町七日市699番地",
"Capacity":"200",
"la":"34.38906600000",
"ln":"131.88913900000"
},
"geometry":{
"type":"Point",
"coordinates":[
131.889139,
34.389066
]
}
},
{
"type":"Feature",
"properties":{
"Name":"蔵木小学校",
"Jusho":"島根県鹿足郡吉賀町蔵木14番地",
"Capacity":"200",
"la":"34.37498400000",
"ln":"131.98615800000"
},
"geometry":{
"type":"Point",
"coordinates":[
131.986158,
34.374984
]
}
},
{
"type":"Feature",
"properties":{
"Name":"朝倉小学校",
"Jusho":"島根県鹿足郡吉賀町朝倉991番地1",
"Capacity":"200",
"la":"34.36376400000",
"ln":"131.89250000000"
},
"geometry":{
"type":"Point",
"coordinates":[
131.8925,
34.363764
]
}
},
{
"type":"Feature",
"properties":{
"Name":"六日市小学校",
"Jusho":"島根県鹿足郡吉賀町六日市858番地",
"Capacity":"200",
"la":"34.35401500000",
"ln":"131.93280200000"
},
"geometry":{
"type":"Point",
"coordinates":[
131.932802,
34.354015
]
}
},
{
"type":"Feature",
"properties":{
"Name":"海士小学校",
"Jusho":"島根県隠岐郡海士町大字海士4970番地",
"Capacity":"150",
"la":"36.10559000000",
"ln":"133.10708800000"
},
"geometry":{
"type":"Point",
"coordinates":[
133.107088,
36.10559
]
}
},
{
"type":"Feature",
"properties":{
"Name":"福井小学校",
"Jusho":"島根県隠岐郡海士町大字福井412番地",
"Capacity":"200",
"la":"36.09761800000",
"ln":"133.08547900000"
},
"geometry":{
"type":"Point",
"coordinates":[
133.085479,
36.097618
]
}
},
{
"type":"Feature",
"properties":{
"Name":"浦郷小学校",
"Jusho":"島根県隠岐郡西ノ島町浦郷1017",
"Capacity":"－",
"la":"36.09342400000",
"ln":"132.98380100000"
},
"geometry":{
"type":"Point",
"coordinates":[
132.983801,
36.093424
]
}
},
{
"type":"Feature",
"properties":{
"Name":"黒木小学校",
"Jusho":"島根県隠岐郡西ノ島町美田2162",
"Capacity":"－",
"la":"36.10817000000",
"ln":"133.03826000000"
},
"geometry":{
"type":"Point",
"coordinates":[
133.03826,
36.10817
]
}
},
{
"type":"Feature",
"properties":{
"Name":"美田小学校",
"Jusho":"島根県隠岐郡西ノ島町美田2485",
"Capacity":"－",
"la":"36.10167000000",
"ln":"133.01329000000"
},
"geometry":{
"type":"Point",
"coordinates":[
133.01329,
36.10167
]
}
},
{
"type":"Feature",
"properties":{
"Name":"磯小学校",
"Jusho":"島根県隠岐郡隠岐の島町下西1714番地1",
"Capacity":"－",
"la":"36.20170189310",
"ln":"133.30843936400"
},
"geometry":{
"type":"Point",
"coordinates":[
133.308439364,
36.2017018931
]
}
},
{
"type":"Feature",
"properties":{
"Name":"下西小学校",
"Jusho":"島根県隠岐郡隠岐の島町下西1696番地",
"Capacity":"－",
"la":"36.20369400000",
"ln":"133.31123200000"
},
"geometry":{
"type":"Point",
"coordinates":[
133.311232,
36.203694
]
}
},
{
"type":"Feature",
"properties":{
"Name":"五箇小学校",
"Jusho":"島根県隠岐郡隠岐の島町郡67番地",
"Capacity":"－",
"la":"36.28442300000",
"ln":"133.23772900000"
},
"geometry":{
"type":"Point",
"coordinates":[
133.237729,
36.284423
]
}
},
{
"type":"Feature",
"properties":{
"Name":"今津小学校",
"Jusho":"島根県隠岐郡隠岐の島町今津346番地2",
"Capacity":"－",
"la":"36.18208600000",
"ln":"133.30620500000"
},
"geometry":{
"type":"Point",
"coordinates":[
133.306205,
36.182086
]
}
},
{
"type":"Feature",
"properties":{
"Name":"西郷小学校",
"Jusho":"島根県隠岐郡隠岐の島町西町大城の四4番地",
"Capacity":"－",
"la":"36.20722200000",
"ln":"133.32922600000"
},
"geometry":{
"type":"Point",
"coordinates":[
133.329226,
36.207222
]
}
},
{
"type":"Feature",
"properties":{
"Name":"大久小学校",
"Jusho":"島根県隠岐郡隠岐の島町大久宮原18番地",
"Capacity":"－",
"la":"36.24982800000",
"ln":"133.36680700000"
},
"geometry":{
"type":"Point",
"coordinates":[
133.366807,
36.249828
]
}
},
{
"type":"Feature",
"properties":{
"Name":"中条小学校",
"Jusho":"島根県隠岐郡隠岐の島町原田1445番地",
"Capacity":"－",
"la":"36.23285700000",
"ln":"133.29703800000"
},
"geometry":{
"type":"Point",
"coordinates":[
133.297038,
36.232857
]
}
},
{
"type":"Feature",
"properties":{
"Name":"中村小学校",
"Jusho":"島根県隠岐郡隠岐の島町中村1494番地1",
"Capacity":"－",
"la":"36.31920600000",
"ln":"133.30645100000"
},
"geometry":{
"type":"Point",
"coordinates":[
133.306451,
36.319206
]
}
},
{
"type":"Feature",
"properties":{
"Name":"都万小学校",
"Jusho":"島根県隠岐郡隠岐の島町都万2362番地1",
"Capacity":"－",
"la":"36.19732500000",
"ln":"133.23265500000"
},
"geometry":{
"type":"Point",
"coordinates":[
133.232655,
36.197325
]
}
},
{
"type":"Feature",
"properties":{
"Name":"那久小学校",
"Jusho":"島根県隠岐郡隠岐の島町那久698番地1",
"Capacity":"－",
"la":"36.21674600000",
"ln":"133.20290900000"
},
"geometry":{
"type":"Point",
"coordinates":[
133.202909,
36.216746
]
}
},
{
"type":"Feature",
"properties":{
"Name":"飯田小学校",
"Jusho":"島根県隠岐郡隠岐の島町飯田白崎1番地1",
"Capacity":"－",
"la":"36.22088700000",
"ln":"133.34483900000"
},
"geometry":{
"type":"Point",
"coordinates":[
133.344839,
36.220887
]
}
},
{
"type":"Feature",
"properties":{
"Name":"布施小学校",
"Jusho":"島根県隠岐郡隠岐の島町布施578番地1",
"Capacity":"－",
"la":"36.29331710690",
"ln":"133.35260602900"
},
"geometry":{
"type":"Point",
"coordinates":[
133.352606029,
36.2933171069
]
}
},
{
"type":"Feature",
"properties":{
"Name":"有木小学校",
"Jusho":"島根県隠岐郡隠岐の島町有木クラミ口21番地2",
"Capacity":"－",
"la":"36.21999800000",
"ln":"133.31750800000"
},
"geometry":{
"type":"Point",
"coordinates":[
133.317508,
36.219998
]
}
},
{
"type":"Feature",
"properties":{
"Name":"開星中学校",
"Jusho":"島根県松江市西津田9-11-1",
"Capacity":"－",
"la":"35.45219706140",
"ln":"133.07158850500"
},
"geometry":{
"type":"Point",
"coordinates":[
133.071588505,
35.4521970614
]
}
},
{
"type":"Feature",
"properties":{
"Name":"玉湯中学校",
"Jusho":"島根県松江市玉湯町湯町717",
"Capacity":"－",
"la":"35.42704800000",
"ln":"133.00481900000"
},
"geometry":{
"type":"Point",
"coordinates":[
133.004819,
35.427048
]
}
},
{
"type":"Feature",
"properties":{
"Name":"湖東中学校",
"Jusho":"島根県松江市山代町680",
"Capacity":"－",
"la":"35.44113200000",
"ln":"133.09055600000"
},
"geometry":{
"type":"Point",
"coordinates":[
133.090556,
35.441132
]
}
},
{
"type":"Feature",
"properties":{
"Name":"湖南中学校",
"Jusho":"島根県松江市浜乃木8-2-60",
"Capacity":"－",
"la":"35.43491000000",
"ln":"133.05803100000"
},
"geometry":{
"type":"Point",
"coordinates":[
133.058031,
35.43491
]
}
},
{
"type":"Feature",
"properties":{
"Name":"湖北中学校",
"Jusho":"島根県松江市打出町245-1",
"Capacity":"－",
"la":"35.47990300000",
"ln":"132.98350900000"
},
"geometry":{
"type":"Point",
"coordinates":[
132.983509,
35.479903
]
}
},
{
"type":"Feature",
"properties":{
"Name":"鹿島中学校",
"Jusho":"島根県松江市鹿島町名分673",
"Capacity":"－",
"la":"35.51796600000",
"ln":"133.00979700000"
},
"geometry":{
"type":"Point",
"coordinates":[
133.009797,
35.517966
]
}
},
{
"type":"Feature",
"properties":{
"Name":"宍道中学校",
"Jusho":"島根県松江市宍道町宍道351",
"Capacity":"－",
"la":"35.41024700000",
"ln":"132.91796300000"
},
"geometry":{
"type":"Point",
"coordinates":[
132.917963,
35.410247
]
}
},
{
"type":"Feature",
"properties":{
"Name":"松徳学院中学校",
"Jusho":"島根県松江市上乃木1-14-51",
"Capacity":"－",
"la":"35.45321091580",
"ln":"133.05718960900"
},
"geometry":{
"type":"Point",
"coordinates":[
133.057189609,
35.4532109158
]
}
},
{
"type":"Feature",
"properties":{
"Name":"第ニ中学校",
"Jusho":"島根県松江市西川津町3402-1",
"Capacity":"－",
"la":"35.47965600000",
"ln":"133.07847100000"
},
"geometry":{
"type":"Point",
"coordinates":[
133.078471,
35.479656
]
}
},
{
"type":"Feature",
"properties":{
"Name":"第一中学校",
"Jusho":"島根県松江市外中原町46",
"Capacity":"－",
"la":"35.47057200000",
"ln":"133.04180800000"
},
"geometry":{
"type":"Point",
"coordinates":[
133.041808,
35.470572
]
}
},
{
"type":"Feature",
"properties":{
"Name":"第三中学校",
"Jusho":"島根県松江市東朝日町14",
"Capacity":"－",
"la":"35.46176900000",
"ln":"133.07011200000"
},
"geometry":{
"type":"Point",
"coordinates":[
133.070112,
35.461769
]
}
},
{
"type":"Feature",
"properties":{
"Name":"第四中学校",
"Jusho":"島根県松江市西津田10-20-1",
"Capacity":"－",
"la":"35.45085300000",
"ln":"133.07700100000"
},
"geometry":{
"type":"Point",
"coordinates":[
133.077001,
35.450853
]
}
},
{
"type":"Feature",
"properties":{
"Name":"島根大学教育学部附属中学校",
"Jusho":"島根県松江市菅田町167-1",
"Capacity":"－",
"la":"35.47951700000",
"ln":"133.06281900000"
},
"geometry":{
"type":"Point",
"coordinates":[
133.062819,
35.479517
]
}
},
{
"type":"Feature",
"properties":{
"Name":"島根中学校",
"Jusho":"島根県松江市島根町加賀1426",
"Capacity":"－",
"la":"35.56475000000",
"ln":"133.06672100000"
},
"geometry":{
"type":"Point",
"coordinates":[
133.066721,
35.56475
]
}
},
{
"type":"Feature",
"properties":{
"Name":"八雲中学校",
"Jusho":"島根県松江市八雲町西岩坂931",
"Capacity":"－",
"la":"35.40252900000",
"ln":"133.08786800000"
},
"geometry":{
"type":"Point",
"coordinates":[
133.087868,
35.402529
]
}
},
{
"type":"Feature",
"properties":{
"Name":"八束中学校",
"Jusho":"島根県松江市八束町波入2508",
"Capacity":"－",
"la":"35.49579600000",
"ln":"133.17355100000"
},
"geometry":{
"type":"Point",
"coordinates":[
133.173551,
35.495796
]
}
},
{
"type":"Feature",
"properties":{
"Name":"美保関中学校",
"Jusho":"島根県松江市美保関町下宇部尾554",
"Capacity":"－",
"la":"35.53463700000",
"ln":"133.16339200000"
},
"geometry":{
"type":"Point",
"coordinates":[
133.163392,
35.534637
]
}
},
{
"type":"Feature",
"properties":{
"Name":"本庄中学校",
"Jusho":"島根県松江市野原町424-2",
"Capacity":"－",
"la":"35.51521100000",
"ln":"133.13554800000"
},
"geometry":{
"type":"Point",
"coordinates":[
133.135548,
35.515211
]
}
},
{
"type":"Feature",
"properties":{
"Name":"旭中学校（体育館）",
"Jusho":"島根県浜田市旭町今市1354",
"Capacity":"－",
"la":"34.85839700000",
"ln":"132.25398000000"
},
"geometry":{
"type":"Point",
"coordinates":[
132.25398,
34.858397
]
}
},
{
"type":"Feature",
"properties":{
"Name":"金城中学校",
"Jusho":"島根県浜田市金城町下来原1551-1",
"Capacity":"－",
"la":"34.86291000000",
"ln":"132.16702500000"
},
"geometry":{
"type":"Point",
"coordinates":[
132.167025,
34.86291
]
}
},
{
"type":"Feature",
"properties":{
"Name":"三隅中学校",
"Jusho":"島根県浜田市三隅町古市場1991",
"Capacity":"－",
"la":"34.78431200000",
"ln":"131.95556700000"
},
"geometry":{
"type":"Point",
"coordinates":[
131.955567,
34.784312
]
}
},
{
"type":"Feature",
"properties":{
"Name":"第一中学校",
"Jusho":"島根県浜田市黒川町3745",
"Capacity":"－",
"la":"34.90137700000",
"ln":"132.09658100000"
},
"geometry":{
"type":"Point",
"coordinates":[
132.096581,
34.901377
]
}
},
{
"type":"Feature",
"properties":{
"Name":"第三中学校",
"Jusho":"島根県浜田市日脚町572",
"Capacity":"－",
"la":"34.87396100000",
"ln":"132.03008800000"
},
"geometry":{
"type":"Point",
"coordinates":[
132.030088,
34.873961
]
}
},
{
"type":"Feature",
"properties":{
"Name":"第四中学校",
"Jusho":"島根県浜田市内田町1053",
"Capacity":"－",
"la":"34.85543600000",
"ln":"132.05194800000"
},
"geometry":{
"type":"Point",
"coordinates":[
132.051948,
34.855436
]
}
},
{
"type":"Feature",
"properties":{
"Name":"第二中学校",
"Jusho":"島根県浜田市原井町963-15",
"Capacity":"－",
"la":"34.88551700000",
"ln":"132.06505700000"
},
"geometry":{
"type":"Point",
"coordinates":[
132.065057,
34.885517
]
}
},
{
"type":"Feature",
"properties":{
"Name":"浜田東中学校",
"Jusho":"島根県浜田市下府町699",
"Capacity":"－",
"la":"34.92429200000",
"ln":"132.11435700000"
},
"geometry":{
"type":"Point",
"coordinates":[
132.114357,
34.924292
]
}
},
{
"type":"Feature",
"properties":{
"Name":"弥栄中学校",
"Jusho":"島根県浜田市弥栄町木都賀イ2735",
"Capacity":"－",
"la":"34.76257100000",
"ln":"132.07308900000"
},
"geometry":{
"type":"Point",
"coordinates":[
132.073089,
34.762571
]
}
},
{
"type":"Feature",
"properties":{
"Name":"旭丘中学校（体育館）",
"Jusho":"島根県出雲市多久町1380-15",
"Capacity":"282",
"la":"35.45240200000",
"ln":"132.85290900000"
},
"geometry":{
"type":"Point",
"coordinates":[
132.852909,
35.452402
]
}
},
{
"type":"Feature",
"properties":{
"Name":"河南中学校（体育館）",
"Jusho":"島根県出雲市神門町1331",
"Capacity":"508",
"la":"35.33585600000",
"ln":"132.70948400000"
},
"geometry":{
"type":"Point",
"coordinates":[
132.709484,
35.335856
]
}
},
{
"type":"Feature",
"properties":{
"Name":"旧佐香中学校校庭",
"Jusho":"島根県出雲市坂浦町3601",
"Capacity":"－",
"la":"35.50006300000",
"ln":"132.84875000000"
},
"geometry":{
"type":"Point",
"coordinates":[
132.84875,
35.500063
]
}
},
{
"type":"Feature",
"properties":{
"Name":"湖陵中学校（体育館）",
"Jusho":"島根県出雲市湖陵町三部1183",
"Capacity":"588",
"la":"35.31528900000",
"ln":"132.67487400000"
},
"geometry":{
"type":"Point",
"coordinates":[
132.674874,
35.315289
]
}
},
{
"type":"Feature",
"properties":{
"Name":"光中学校（体育館）",
"Jusho":"島根県出雲市奥宇賀町854",
"Capacity":"545",
"la":"35.45103900000",
"ln":"132.75950200000"
},
"geometry":{
"type":"Point",
"coordinates":[
132.759502,
35.451039
]
}
},
{
"type":"Feature",
"properties":{
"Name":"佐田中学校（体育館）",
"Jusho":"島根県出雲市佐田町八幡原200",
"Capacity":"436",
"la":"35.25804900000",
"ln":"132.69860400000"
},
"geometry":{
"type":"Point",
"coordinates":[
132.698604,
35.258049
]
}
},
{
"type":"Feature",
"properties":{
"Name":"大社中学校（体育館）",
"Jusho":"島根県出雲市大社町杵築南1330",
"Capacity":"815",
"la":"35.39219100000",
"ln":"132.68502500000"
},
"geometry":{
"type":"Point",
"coordinates":[
132.685025,
35.392191
]
}
},
{
"type":"Feature",
"properties":{
"Name":"第一中学校（武道場、アリーナ）",
"Jusho":"島根県出雲市大津町2214",
"Capacity":"896",
"la":"35.36382700000",
"ln":"132.77114300000"
},
"geometry":{
"type":"Point",
"coordinates":[
132.771143,
35.363827
]
}
},
{
"type":"Feature",
"properties":{
"Name":"第三中学校（体育館）",
"Jusho":"島根県出雲市大塚町1184",
"Capacity":"400",
"la":"35.38304600000",
"ln":"132.75008900000"
},
"geometry":{
"type":"Point",
"coordinates":[
132.750089,
35.383046
]
}
},
{
"type":"Feature",
"properties":{
"Name":"第二中学校（武道場、アリーナ）",
"Jusho":"島根県出雲市塩冶町1501",
"Capacity":"951",
"la":"35.36157700000",
"ln":"132.75028400000"
},
"geometry":{
"type":"Point",
"coordinates":[
132.750284,
35.361577
]
}
},
{
"type":"Feature",
"properties":{
"Name":"南中学校（体育館）",
"Jusho":"島根県出雲市朝山町978",
"Capacity":"598",
"la":"35.32452700000",
"ln":"132.77478300000"
},
"geometry":{
"type":"Point",
"coordinates":[
132.774783,
35.324527
]
}
},
{
"type":"Feature",
"properties":{
"Name":"浜山中学校（体育館）",
"Jusho":"島根県出雲市松寄下町1674",
"Capacity":"804",
"la":"35.36338100000",
"ln":"132.71106600000"
},
"geometry":{
"type":"Point",
"coordinates":[
132.711066,
35.363381
]
}
},
{
"type":"Feature",
"properties":{
"Name":"平田中学校（体育館）",
"Jusho":"島根県出雲市平田町2946-4",
"Capacity":"1016",
"la":"35.44259700000",
"ln":"132.82205200000"
},
"geometry":{
"type":"Point",
"coordinates":[
132.822052,
35.442597
]
}
},
{
"type":"Feature",
"properties":{
"Name":"益田中学校",
"Jusho":"島根県益田市栄町14-6",
"Capacity":"1000",
"la":"34.67408900000",
"ln":"131.83405100000"
},
"geometry":{
"type":"Point",
"coordinates":[
131.834051,
34.674089
]
}
},
{
"type":"Feature",
"properties":{
"Name":"益田東中学校",
"Jusho":"島根県益田市東町14-48",
"Capacity":"1300",
"la":"34.68106100000",
"ln":"131.85613300000"
},
"geometry":{
"type":"Point",
"coordinates":[
131.856133,
34.681061
]
}
},
{
"type":"Feature",
"properties":{
"Name":"横田中学校",
"Jusho":"島根県益田市横田町8-6",
"Capacity":"500",
"la":"34.62801000000",
"ln":"131.80536100000"
},
"geometry":{
"type":"Point",
"coordinates":[
131.805361,
34.62801
]
}
},
{
"type":"Feature",
"properties":{
"Name":"鎌手中学校",
"Jusho":"島根県益田市西平原町580-1",
"Capacity":"500",
"la":"34.75294400000",
"ln":"131.88249000000"
},
"geometry":{
"type":"Point",
"coordinates":[
131.88249,
34.752944
]
}
},
{
"type":"Feature",
"properties":{
"Name":"高津中学校",
"Jusho":"島根県益田市高津町イ2518",
"Capacity":"1500",
"la":"34.68588000000",
"ln":"131.81808100000"
},
"geometry":{
"type":"Point",
"coordinates":[
131.818081,
34.68588
]
}
},
{
"type":"Feature",
"properties":{
"Name":"小野中学校",
"Jusho":"島根県益田市戸田町イ1332-1",
"Capacity":"300",
"la":"34.67233700000",
"ln":"131.74142200000"
},
"geometry":{
"type":"Point",
"coordinates":[
131.741422,
34.672337
]
}
},
{
"type":"Feature",
"properties":{
"Name":"真砂中学校",
"Jusho":"島根県益田市波田町イ484",
"Capacity":"200",
"la":"34.63215000000",
"ln":"131.93860100000"
},
"geometry":{
"type":"Point",
"coordinates":[
131.938601,
34.63215
]
}
},
{
"type":"Feature",
"properties":{
"Name":"西南中学校",
"Jusho":"島根県益田市上黒谷町514",
"Capacity":"200",
"la":"34.60348400000",
"ln":"131.72936900000"
},
"geometry":{
"type":"Point",
"coordinates":[
131.729369,
34.603484
]
}
},
{
"type":"Feature",
"properties":{
"Name":"中西中学校",
"Jusho":"島根県益田市白上町イ1026",
"Capacity":"250",
"la":"34.65031200000",
"ln":"131.78097400000"
},
"geometry":{
"type":"Point",
"coordinates":[
131.780974,
34.650312
]
}
},
{
"type":"Feature",
"properties":{
"Name":"東陽中学校",
"Jusho":"島根県益田市津田町740",
"Capacity":"1000",
"la":"34.71691900000",
"ln":"131.87243600000"
},
"geometry":{
"type":"Point",
"coordinates":[
131.872436,
34.716919
]
}
},
{
"type":"Feature",
"properties":{
"Name":"美都中学校",
"Jusho":"島根県益田市美都町都茂1947",
"Capacity":"100",
"la":"34.66544400000",
"ln":"131.98213300000"
},
"geometry":{
"type":"Point",
"coordinates":[
131.982133,
34.665444
]
}
},
{
"type":"Feature",
"properties":{
"Name":"匹見中学校",
"Jusho":"島根県益田市匹見町匹見イ12",
"Capacity":"200",
"la":"34.57378800000",
"ln":"132.01685000000"
},
"geometry":{
"type":"Point",
"coordinates":[
132.01685,
34.573788
]
}
},
{
"type":"Feature",
"properties":{
"Name":"温泉津中学校（校舎）",
"Jusho":"島根県大田市温泉津町福光イ310-1",
"Capacity":"－",
"la":"35.07104900000",
"ln":"132.33604900000"
},
"geometry":{
"type":"Point",
"coordinates":[
132.336049,
35.071049
]
}
},
{
"type":"Feature",
"properties":{
"Name":"志学中学校（校舎）",
"Jusho":"島根県大田市三瓶町志学口367",
"Capacity":"－",
"la":"35.11496900000",
"ln":"132.63562900000"
},
"geometry":{
"type":"Point",
"coordinates":[
132.635629,
35.114969
]
}
},
{
"type":"Feature",
"properties":{
"Name":"仁摩中学校（校舎）",
"Jusho":"島根県大田市仁摩町仁万387-2",
"Capacity":"－",
"la":"35.15090100000",
"ln":"132.40010400000"
},
"geometry":{
"type":"Point",
"coordinates":[
132.400104,
35.150901
]
}
},
{
"type":"Feature",
"properties":{
"Name":"大田第三中学校（校舎）",
"Jusho":"島根県大田市水上町福原601",
"Capacity":"－",
"la":"35.09380400000",
"ln":"132.45935200000"
},
"geometry":{
"type":"Point",
"coordinates":[
132.459352,
35.093804
]
}
},
{
"type":"Feature",
"properties":{
"Name":"第一中学校（校舎）",
"Jusho":"島根県大田市大田町大田ロ656",
"Capacity":"－",
"la":"35.18465400000",
"ln":"132.50823300000"
},
"geometry":{
"type":"Point",
"coordinates":[
132.508233,
35.184654
]
}
},
{
"type":"Feature",
"properties":{
"Name":"第二中学校（校舎）",
"Jusho":"島根県大田市久手町刺鹿522-1",
"Capacity":"－",
"la":"35.21640000000",
"ln":"132.50440100000"
},
"geometry":{
"type":"Point",
"coordinates":[
132.504401,
35.2164
]
}
},
{
"type":"Feature",
"properties":{
"Name":"池田中学校（校舎）",
"Jusho":"島根県大田市三瓶町池田2242",
"Capacity":"－",
"la":"35.14671500000",
"ln":"132.58400600000"
},
"geometry":{
"type":"Point",
"coordinates":[
132.584006,
35.146715
]
}
},
{
"type":"Feature",
"properties":{
"Name":"北三瓶中学校（校舎）",
"Jusho":"島根県大田市三瓶町多根イ938-13",
"Capacity":"－",
"la":"35.16921200000",
"ln":"132.61927900000"
},
"geometry":{
"type":"Point",
"coordinates":[
132.619279,
35.169212
]
}
},
{
"type":"Feature",
"properties":{
"Name":"旧広瀬中学校",
"Jusho":"島根県安来市広瀬町広瀬117",
"Capacity":"640",
"la":"35.35974099910",
"ln":"133.17013500000"
},
"geometry":{
"type":"Point",
"coordinates":[
133.170135,
35.3597409991
]
}
},
{
"type":"Feature",
"properties":{
"Name":"旧布部中学校体育館",
"Jusho":"島根県安来市広瀬町布部288",
"Capacity":"20",
"la":"35.30423341440",
"ln":"133.14861137300"
},
"geometry":{
"type":"Point",
"coordinates":[
133.148611373,
35.3042334144
]
}
},
{
"type":"Feature",
"properties":{
"Name":"広瀬中学校（新）",
"Jusho":"島根県安来市広瀬町富田1470",
"Capacity":"640",
"la":"35.35716995940",
"ln":"133.17379807100"
},
"geometry":{
"type":"Point",
"coordinates":[
133.173798071,
35.3571699594
]
}
},
{
"type":"Feature",
"properties":{
"Name":"第一中学校",
"Jusho":"島根県安来市飯島町792",
"Capacity":"1880",
"la":"35.42982536670",
"ln":"133.24309600000"
},
"geometry":{
"type":"Point",
"coordinates":[
133.243096,
35.4298253667
]
}
},
{
"type":"Feature",
"properties":{
"Name":"第三中学校",
"Jusho":"島根県安来市西赤江町395",
"Capacity":"1100",
"la":"35.42391800000",
"ln":"133.21698700000"
},
"geometry":{
"type":"Point",
"coordinates":[
133.216987,
35.423918
]
}
},
{
"type":"Feature",
"properties":{
"Name":"第二中学校",
"Jusho":"島根県安来市吉岡町7",
"Capacity":"730",
"la":"35.39728100000",
"ln":"133.24815300000"
},
"geometry":{
"type":"Point",
"coordinates":[
133.248153,
35.397281
]
}
},
{
"type":"Feature",
"properties":{
"Name":"伯太中学校",
"Jusho":"島根県安来市伯太町西母里940-6",
"Capacity":"850",
"la":"35.35076000000",
"ln":"133.27213000000"
},
"geometry":{
"type":"Point",
"coordinates":[
133.27213,
35.35076
]
}
},
{
"type":"Feature",
"properties":{
"Name":"江津中学校",
"Jusho":"島根県江津市江津町1016-1",
"Capacity":"－",
"la":"35.01461700000",
"ln":"132.21609700000"
},
"geometry":{
"type":"Point",
"coordinates":[
132.216097,
35.014617
]
}
},
{
"type":"Feature",
"properties":{
"Name":"江東中学校",
"Jusho":"島根県江津市後地町978-9",
"Capacity":"－",
"la":"35.04411400000",
"ln":"132.29733900000"
},
"geometry":{
"type":"Point",
"coordinates":[
132.297339,
35.044114
]
}
},
{
"type":"Feature",
"properties":{
"Name":"桜江中学校",
"Jusho":"島根県江津市桜江町川戸1337",
"Capacity":"－",
"la":"34.95309300000",
"ln":"132.33570900000"
},
"geometry":{
"type":"Point",
"coordinates":[
132.335709,
34.953093
]
}
},
{
"type":"Feature",
"properties":{
"Name":"青陵中学校",
"Jusho":"島根県江津市二宮町神主1964-8",
"Capacity":"－",
"la":"34.97645786310",
"ln":"132.18723970400"
},
"geometry":{
"type":"Point",
"coordinates":[
132.187239704,
34.9764578631
]
}
},
{
"type":"Feature",
"properties":{
"Name":"加茂中学校",
"Jusho":"島根県雲南市加茂町神原1262",
"Capacity":"－",
"la":"35.34354500000",
"ln":"132.89853300000"
},
"geometry":{
"type":"Point",
"coordinates":[
132.898533,
35.343545
]
}
},
{
"type":"Feature",
"properties":{
"Name":"海潮中学校",
"Jusho":"島根県雲南市大東町南村268",
"Capacity":"－",
"la":"35.33630100000",
"ln":"133.02098100000"
},
"geometry":{
"type":"Point",
"coordinates":[
133.020981,
35.336301
]
}
},
{
"type":"Feature",
"properties":{
"Name":"吉田中学校体育館",
"Jusho":"島根県雲南市吉田町吉田1080-4",
"Capacity":"－",
"la":"35.16616624430",
"ln":"132.85390040900"
},
"geometry":{
"type":"Point",
"coordinates":[
132.853900409,
35.1661662443
]
}
},
{
"type":"Feature",
"properties":{
"Name":"三刀屋中学校",
"Jusho":"島根県雲南市三刀屋町三刀屋394",
"Capacity":"－",
"la":"35.28508900000",
"ln":"132.86806800000"
},
"geometry":{
"type":"Point",
"coordinates":[
132.868068,
35.285089
]
}
},
{
"type":"Feature",
"properties":{
"Name":"大東中学校",
"Jusho":"島根県雲南市大東町養賀967",
"Capacity":"－",
"la":"35.32310600000",
"ln":"132.95233600000"
},
"geometry":{
"type":"Point",
"coordinates":[
132.952336,
35.323106
]
}
},
{
"type":"Feature",
"properties":{
"Name":"木次中学校",
"Jusho":"島根県雲南市木次町新市421",
"Capacity":"－",
"la":"35.28539300000",
"ln":"132.90043800000"
},
"geometry":{
"type":"Point",
"coordinates":[
132.900438,
35.285393
]
}
},
{
"type":"Feature",
"properties":{
"Name":"横田中学校",
"Jusho":"島根県仁多郡奥出雲町稲原2050-3",
"Capacity":"－",
"la":"35.17333000000",
"ln":"133.09342200000"
},
"geometry":{
"type":"Point",
"coordinates":[
133.093422,
35.17333
]
}
},
{
"type":"Feature",
"properties":{
"Name":"仁多中学校",
"Jusho":"島根県仁多郡奥出雲町三成1634-7",
"Capacity":"－",
"la":"35.19502100000",
"ln":"132.99226300000"
},
"geometry":{
"type":"Point",
"coordinates":[
132.992263,
35.195021
]
}
},
{
"type":"Feature",
"properties":{
"Name":"赤来中学校",
"Jusho":"島根県飯石郡飯南町下赤名1938",
"Capacity":"－",
"la":"35.02037100000",
"ln":"132.72105000000"
},
"geometry":{
"type":"Point",
"coordinates":[
132.72105,
35.020371
]
}
},
{
"type":"Feature",
"properties":{
"Name":"頓原中学校",
"Jusho":"島根県飯石郡飯南町佐見1415-1",
"Capacity":"－",
"la":"35.08066900000",
"ln":"132.78057100000"
},
"geometry":{
"type":"Point",
"coordinates":[
132.780571,
35.080669
]
}
},
{
"type":"Feature",
"properties":{
"Name":"川本中学校",
"Jusho":"島根県邑智郡川本町川下1112",
"Capacity":"－",
"la":"34.98059600000",
"ln":"132.48201900000"
},
"geometry":{
"type":"Point",
"coordinates":[
132.482019,
34.980596
]
}
},
{
"type":"Feature",
"properties":{
"Name":"大和中学校体育館",
"Jusho":"島根県邑智郡美郷町長藤195",
"Capacity":"－",
"la":"34.96576825670",
"ln":"132.64170312900"
},
"geometry":{
"type":"Point",
"coordinates":[
132.641703129,
34.9657682567
]
}
},
{
"type":"Feature",
"properties":{
"Name":"邑智中学校",
"Jusho":"島根県邑智郡美郷町久保22",
"Capacity":"－",
"la":"35.07036300000",
"ln":"132.59411700000"
},
"geometry":{
"type":"Point",
"coordinates":[
132.594117,
35.070363
]
}
},
{
"type":"Feature",
"properties":{
"Name":"羽須美中学校",
"Jusho":"島根県邑智郡邑南町阿須那123",
"Capacity":"－",
"la":"34.87355500000",
"ln":"132.61767800000"
},
"geometry":{
"type":"Point",
"coordinates":[
132.617678,
34.873555
]
}
},
{
"type":"Feature",
"properties":{
"Name":"瑞穂中学校",
"Jusho":"島根県邑智郡邑南町淀原810",
"Capacity":"－",
"la":"34.85394300000",
"ln":"132.53007500000"
},
"geometry":{
"type":"Point",
"coordinates":[
132.530075,
34.853943
]
}
},
{
"type":"Feature",
"properties":{
"Name":"石見中学校",
"Jusho":"島根県邑智郡邑南町中野2645",
"Capacity":"－",
"la":"34.89260500000",
"ln":"132.45627300000"
},
"geometry":{
"type":"Point",
"coordinates":[
132.456273,
34.892605
]
}
},
{
"type":"Feature",
"properties":{
"Name":"津和野中学校",
"Jusho":"島根県鹿足郡津和野町町田イ26",
"Capacity":"－",
"la":"34.45613300000",
"ln":"131.76994800000"
},
"geometry":{
"type":"Point",
"coordinates":[
131.769948,
34.456133
]
}
},
{
"type":"Feature",
"properties":{
"Name":"日原中学校",
"Jusho":"島根県鹿足郡津和野町日原564",
"Capacity":"－",
"la":"34.55232400000",
"ln":"131.83530500000"
},
"geometry":{
"type":"Point",
"coordinates":[
131.835305,
34.552324
]
}
},
{
"type":"Feature",
"properties":{
"Name":"木部中学校",
"Jusho":"島根県鹿足郡津和野町中川405",
"Capacity":"－",
"la":"34.52471600000",
"ln":"131.72317700000"
},
"geometry":{
"type":"Point",
"coordinates":[
131.723177,
34.524716
]
}
},
{
"type":"Feature",
"properties":{
"Name":"柿木中学校",
"Jusho":"島根県鹿足郡吉賀町柿木村柿木682番地1",
"Capacity":"100",
"la":"34.43998900000",
"ln":"131.86305500000"
},
"geometry":{
"type":"Point",
"coordinates":[
131.863055,
34.439989
]
}
},
{
"type":"Feature",
"properties":{
"Name":"吉賀中学校",
"Jusho":"島根県鹿足郡吉賀町七日市669番地",
"Capacity":"200",
"la":"34.38942700000",
"ln":"131.89011100000"
},
"geometry":{
"type":"Point",
"coordinates":[
131.890111,
34.389427
]
}
},
{
"type":"Feature",
"properties":{
"Name":"蔵木中学校",
"Jusho":"島根県鹿足郡吉賀町蔵木54番地",
"Capacity":"200",
"la":"34.37379000000",
"ln":"131.98424200000"
},
"geometry":{
"type":"Point",
"coordinates":[
131.984242,
34.37379
]
}
},
{
"type":"Feature",
"properties":{
"Name":"六日市中学校",
"Jusho":"島根県鹿足郡吉賀町六日市750番地",
"Capacity":"200",
"la":"34.35332100000",
"ln":"131.93369100000"
},
"geometry":{
"type":"Point",
"coordinates":[
131.933691,
34.353321
]
}
},
{
"type":"Feature",
"properties":{
"Name":"海士中学校",
"Jusho":"島根県隠岐郡海士町大字海士944番地",
"Capacity":"500",
"la":"36.09020200000",
"ln":"133.08845100000"
},
"geometry":{
"type":"Point",
"coordinates":[
133.088451,
36.090202
]
}
},
{
"type":"Feature",
"properties":{
"Name":"西ノ島中学校",
"Jusho":"島根県隠岐郡西ノ島町美田3512",
"Capacity":"－",
"la":"36.10444800000",
"ln":"133.00328200000"
},
"geometry":{
"type":"Point",
"coordinates":[
133.003282,
36.104448
]
}
},
{
"type":"Feature",
"properties":{
"Name":"五箇中学校",
"Jusho":"島根県隠岐郡隠岐の島町郡162番地",
"Capacity":"－",
"la":"36.28537800000",
"ln":"133.23997500000"
},
"geometry":{
"type":"Point",
"coordinates":[
133.239975,
36.285378
]
}
},
{
"type":"Feature",
"properties":{
"Name":"西郷中学校",
"Jusho":"島根県隠岐郡隠岐の島町栄町489番地",
"Capacity":"－",
"la":"36.21290700000",
"ln":"133.33230100000"
},
"geometry":{
"type":"Point",
"coordinates":[
133.332301,
36.212907
]
}
},
{
"type":"Feature",
"properties":{
"Name":"西郷南中学校",
"Jusho":"島根県隠岐郡隠岐の島町下西154番地2",
"Capacity":"－",
"la":"36.21342700000",
"ln":"133.30564400000"
},
"geometry":{
"type":"Point",
"coordinates":[
133.305644,
36.213427
]
}
},
{
"type":"Feature",
"properties":{
"Name":"中村中学校",
"Jusho":"島根県隠岐郡隠岐の島町中村1495番地1",
"Capacity":"－",
"la":"36.31862100000",
"ln":"133.30583600000"
},
"geometry":{
"type":"Point",
"coordinates":[
133.305836,
36.318621
]
}
},
{
"type":"Feature",
"properties":{
"Name":"中村農村公園〈中村中学校グラウンド〉",
"Jusho":"島根県隠岐郡隠岐の島町中村1513番地1",
"Capacity":"－",
"la":"36.31877622290",
"ln":"133.30540823100"
},
"geometry":{
"type":"Point",
"coordinates":[
133.305408231,
36.3187762229
]
}
},
{
"type":"Feature",
"properties":{
"Name":"都万中学校",
"Jusho":"島根県隠岐郡隠岐の島町都万2533番地1",
"Capacity":"－",
"la":"36.19723900000",
"ln":"133.23143400000"
},
"geometry":{
"type":"Point",
"coordinates":[
133.231434,
36.197239
]
}
},
{
"type":"Feature",
"properties":{
"Name":"布施中学校",
"Jusho":"島根県隠岐郡隠岐の島町布施578番地",
"Capacity":"－",
"la":"36.29336500000",
"ln":"133.35260900000"
},
"geometry":{
"type":"Point",
"coordinates":[
133.352609,
36.293365
]
}
},
{
"type":"Feature",
"properties":{
"Name":"知夫小中学校",
"Jusho":"島根県隠岐郡知夫村字郡1053-1",
"Capacity":"－",
"la":"36.01412666340",
"ln":"133.04019901400"
},
"geometry":{
"type":"Point",
"coordinates":[
133.040199014,
36.0141266634
]
}
}
]
};