var o={
"type": "FeatureCollection",
"features": [
{
"type": "Feature",
"properties": {
"Name": "さわやか交流館",
"Jusho": "群馬県高崎市箕郷町生原88",
"Capacity": "－",
"la": "36.38909000000",
"ln": "138.96520300000"
},
"geometry": {
"type": "Point",
"coordinates": [
138.965203,
36.38909
]
}
},
{
"type": "Feature",
"properties": {
"Name": "吉井公民館",
"Jusho": "群馬県高崎市吉井町吉井285-2",
"Capacity": "－",
"la": "36.25320400000",
"ln": "138.98478200000"
},
"geometry": {
"type": "Point",
"coordinates": [
138.984782,
36.253204
]
}
},
{
"type": "Feature",
"properties": {
"Name": "吉井西コミュニティセンター",
"Jusho": "群馬県高崎市吉井町長根525",
"Capacity": "－",
"la": "36.24905100000",
"ln": "138.96832200000"
},
"geometry": {
"type": "Point",
"coordinates": [
138.968322,
36.249051
]
}
},
{
"type": "Feature",
"properties": {
"Name": "吉井体育館",
"Jusho": "群馬県高崎市吉井町吉井285-2",
"Capacity": "－",
"la": "36.25346395960",
"ln": "138.98491395900"
},
"geometry": {
"type": "Point",
"coordinates": [
138.984913959,
36.2534639596
]
}
},
{
"type": "Feature",
"properties": {
"Name": "吉井東コミュニティセンター",
"Jusho": "群馬県高崎市吉井町小串336－",
"Capacity": "－",
"la": "36.25369200000",
"ln": "139.01441700000"
},
"geometry": {
"type": "Point",
"coordinates": [
139.014417,
36.253692
]
}
},
{
"type": "Feature",
"properties": {
"Name": "吉井文化会館",
"Jusho": "群馬県高崎市吉井町吉井285-2",
"Capacity": "－",
"la": "36.25302600000",
"ln": "138.98517600000"
},
"geometry": {
"type": "Point",
"coordinates": [
138.985176,
36.253026
]
}
},
{
"type": "Feature",
"properties": {
"Name": "金古２区公民館",
"Jusho": "群馬県高崎市金古町2360",
"Capacity": "－",
"la": "36.41491400000",
"ln": "139.00092500000"
},
"geometry": {
"type": "Point",
"coordinates": [
139.000925,
36.414914
]
}
},
{
"type": "Feature",
"properties": {
"Name": "群馬体育館",
"Jusho": "群馬県高崎市足門町1449－",
"Capacity": "－",
"la": "36.40095300000",
"ln": "138.99299200000"
},
"geometry": {
"type": "Point",
"coordinates": [
138.992992,
36.400953
]
}
},
{
"type": "Feature",
"properties": {
"Name": "県立高崎工業高等学校",
"Jusho": "群馬県高崎市江木町700",
"Capacity": "－",
"la": "36.33630900000",
"ln": "139.01864700000"
},
"geometry": {
"type": "Point",
"coordinates": [
139.018647,
36.336309
]
}
},
{
"type": "Feature",
"properties": {
"Name": "県立高崎高等学校",
"Jusho": "群馬県高崎市八千代町2-4－",
"Capacity": "－",
"la": "36.31908700000",
"ln": "138.98692700000"
},
"geometry": {
"type": "Point",
"coordinates": [
138.986927,
36.319087
]
}
},
{
"type": "Feature",
"properties": {
"Name": "県立高崎商業高等学校",
"Jusho": "群馬県高崎市東貝沢町3-4",
"Capacity": "－",
"la": "36.34741900000",
"ln": "139.03395100000"
},
"geometry": {
"type": "Point",
"coordinates": [
139.033951,
36.347419
]
}
},
{
"type": "Feature",
"properties": {
"Name": "県立藤岡工業高等学校",
"Jusho": "群馬県藤岡市下戸塚47-2",
"Capacity": "－",
"la": "36.25550999910",
"ln": "139.08944800000"
},
"geometry": {
"type": "Point",
"coordinates": [
139.089448,
36.2555099991
]
}
},
{
"type": "Feature",
"properties": {
"Name": "県立藤岡中央高等学校",
"Jusho": "群馬県藤岡市中栗須909",
"Capacity": "－",
"la": "36.26842872930",
"ln": "139.08013920800"
},
"geometry": {
"type": "Point",
"coordinates": [
139.080139208,
36.2684287293
]
}
},
{
"type": "Feature",
"properties": {
"Name": "県立農林大学校",
"Jusho": "群馬県高崎市箕郷町西明屋1005",
"Capacity": "－",
"la": "36.41264802460",
"ln": "138.94545961800"
},
"geometry": {
"type": "Point",
"coordinates": [
138.945459618,
36.4126480246
]
}
},
{
"type": "Feature",
"properties": {
"Name": "高崎競馬場跡地",
"Jusho": "群馬県高崎市岩押町12－6",
"Capacity": "－",
"la": "36.31986800000",
"ln": "139.02239800000"
},
"geometry": {
"type": "Point",
"coordinates": [
139.022398,
36.319868
]
}
},
{
"type": "Feature",
"properties": {
"Name": "高崎経済大学附属高等学校",
"Jusho": "群馬県高崎市浜川町1650－",
"Capacity": "－",
"la": "36.36186000000",
"ln": "138.99073100000"
},
"geometry": {
"type": "Point",
"coordinates": [
138.990731,
36.36186
]
}
},
{
"type": "Feature",
"properties": {
"Name": "高崎市武道館",
"Jusho": "群馬県高崎市石原町3892-7",
"Capacity": "－",
"la": "36.30211800000",
"ln": "139.00269700000"
},
"geometry": {
"type": "Point",
"coordinates": [
139.002697,
36.302118
]
}
},
{
"type": "Feature",
"properties": {
"Name": "国立のぞみの園",
"Jusho": "群馬県高崎市寺尾町2120-2",
"Capacity": "－",
"la": "36.30929061880",
"ln": "138.97238556600"
},
"geometry": {
"type": "Point",
"coordinates": [
138.972385566,
36.3092906188
]
}
},
{
"type": "Feature",
"properties": {
"Name": "三ノ倉会館",
"Jusho": "群馬県高崎市倉渕町三ﾉ倉814－",
"Capacity": "－",
"la": "36.41626800000",
"ln": "138.79930800000"
},
"geometry": {
"type": "Point",
"coordinates": [
138.799308,
36.416268
]
}
},
{
"type": "Feature",
"properties": {
"Name": "新町企業会館",
"Jusho": "群馬県高崎市新町3152－",
"Capacity": "－",
"la": "36.27729900000",
"ln": "139.11360800000"
},
"geometry": {
"type": "Point",
"coordinates": [
139.113608,
36.277299
]
}
},
{
"type": "Feature",
"properties": {
"Name": "新町公民館",
"Jusho": "群馬県高崎市新町2271－",
"Capacity": "－",
"la": "36.27529500000",
"ln": "139.10667100000"
},
"geometry": {
"type": "Point",
"coordinates": [
139.106671,
36.275295
]
}
},
{
"type": "Feature",
"properties": {
"Name": "新町支所",
"Jusho": "群馬県高崎市新町3152－",
"Capacity": "－",
"la": "36.27692500000",
"ln": "139.11360500000"
},
"geometry": {
"type": "Point",
"coordinates": [
139.113605,
36.276925
]
}
},
{
"type": "Feature",
"properties": {
"Name": "新町児童体育館",
"Jusho": "群馬県高崎市新町1497",
"Capacity": "－",
"la": "36.26724300000",
"ln": "139.10607600000"
},
"geometry": {
"type": "Point",
"coordinates": [
139.106076,
36.267243
]
}
},
{
"type": "Feature",
"properties": {
"Name": "新町東コミュニティセンター",
"Jusho": "群馬県高崎市新町2703-2",
"Capacity": "－",
"la": "36.27310400000",
"ln": "139.11137300000"
},
"geometry": {
"type": "Point",
"coordinates": [
139.111373,
36.273104
]
}
},
{
"type": "Feature",
"properties": {
"Name": "新町南コミュニティセンター",
"Jusho": "群馬県高崎市新町1498-7",
"Capacity": "－",
"la": "36.26719600000",
"ln": "139.10669000000"
},
"geometry": {
"type": "Point",
"coordinates": [
139.10669,
36.267196
]
}
},
{
"type": "Feature",
"properties": {
"Name": "新町保健センター",
"Jusho": "群馬県高崎市新町3154-2",
"Capacity": "－",
"la": "36.27714000000",
"ln": "139.11328100000"
},
"geometry": {
"type": "Point",
"coordinates": [
139.113281,
36.27714
]
}
},
{
"type": "Feature",
"properties": {
"Name": "新島学園短期大学",
"Jusho": "群馬県高崎市昭和町53",
"Capacity": "－",
"la": "36.33730800000",
"ln": "139.00495300000"
},
"geometry": {
"type": "Point",
"coordinates": [
139.004953,
36.337308
]
}
},
{
"type": "Feature",
"properties": {
"Name": "榛名湖温泉ゆうすげ",
"Jusho": "群馬県高崎市榛名湖町846",
"Capacity": "－",
"la": "36.48102634250",
"ln": "138.87345441600"
},
"geometry": {
"type": "Point",
"coordinates": [
138.873454416,
36.4810263425
]
}
},
{
"type": "Feature",
"properties": {
"Name": "榛名文化会館",
"Jusho": "群馬県高崎市上里見町1072－",
"Capacity": "－",
"la": "36.37354552990",
"ln": "138.89364797100"
},
"geometry": {
"type": "Point",
"coordinates": [
138.893647971,
36.3735455299
]
}
},
{
"type": "Feature",
"properties": {
"Name": "榛名歴史民俗資料館",
"Jusho": "群馬県高崎市榛名山町138－",
"Capacity": "－",
"la": "36.45300500000",
"ln": "138.84824900000"
},
"geometry": {
"type": "Point",
"coordinates": [
138.848249,
36.453005
]
}
},
{
"type": "Feature",
"properties": {
"Name": "倉渕公民館",
"Jusho": "群馬県高崎市倉渕町三ﾉ倉296－",
"Capacity": "－",
"la": "36.42451100000",
"ln": "138.79314000000"
},
"geometry": {
"type": "Point",
"coordinates": [
138.79314,
36.424511
]
}
},
{
"type": "Feature",
"properties": {
"Name": "倉渕体育館",
"Jusho": "群馬県高崎市倉渕町岩氷610",
"Capacity": "－",
"la": "36.43817500000",
"ln": "138.77485400000"
},
"geometry": {
"type": "Point",
"coordinates": [
138.774854,
36.438175
]
}
},
{
"type": "Feature",
"properties": {
"Name": "倉渕第一区公民館",
"Jusho": "群馬県高崎市倉渕町三ﾉ倉1813-2",
"Capacity": "－",
"la": "36.40003800000",
"ln": "138.81561400000"
},
"geometry": {
"type": "Point",
"coordinates": [
138.815614,
36.400038
]
}
},
{
"type": "Feature",
"properties": {
"Name": "倉渕第八区公民館",
"Jusho": "群馬県高崎市倉渕町権田2352－",
"Capacity": "－",
"la": "36.45595100000",
"ln": "138.77643900000"
},
"geometry": {
"type": "Point",
"coordinates": [
138.776439,
36.455951
]
}
},
{
"type": "Feature",
"properties": {
"Name": "総合文化センター",
"Jusho": "群馬県高崎市末広町23－",
"Capacity": "－",
"la": "36.33292500000",
"ln": "139.00633400000"
},
"geometry": {
"type": "Point",
"coordinates": [
139.006334,
36.332925
]
}
},
{
"type": "Feature",
"properties": {
"Name": "多比良文化財事務所",
"Jusho": "群馬県高崎市吉井町多比良2637－",
"Capacity": "－",
"la": "36.23357567450",
"ln": "139.00572339000"
},
"geometry": {
"type": "Point",
"coordinates": [
139.00572339,
36.2335756745
]
}
},
{
"type": "Feature",
"properties": {
"Name": "東京農業大学第二高等学校",
"Jusho": "群馬県高崎市石原町3430",
"Capacity": "－",
"la": "36.30161300000",
"ln": "139.00040000000"
},
"geometry": {
"type": "Point",
"coordinates": [
139.0004,
36.301613
]
}
},
{
"type": "Feature",
"properties": {
"Name": "箕郷公民館",
"Jusho": "群馬県高崎市箕郷町西明屋421-3",
"Capacity": "－",
"la": "36.39171700000",
"ln": "138.95653900000"
},
"geometry": {
"type": "Point",
"coordinates": [
138.956539,
36.391717
]
}
},
{
"type": "Feature",
"properties": {
"Name": "箕郷第一保育園",
"Jusho": "群馬県高崎市箕郷町上芝1063－",
"Capacity": "－",
"la": "36.39938600000",
"ln": "138.95604400000"
},
"geometry": {
"type": "Point",
"coordinates": [
138.956044,
36.399386
]
}
},
{
"type": "Feature",
"properties": {
"Name": "箕郷第五保育園",
"Jusho": "群馬県高崎市箕郷町下芝66－",
"Capacity": "－",
"la": "36.37675700000",
"ln": "138.95765300000"
},
"geometry": {
"type": "Point",
"coordinates": [
138.957653,
36.376757
]
}
},
{
"type": "Feature",
"properties": {
"Name": "箕郷第三保育園",
"Jusho": "群馬県高崎市箕郷町富岡281",
"Capacity": "－",
"la": "36.39095700000",
"ln": "138.94887700000"
},
"geometry": {
"type": "Point",
"coordinates": [
138.948877,
36.390957
]
}
},
{
"type": "Feature",
"properties": {
"Name": "箕郷第二保育園",
"Jusho": "群馬県高崎市箕郷町柏木沢209－",
"Capacity": "－",
"la": "36.41099100000",
"ln": "138.96597900000"
},
"geometry": {
"type": "Point",
"coordinates": [
138.965979,
36.410991
]
}
},
{
"type": "Feature",
"properties": {
"Name": "箕郷文化会館",
"Jusho": "群馬県高崎市箕郷町生原922－",
"Capacity": "－",
"la": "36.40091600000",
"ln": "138.96900200000"
},
"geometry": {
"type": "Point",
"coordinates": [
138.969002,
36.400916
]
}
},
{
"type": "Feature",
"properties": {
"Name": "箕輪城長寿センター",
"Jusho": "群馬県高崎市箕郷町西明屋859－",
"Capacity": "－",
"la": "36.40091000000",
"ln": "138.95195100000"
},
"geometry": {
"type": "Point",
"coordinates": [
138.951951,
36.40091
]
}
},
{
"type": "Feature",
"properties": {
"Name": "おおぞら保育園",
"Jusho": "群馬県桐生市広沢町一丁目2903番地の2",
"Capacity": "80",
"la": "36.39606900000",
"ln": "139.32573800000"
},
"geometry": {
"type": "Point",
"coordinates": [
139.325738,
36.396069
]
}
},
{
"type": "Feature",
"properties": {
"Name": "すみれ保育園",
"Jusho": "群馬県桐生市相生町三丁目493番地の15",
"Capacity": "70",
"la": "36.42549500000",
"ln": "139.29848700000"
},
"geometry": {
"type": "Point",
"coordinates": [
139.298487,
36.425495
]
}
},
{
"type": "Feature",
"properties": {
"Name": "たかぞの保育園",
"Jusho": "群馬県桐生市梅田町一丁目273番地の1",
"Capacity": "70",
"la": "36.43749800000",
"ln": "139.35788700000"
},
"geometry": {
"type": "Point",
"coordinates": [
139.357887,
36.437498
]
}
},
{
"type": "Feature",
"properties": {
"Name": "ふれあいホーム",
"Jusho": "群馬県桐生市天神町三丁目14番16号",
"Capacity": "－",
"la": "36.43019100000",
"ln": "139.35484300000"
},
"geometry": {
"type": "Point",
"coordinates": [
139.354843,
36.430191
]
}
},
{
"type": "Feature",
"properties": {
"Name": "みつぼり保育園",
"Jusho": "群馬県桐生市境野町三丁目1302番地の4",
"Capacity": "100",
"la": "36.39057700000",
"ln": "139.34423400000"
},
"geometry": {
"type": "Point",
"coordinates": [
139.344234,
36.390577
]
}
},
{
"type": "Feature",
"properties": {
"Name": "みやま園",
"Jusho": "群馬県桐生市川内町五丁目1199番地",
"Capacity": "－",
"la": "36.44613195180",
"ln": "139.31198965300"
},
"geometry": {
"type": "Point",
"coordinates": [
139.311989653,
36.4461319518
]
}
},
{
"type": "Feature",
"properties": {
"Name": "一本木会館",
"Jusho": "群馬県桐生市広沢町7丁目5022番地の4",
"Capacity": "50",
"la": "36.36459200000",
"ln": "139.36605100000"
},
"geometry": {
"type": "Point",
"coordinates": [
139.366051,
36.364592
]
}
},
{
"type": "Feature",
"properties": {
"Name": "下田沢集会所",
"Jusho": "群馬県桐生市黒保根町下田沢甲964番地",
"Capacity": "60",
"la": "36.51216700000",
"ln": "139.26028100000"
},
"geometry": {
"type": "Point",
"coordinates": [
139.260281,
36.512167
]
}
},
{
"type": "Feature",
"properties": {
"Name": "岩鼻公民館",
"Jusho": "群馬県桐生市東久方町三丁目3番26号",
"Capacity": "300",
"la": "36.30117200000",
"ln": "139.06934100000"
},
"geometry": {
"type": "Point",
"coordinates": [
139.069341,
36.301172
]
}
},
{
"type": "Feature",
"properties": {
"Name": "旧養護学校",
"Jusho": "群馬県桐生市菱町五丁目374番地の2",
"Capacity": "70",
"la": "36.45029900000",
"ln": "139.37042200000"
},
"geometry": {
"type": "Point",
"coordinates": [
139.370422,
36.450299
]
}
},
{
"type": "Feature",
"properties": {
"Name": "境野公民館",
"Jusho": "群馬県桐生市境野町二丁目612番地の4",
"Capacity": "45",
"la": "36.38902300000",
"ln": "139.35160900000"
},
"geometry": {
"type": "Point",
"coordinates": [
139.351609,
36.389023
]
}
},
{
"type": "Feature",
"properties": {
"Name": "境野幼稚園",
"Jusho": "群馬県桐生市境野町六丁目1616番地の1",
"Capacity": "140",
"la": "36.38535494930",
"ln": "139.35323355000"
},
"geometry": {
"type": "Point",
"coordinates": [
139.35323355,
36.3853549493
]
}
},
{
"type": "Feature",
"properties": {
"Name": "桐生工業高等学校",
"Jusho": "群馬県桐生市西久方町一丁目1番41号",
"Capacity": "725",
"la": "36.42244400000",
"ln": "139.34552700000"
},
"geometry": {
"type": "Point",
"coordinates": [
139.345527,
36.422444
]
}
},
{
"type": "Feature",
"properties": {
"Name": "桐生高等学校",
"Jusho": "群馬県桐生市美原町1番39号",
"Capacity": "1085",
"la": "36.40919500000",
"ln": "139.32966800000"
},
"geometry": {
"type": "Point",
"coordinates": [
139.329668,
36.409195
]
}
},
{
"type": "Feature",
"properties": {
"Name": "桐生女子高等学校",
"Jusho": "群馬県桐生市梅田町一丁目185番地の1",
"Capacity": "450",
"la": "36.43441500000",
"ln": "139.35699800000"
},
"geometry": {
"type": "Point",
"coordinates": [
139.356998,
36.434415
]
}
},
{
"type": "Feature",
"properties": {
"Name": "桐生商業高等学校",
"Jusho": "群馬県桐生市清瀬町6番1号",
"Capacity": "845",
"la": "36.40822300000",
"ln": "139.32530700000"
},
"geometry": {
"type": "Point",
"coordinates": [
139.325307,
36.408223
]
}
},
{
"type": "Feature",
"properties": {
"Name": "桐生水質浄化センター",
"Jusho": "群馬県桐生市",
"Capacity": "－",
"la": "36.36459300000",
"ln": "139.36710800000"
},
"geometry": {
"type": "Point",
"coordinates": [
139.367108,
36.364593
]
}
},
{
"type": "Feature",
"properties": {
"Name": "桐生西高等学校",
"Jusho": "群馬県桐生市相生町三丁目551番地の1",
"Capacity": "325",
"la": "36.42535900000",
"ln": "139.30200400000"
},
"geometry": {
"type": "Point",
"coordinates": [
139.302004,
36.425359
]
}
},
{
"type": "Feature",
"properties": {
"Name": "桐生南高等学校",
"Jusho": "群馬県桐生市広沢町三丁目4193番地",
"Capacity": "255",
"la": "36.38655900000",
"ln": "139.31644800000"
},
"geometry": {
"type": "Point",
"coordinates": [
139.316448,
36.386559
]
}
},
{
"type": "Feature",
"properties": {
"Name": "栗生鷲ノ手集会所",
"Jusho": "群馬県桐生市黒保根町上田沢2218番地",
"Capacity": "20",
"la": "36.53504900000",
"ln": "139.27690500000"
},
"geometry": {
"type": "Point",
"coordinates": [
139.276905,
36.535049
]
}
},
{
"type": "Feature",
"properties": {
"Name": "群馬大学工学部グラウンド",
"Jusho": "群馬県桐生市菱町一丁目539の1番地",
"Capacity": "－",
"la": "36.40627959740",
"ln": "139.36158023100"
},
"geometry": {
"type": "Point",
"coordinates": [
139.361580231,
36.4062795974
]
}
},
{
"type": "Feature",
"properties": {
"Name": "群馬大学工学部体育館工学部会館駐車場テニスコート",
"Jusho": "群馬県桐生市天神町一丁目5番1号",
"Capacity": "－",
"la": "36.42382347030",
"ln": "139.35113153200"
},
"geometry": {
"type": "Point",
"coordinates": [
139.351131532,
36.4238234703
]
}
},
{
"type": "Feature",
"properties": {
"Name": "元宿保育園",
"Jusho": "群馬県桐生市元宿町3番16号",
"Capacity": "70",
"la": "36.41262300000",
"ln": "139.32763700000"
},
"geometry": {
"type": "Point",
"coordinates": [
139.327637,
36.412623
]
}
},
{
"type": "Feature",
"properties": {
"Name": "広沢公民館",
"Jusho": "群馬県桐生市広沢町四丁目1970番地172",
"Capacity": "50",
"la": "36.38447300000",
"ln": "139.34306800000"
},
"geometry": {
"type": "Point",
"coordinates": [
139.343068,
36.384473
]
}
},
{
"type": "Feature",
"properties": {
"Name": "広沢町児童遊園",
"Jusho": "群馬県桐生市広沢町二丁目3165番地の47",
"Capacity": "－",
"la": "36.39138942000",
"ln": "139.32313727000"
},
"geometry": {
"type": "Point",
"coordinates": [
139.32313727,
36.39138942
]
}
},
{
"type": "Feature",
"properties": {
"Name": "広沢町老人憩の家",
"Jusho": "群馬県桐生市広沢町六丁目1103番地の1",
"Capacity": "－",
"la": "36.37820200000",
"ln": "139.35180900000"
},
"geometry": {
"type": "Point",
"coordinates": [
139.351809,
36.378202
]
}
},
{
"type": "Feature",
"properties": {
"Name": "広沢南部保育園",
"Jusho": "群馬県桐生市広沢町六丁目606番地",
"Capacity": "30",
"la": "36.36956291160",
"ln": "139.35175775400"
},
"geometry": {
"type": "Point",
"coordinates": [
139.351757754,
36.3695629116
]
}
},
{
"type": "Feature",
"properties": {
"Name": "広沢幼稚園",
"Jusho": "群馬県桐生市広沢町四丁目2099番地",
"Capacity": "140",
"la": "36.38197600000",
"ln": "139.33814000000"
},
"geometry": {
"type": "Point",
"coordinates": [
139.33814,
36.381976
]
}
},
{
"type": "Feature",
"properties": {
"Name": "黒保根町交流促進センター",
"Jusho": "群馬県桐生市黒保根町水沼549番地1",
"Capacity": "100",
"la": "36.50467700000",
"ln": "139.29103600000"
},
"geometry": {
"type": "Point",
"coordinates": [
139.291036,
36.504677
]
}
},
{
"type": "Feature",
"properties": {
"Name": "黒保根町保健センター",
"Jusho": "群馬県桐生市黒保根町水沼562番地3",
"Capacity": "100",
"la": "36.50471900000",
"ln": "139.29165000000"
},
"geometry": {
"type": "Point",
"coordinates": [
139.29165,
36.504719
]
}
},
{
"type": "Feature",
"properties": {
"Name": "黒保根保育園",
"Jusho": "群馬県桐生市黒保根町水沼199番地1",
"Capacity": "60",
"la": "36.50173800000",
"ln": "139.28428100000"
},
"geometry": {
"type": "Point",
"coordinates": [
139.284281,
36.501738
]
}
},
{
"type": "Feature",
"properties": {
"Name": "桜木公民館",
"Jusho": "群馬県桐生市広沢町二丁目3334番地の1",
"Capacity": "60",
"la": "36.38942000000",
"ln": "139.32512200000"
},
"geometry": {
"type": "Point",
"coordinates": [
139.325122,
36.38942
]
}
},
{
"type": "Feature",
"properties": {
"Name": "桜木西公民館",
"Jusho": "群馬県桐生市相生町一丁目451番地の1",
"Capacity": "60",
"la": "36.39932200000",
"ln": "139.31791900000"
},
"geometry": {
"type": "Point",
"coordinates": [
139.317919,
36.399322
]
}
},
{
"type": "Feature",
"properties": {
"Name": "桜木幼稚園",
"Jusho": "群馬県桐生市相生町一丁目乙394番地",
"Capacity": "100",
"la": "36.39769600000",
"ln": "139.31936400000"
},
"geometry": {
"type": "Point",
"coordinates": [
139.319364,
36.397696
]
}
},
{
"type": "Feature",
"properties": {
"Name": "三ツ堀会館",
"Jusho": "群馬県桐生市境野町三丁目1511番地の1",
"Capacity": "50",
"la": "36.38732938910",
"ln": "139.34911958400"
},
"geometry": {
"type": "Point",
"coordinates": [
139.349119584,
36.3873293891
]
}
},
{
"type": "Feature",
"properties": {
"Name": "市民広場",
"Jusho": "群馬県桐生市相生町三丁目722番地の2",
"Capacity": "－",
"la": "36.42398542310",
"ln": "139.29692287100"
},
"geometry": {
"type": "Point",
"coordinates": [
139.296922871,
36.4239854231
]
}
},
{
"type": "Feature",
"properties": {
"Name": "市民文化会館",
"Jusho": "群馬県桐生市",
"Capacity": "－",
"la": "36.40464400000",
"ln": "139.32946800000"
},
"geometry": {
"type": "Point",
"coordinates": [
139.329468,
36.404644
]
}
},
{
"type": "Feature",
"properties": {
"Name": "慈教幼稚園",
"Jusho": "群馬県桐生市東一丁目8番23号",
"Capacity": "100",
"la": "36.34786400000",
"ln": "139.18376700000"
},
"geometry": {
"type": "Point",
"coordinates": [
139.183767,
36.347864
]
}
},
{
"type": "Feature",
"properties": {
"Name": "鹿角集会所",
"Jusho": "群馬県桐生市黒保根町下田沢1439番地",
"Capacity": "20",
"la": "36.52066000000",
"ln": "139.25265800000"
},
"geometry": {
"type": "Point",
"coordinates": [
139.252658,
36.52066
]
}
},
{
"type": "Feature",
"properties": {
"Name": "宿廻集会所",
"Jusho": "群馬県桐生市黒保根町宿廻131番地",
"Capacity": "50",
"la": "36.48274546640",
"ln": "139.25863496200"
},
"geometry": {
"type": "Point",
"coordinates": [
139.258634962,
36.4827454664
]
}
},
{
"type": "Feature",
"properties": {
"Name": "出合原集会所",
"Jusho": "群馬県桐生市黒保根町下田沢612番地",
"Capacity": "40",
"la": "36.50318300000",
"ln": "139.25444500000"
},
"geometry": {
"type": "Point",
"coordinates": [
139.254445,
36.503183
]
}
},
{
"type": "Feature",
"properties": {
"Name": "昭和公民館",
"Jusho": "群馬県桐生市美原町3番6号",
"Capacity": "60",
"la": "36.40673200000",
"ln": "139.32790900000"
},
"geometry": {
"type": "Point",
"coordinates": [
139.327909,
36.406732
]
}
},
{
"type": "Feature",
"properties": {
"Name": "沼の上保育園",
"Jusho": "群馬県桐生市境野町四丁目1095番地の1",
"Capacity": "100",
"la": "36.39291100000",
"ln": "139.35402500000"
},
"geometry": {
"type": "Point",
"coordinates": [
139.354025,
36.392911
]
}
},
{
"type": "Feature",
"properties": {
"Name": "上鶴ヶ谷住民センター",
"Jusho": "群馬県桐生市新里町鶴ヶ谷521番地1",
"Capacity": "60",
"la": "36.44363788010",
"ln": "139.25192489800"
},
"geometry": {
"type": "Point",
"coordinates": [
139.251924898,
36.4436378801
]
}
},
{
"type": "Feature",
"properties": {
"Name": "上田沢集会所",
"Jusho": "群馬県桐生市黒保根町上田沢672番地",
"Capacity": "50",
"la": "36.52878100000",
"ln": "139.28411400000"
},
"geometry": {
"type": "Point",
"coordinates": [
139.284114,
36.528781
]
}
},
{
"type": "Feature",
"properties": {
"Name": "城集会所",
"Jusho": "群馬県桐生市黒保根町宿廻563番地4",
"Capacity": "30",
"la": "36.48483900000",
"ln": "139.25476600000"
},
"geometry": {
"type": "Point",
"coordinates": [
139.254766,
36.484839
]
}
},
{
"type": "Feature",
"properties": {
"Name": "新里社会体育館",
"Jusho": "群馬県桐生市新里町山上828番地1",
"Capacity": "500",
"la": "36.42891600000",
"ln": "139.23701400000"
},
"geometry": {
"type": "Point",
"coordinates": [
139.237014,
36.428916
]
}
},
{
"type": "Feature",
"properties": {
"Name": "新里町奥沢地区集会所",
"Jusho": "群馬県桐生市新里町奥沢476番地",
"Capacity": "60",
"la": "36.45026200000",
"ln": "139.25389500000"
},
"geometry": {
"type": "Point",
"coordinates": [
139.253895,
36.450262
]
}
},
{
"type": "Feature",
"properties": {
"Name": "清水集会所",
"Jusho": "群馬県桐生市黒保根町下田沢1274番地1",
"Capacity": "40",
"la": "36.50905500000",
"ln": "139.27434700000"
},
"geometry": {
"type": "Point",
"coordinates": [
139.274347,
36.509055
]
}
},
{
"type": "Feature",
"properties": {
"Name": "西公民館分館西体育館西運動場",
"Jusho": "群馬県桐生市小曽根町3番30号",
"Capacity": "450",
"la": "36.41592662780",
"ln": "139.33549900000"
},
"geometry": {
"type": "Point",
"coordinates": [
139.335499,
36.4159266278
]
}
},
{
"type": "Feature",
"properties": {
"Name": "西幼稚園",
"Jusho": "群馬県桐生市小曽根町6番1号",
"Capacity": "130",
"la": "36.41522080460",
"ln": "139.33364148500"
},
"geometry": {
"type": "Point",
"coordinates": [
139.333641485,
36.4152208046
]
}
},
{
"type": "Feature",
"properties": {
"Name": "川口集会所",
"Jusho": "群馬県桐生市黒保根町宿廻639番地7",
"Capacity": "30",
"la": "36.49057600000",
"ln": "139.25924300000"
},
"geometry": {
"type": "Point",
"coordinates": [
139.259243,
36.490576
]
}
},
{
"type": "Feature",
"properties": {
"Name": "川内公民館",
"Jusho": "群馬県桐生市川内町五丁目17番地",
"Capacity": "40",
"la": "36.43584500000",
"ln": "139.30754200000"
},
"geometry": {
"type": "Point",
"coordinates": [
139.307542,
36.435845
]
}
},
{
"type": "Feature",
"properties": {
"Name": "川内体育館",
"Jusho": "群馬県桐生市川内町五丁目1575番地",
"Capacity": "200",
"la": "36.45142544100",
"ln": "139.31787210200"
},
"geometry": {
"type": "Point",
"coordinates": [
139.317872102,
36.451425441
]
}
},
{
"type": "Feature",
"properties": {
"Name": "川内南幼稚園",
"Jusho": "群馬県桐生市川内町三丁目405番地の1",
"Capacity": "100",
"la": "36.43294200000",
"ln": "139.30617000000"
},
"geometry": {
"type": "Point",
"coordinates": [
139.30617,
36.432942
]
}
},
{
"type": "Feature",
"properties": {
"Name": "前田原集会所",
"Jusho": "群馬県桐生市黒保根町下田沢243番地5",
"Capacity": "40",
"la": "36.49848500000",
"ln": "139.26963500000"
},
"geometry": {
"type": "Point",
"coordinates": [
139.269635,
36.498485
]
}
},
{
"type": "Feature",
"properties": {
"Name": "相生公民館",
"Jusho": "群馬県桐生市相生町二丁目620番地の14",
"Capacity": "70",
"la": "36.41210900000",
"ln": "139.30233200000"
},
"geometry": {
"type": "Point",
"coordinates": [
139.302332,
36.412109
]
}
},
{
"type": "Feature",
"properties": {
"Name": "相生保育園",
"Jusho": "群馬県桐生市相生町二丁目482番地の1",
"Capacity": "130",
"la": "36.41627500000",
"ln": "139.30539600000"
},
"geometry": {
"type": "Point",
"coordinates": [
139.305396,
36.416275
]
}
},
{
"type": "Feature",
"properties": {
"Name": "相生幼稚園",
"Jusho": "群馬県桐生市相生町二丁目408番地の9",
"Capacity": "130",
"la": "36.41275000000",
"ln": "139.31100300000"
},
"geometry": {
"type": "Point",
"coordinates": [
139.311003,
36.41275
]
}
},
{
"type": "Feature",
"properties": {
"Name": "地場産業振興センター",
"Jusho": "群馬県桐生市",
"Capacity": "－",
"la": "36.40403862250",
"ln": "139.32912623200"
},
"geometry": {
"type": "Point",
"coordinates": [
139.329126232,
36.4040386225
]
}
},
{
"type": "Feature",
"properties": {
"Name": "中央公民館",
"Jusho": "群馬県桐生市稲荷町1番地の4",
"Capacity": "300",
"la": "36.40863500000",
"ln": "139.33181500000"
},
"geometry": {
"type": "Point",
"coordinates": [
139.331815,
36.408635
]
}
},
{
"type": "Feature",
"properties": {
"Name": "南公民館",
"Jusho": "群馬県桐生市新宿三丁目9番52号",
"Capacity": "35",
"la": "36.39696399910",
"ln": "139.34264800000"
},
"geometry": {
"type": "Point",
"coordinates": [
139.342648,
36.3969639991
]
}
},
{
"type": "Feature",
"properties": {
"Name": "津久瀬集会所",
"Jusho": "群馬県桐生市黒保根町下田沢14番地4",
"Capacity": "30",
"la": "36.49555000000",
"ln": "139.27587700000"
},
"geometry": {
"type": "Point",
"coordinates": [
139.275877,
36.49555
]
}
},
{
"type": "Feature",
"properties": {
"Name": "田沢中集会所",
"Jusho": "群馬県桐生市黒保根町上田沢880番地2",
"Capacity": "30",
"la": "36.53556200000",
"ln": "139.29151900000"
},
"geometry": {
"type": "Point",
"coordinates": [
139.291519,
36.535562
]
}
},
{
"type": "Feature",
"properties": {
"Name": "東公民館",
"Jusho": "群馬県桐生市東五丁目6番8号",
"Capacity": "70",
"la": "36.40813500000",
"ln": "139.34730500000"
},
"geometry": {
"type": "Point",
"coordinates": [
139.347305,
36.408135
]
}
},
{
"type": "Feature",
"properties": {
"Name": "東保育園",
"Jusho": "群馬県桐生市東五丁目6番47号",
"Capacity": "80",
"la": "36.40791700000",
"ln": "139.34730300000"
},
"geometry": {
"type": "Point",
"coordinates": [
139.347303,
36.407917
]
}
},
{
"type": "Feature",
"properties": {
"Name": "特別支援学校",
"Jusho": "群馬県桐生市菱町二丁目1955番地の1",
"Capacity": "350",
"la": "36.41435325350",
"ln": "139.35708226300"
},
"geometry": {
"type": "Point",
"coordinates": [
139.357082263,
36.4143532535
]
}
},
{
"type": "Feature",
"properties": {
"Name": "南体育館南運動場",
"Jusho": "群馬県桐生市新宿三丁目3番19号",
"Capacity": "200",
"la": "36.39509856590",
"ln": "139.34464888400"
},
"geometry": {
"type": "Point",
"coordinates": [
139.344648884,
36.3950985659
]
}
},
{
"type": "Feature",
"properties": {
"Name": "梅田ふるさとセンター",
"Jusho": "群馬県桐生市梅田町五丁目7568番地の1",
"Capacity": "50",
"la": "36.49926100000",
"ln": "139.41097100000"
},
"geometry": {
"type": "Point",
"coordinates": [
139.410971,
36.499261
]
}
},
{
"type": "Feature",
"properties": {
"Name": "梅田公民館",
"Jusho": "群馬県桐生市梅田町二丁目11番地の1",
"Capacity": "40",
"la": "36.45184900000",
"ln": "139.37209900000"
},
"geometry": {
"type": "Point",
"coordinates": [
139.372099,
36.451849
]
}
},
{
"type": "Feature",
"properties": {
"Name": "柏山上集会所",
"Jusho": "群馬県桐生市黒保根町下田沢2790番地49",
"Capacity": "30",
"la": "36.51510900000",
"ln": "139.24813700000"
},
"geometry": {
"type": "Point",
"coordinates": [
139.248137,
36.515109
]
}
},
{
"type": "Feature",
"properties": {
"Name": "八木原集会所",
"Jusho": "群馬県桐生市黒保根町八木原173番地",
"Capacity": "50",
"la": "36.49986300000",
"ln": "139.28246600000"
},
"geometry": {
"type": "Point",
"coordinates": [
139.282466,
36.499863
]
}
},
{
"type": "Feature",
"properties": {
"Name": "菱公民館",
"Jusho": "群馬県桐生市菱町二丁目1349番地の1",
"Capacity": "90",
"la": "36.41009200000",
"ln": "139.35887700000"
},
"geometry": {
"type": "Point",
"coordinates": [
139.358877,
36.410092
]
}
},
{
"type": "Feature",
"properties": {
"Name": "菱町四丁目集会所",
"Jusho": "群馬県桐生市菱町四丁目2283番地の1",
"Capacity": "45",
"la": "36.42002854630",
"ln": "139.35183659300"
},
"geometry": {
"type": "Point",
"coordinates": [
139.351836593,
36.4200285463
]
}
},
{
"type": "Feature",
"properties": {
"Name": "菱保育園",
"Jusho": "群馬県桐生市菱町三丁目1992番地",
"Capacity": "35",
"la": "36.41211200000",
"ln": "139.35469300000"
},
"geometry": {
"type": "Point",
"coordinates": [
139.354693,
36.412112
]
}
},
{
"type": "Feature",
"properties": {
"Name": "浜尻公民館",
"Jusho": "群馬県桐生市永楽町2番16号",
"Capacity": "70",
"la": "36.35195400000",
"ln": "139.01331100000"
},
"geometry": {
"type": "Point",
"coordinates": [
139.013311,
36.351954
]
}
},
{
"type": "Feature",
"properties": {
"Name": "保健福祉会館",
"Jusho": "群馬県桐生市末広町13番地の4",
"Capacity": "－",
"la": "36.41121200000",
"ln": "139.33383200000"
},
"geometry": {
"type": "Point",
"coordinates": [
139.333832,
36.411212
]
}
},
{
"type": "Feature",
"properties": {
"Name": "涌丸集会所",
"Jusho": "群馬県桐生市黒保根町上田沢286番地1",
"Capacity": "30",
"la": "36.51701000000",
"ln": "139.27355900000"
},
"geometry": {
"type": "Point",
"coordinates": [
139.273559,
36.51701
]
}
},
{
"type": "Feature",
"properties": {
"Name": "楡沢集会所",
"Jusho": "群馬県桐生市黒保根町下田沢1992番地",
"Capacity": "20",
"la": "36.55345000000",
"ln": "139.25531400000"
},
"geometry": {
"type": "Point",
"coordinates": [
139.255314,
36.55345
]
}
},
{
"type": "Feature",
"properties": {
"Name": "あかぼり幼稚園",
"Jusho": "群馬県伊勢崎市西久保町二丁目100",
"Capacity": "－",
"la": "36.38086300000",
"ln": "139.23137200000"
},
"geometry": {
"type": "Point",
"coordinates": [
139.231372,
36.380863
]
}
},
{
"type": "Feature",
"properties": {
"Name": "あずまスタジアム",
"Jusho": "群馬県伊勢崎市田部井町三丁目1908",
"Capacity": "－",
"la": "36.35604657030",
"ln": "139.25775168600"
},
"geometry": {
"type": "Point",
"coordinates": [
139.257751686,
36.3560465703
]
}
},
{
"type": "Feature",
"properties": {
"Name": "あずま公民館",
"Jusho": "群馬県伊勢崎市田部井町三丁目2090",
"Capacity": "－",
"la": "36.34583679240",
"ln": "139.25663450700"
},
"geometry": {
"type": "Point",
"coordinates": [
139.256634507,
36.3458367924
]
}
},
{
"type": "Feature",
"properties": {
"Name": "あずま体育館",
"Jusho": "群馬県伊勢崎市田部井町三丁目2090",
"Capacity": "－",
"la": "36.34650300000",
"ln": "139.25654300000"
},
"geometry": {
"type": "Point",
"coordinates": [
139.256543,
36.346503
]
}
},
{
"type": "Feature",
"properties": {
"Name": "ふくしプラザ",
"Jusho": "群馬県伊勢崎市中央町26-22",
"Capacity": "－",
"la": "36.31641900000",
"ln": "139.19847000000"
},
"geometry": {
"type": "Point",
"coordinates": [
139.19847,
36.316419
]
}
},
{
"type": "Feature",
"properties": {
"Name": "みやまセンター",
"Jusho": "群馬県伊勢崎市東小保方町3243-2",
"Capacity": "－",
"la": "36.33288900000",
"ln": "139.25172700000"
},
"geometry": {
"type": "Point",
"coordinates": [
139.251727,
36.332889
]
}
},
{
"type": "Feature",
"properties": {
"Name": "伊勢崎興陽高等学校",
"Jusho": "群馬県伊勢崎市上泉町212",
"Capacity": "－",
"la": "36.31328500000",
"ln": "139.19237800000"
},
"geometry": {
"type": "Point",
"coordinates": [
139.192378,
36.313285
]
}
},
{
"type": "Feature",
"properties": {
"Name": "伊勢崎工業高等学校",
"Jusho": "群馬県伊勢崎市中央町3-8",
"Capacity": "－",
"la": "36.32183900000",
"ln": "139.20171000000"
},
"geometry": {
"type": "Point",
"coordinates": [
139.20171,
36.321839
]
}
},
{
"type": "Feature",
"properties": {
"Name": "伊勢崎市民プラザ",
"Jusho": "群馬県伊勢崎市富塚町220－3",
"Capacity": "－",
"la": "36.27639300000",
"ln": "139.19037200000"
},
"geometry": {
"type": "Point",
"coordinates": [
139.190372,
36.276393
]
}
},
{
"type": "Feature",
"properties": {
"Name": "伊勢崎商業高等学校",
"Jusho": "群馬県伊勢崎市波志江町三丁目1116",
"Capacity": "－",
"la": "36.34022600000",
"ln": "139.18154500000"
},
"geometry": {
"type": "Point",
"coordinates": [
139.181545,
36.340226
]
}
},
{
"type": "Feature",
"properties": {
"Name": "伊勢崎清明高等学校",
"Jusho": "群馬県伊勢崎市今泉町二丁目331-6",
"Capacity": "－",
"la": "36.31084100000",
"ln": "139.19526700000"
},
"geometry": {
"type": "Point",
"coordinates": [
139.195267,
36.310841
]
}
},
{
"type": "Feature",
"properties": {
"Name": "伊勢崎養護学校",
"Jusho": "群馬県伊勢崎市粕川町1003",
"Capacity": "－",
"la": "36.30853600000",
"ln": "139.21632000000"
},
"geometry": {
"type": "Point",
"coordinates": [
139.21632,
36.308536
]
}
},
{
"type": "Feature",
"properties": {
"Name": "宮郷公民館",
"Jusho": "群馬県伊勢崎市田中島町1164",
"Capacity": "－",
"la": "36.32079300000",
"ln": "139.16017100000"
},
"geometry": {
"type": "Point",
"coordinates": [
139.160171,
36.320793
]
}
},
{
"type": "Feature",
"properties": {
"Name": "宮郷幼稚園",
"Jusho": "群馬県伊勢崎市田中島町363",
"Capacity": "－",
"la": "36.32186700000",
"ln": "139.16338100000"
},
"geometry": {
"type": "Point",
"coordinates": [
139.163381,
36.321867
]
}
},
{
"type": "Feature",
"properties": {
"Name": "境公民館",
"Jusho": "群馬県伊勢崎市境萩原1750－",
"Capacity": "－",
"la": "36.27597700000",
"ln": "139.25009900000"
},
"geometry": {
"type": "Point",
"coordinates": [
139.250099,
36.275977
]
}
},
{
"type": "Feature",
"properties": {
"Name": "境産業振興会館",
"Jusho": "群馬県伊勢崎市境新栄13-6",
"Capacity": "－",
"la": "36.27831400000",
"ln": "139.26451500000"
},
"geometry": {
"type": "Point",
"coordinates": [
139.264515,
36.278314
]
}
},
{
"type": "Feature",
"properties": {
"Name": "境児童センター",
"Jusho": "群馬県伊勢崎市境新栄12-4",
"Capacity": "－",
"la": "36.27785500000",
"ln": "139.26448400000"
},
"geometry": {
"type": "Point",
"coordinates": [
139.264484,
36.277855
]
}
},
{
"type": "Feature",
"properties": {
"Name": "境社会福祉センター",
"Jusho": "群馬県伊勢崎市境女塚296",
"Capacity": "－",
"la": "36.27439200000",
"ln": "139.27002300000"
},
"geometry": {
"type": "Point",
"coordinates": [
139.270023,
36.274392
]
}
},
{
"type": "Feature",
"properties": {
"Name": "境総合文化センター",
"Jusho": "群馬県伊勢崎市境木島818",
"Capacity": "－",
"la": "36.28691500000",
"ln": "139.24870400000"
},
"geometry": {
"type": "Point",
"coordinates": [
139.248704,
36.286915
]
}
},
{
"type": "Feature",
"properties": {
"Name": "境体育館",
"Jusho": "群馬県伊勢崎市境609－",
"Capacity": "－",
"la": "36.27569700000",
"ln": "139.24955500000"
},
"geometry": {
"type": "Point",
"coordinates": [
139.249555,
36.275697
]
}
},
{
"type": "Feature",
"properties": {
"Name": "境武道館",
"Jusho": "群馬県伊勢崎市境萩原1750-2",
"Capacity": "－",
"la": "36.27622200000",
"ln": "139.24966600000"
},
"geometry": {
"type": "Point",
"coordinates": [
139.249666,
36.276222
]
}
},
{
"type": "Feature",
"properties": {
"Name": "県立伊勢崎高等学校",
"Jusho": "群馬県伊勢崎市南千木町1670",
"Capacity": "－",
"la": "36.29661600000",
"ln": "139.21652400000"
},
"geometry": {
"type": "Point",
"coordinates": [
139.216524,
36.296616
]
}
},
{
"type": "Feature",
"properties": {
"Name": "県立前橋高等養護学校伊勢崎分校",
"Jusho": "群馬県伊勢崎市境492",
"Capacity": "－",
"la": "36.27128100000",
"ln": "139.25356300000"
},
"geometry": {
"type": "Point",
"coordinates": [
139.253563,
36.271281
]
}
},
{
"type": "Feature",
"properties": {
"Name": "広瀬生涯学習館",
"Jusho": "群馬県伊勢崎市ひろせ町4080-5",
"Capacity": "－",
"la": "36.30225100000",
"ln": "139.19453500000"
},
"geometry": {
"type": "Point",
"coordinates": [
139.194535,
36.302251
]
}
},
{
"type": "Feature",
"properties": {
"Name": "三郷公民館",
"Jusho": "群馬県伊勢崎市波志江町三丁目1029",
"Capacity": "－",
"la": "36.34459100000",
"ln": "139.18324800000"
},
"geometry": {
"type": "Point",
"coordinates": [
139.183248,
36.344591
]
}
},
{
"type": "Feature",
"properties": {
"Name": "三郷幼稚園",
"Jusho": "群馬県伊勢崎市波志江町三丁目1656-2",
"Capacity": "－",
"la": "36.34373700580",
"ln": "139.18355869200"
},
"geometry": {
"type": "Point",
"coordinates": [
139.183558692,
36.3437370058
]
}
},
{
"type": "Feature",
"properties": {
"Name": "市立伊勢崎高等学校",
"Jusho": "群馬県伊勢崎市上植木本町1702－",
"Capacity": "－",
"la": "36.33222700000",
"ln": "139.20823700000"
},
"geometry": {
"type": "Point",
"coordinates": [
139.208237,
36.332227
]
}
},
{
"type": "Feature",
"properties": {
"Name": "児童センター",
"Jusho": "群馬県伊勢崎市粕川町1609",
"Capacity": "－",
"la": "36.31363400000",
"ln": "139.21213500000"
},
"geometry": {
"type": "Point",
"coordinates": [
139.212135,
36.313634
]
}
},
{
"type": "Feature",
"properties": {
"Name": "上武大学",
"Jusho": "群馬県伊勢崎市戸谷塚町634－",
"Capacity": "－",
"la": "36.27862700000",
"ln": "139.17712100000"
},
"geometry": {
"type": "Point",
"coordinates": [
139.177121,
36.278627
]
}
},
{
"type": "Feature",
"properties": {
"Name": "殖蓮公民館",
"Jusho": "群馬県伊勢崎市上植木本町2195-2",
"Capacity": "－",
"la": "36.33377300000",
"ln": "139.21029300000"
},
"geometry": {
"type": "Point",
"coordinates": [
139.210293,
36.333773
]
}
},
{
"type": "Feature",
"properties": {
"Name": "殖蓮幼稚園",
"Jusho": "群馬県伊勢崎市上植木本町2740",
"Capacity": "－",
"la": "36.33431100000",
"ln": "139.21054200000"
},
"geometry": {
"type": "Point",
"coordinates": [
139.210542,
36.334311
]
}
},
{
"type": "Feature",
"properties": {
"Name": "図書館",
"Jusho": "群馬県伊勢崎市曲輪町22-21",
"Capacity": "－",
"la": "36.32245000000",
"ln": "139.18962800000"
},
"geometry": {
"type": "Point",
"coordinates": [
139.189628,
36.32245
]
}
},
{
"type": "Feature",
"properties": {
"Name": "清掃リサイクルセンター２１",
"Jusho": "群馬県伊勢崎市柴町954",
"Capacity": "－",
"la": "36.29900385600",
"ln": "139.16221778300"
},
"geometry": {
"type": "Point",
"coordinates": [
139.162217783,
36.299003856
]
}
},
{
"type": "Feature",
"properties": {
"Name": "青少年育成センター",
"Jusho": "群馬県伊勢崎市波志江町一丁目2237-6",
"Capacity": "－",
"la": "36.34856000000",
"ln": "139.19009400000"
},
"geometry": {
"type": "Point",
"coordinates": [
139.190094,
36.34856
]
}
},
{
"type": "Feature",
"properties": {
"Name": "赤堀あさひ児童館",
"Jusho": "群馬県伊勢崎市香林町一丁目1348－",
"Capacity": "－",
"la": "36.38527700000",
"ln": "139.24837700000"
},
"geometry": {
"type": "Point",
"coordinates": [
139.248377,
36.385277
]
}
},
{
"type": "Feature",
"properties": {
"Name": "赤堀公民館",
"Jusho": "群馬県伊勢崎市西久保町二丁目81",
"Capacity": "－",
"la": "36.38128500000",
"ln": "139.23065600000"
},
"geometry": {
"type": "Point",
"coordinates": [
139.230656,
36.381285
]
}
},
{
"type": "Feature",
"properties": {
"Name": "赤堀児童館",
"Jusho": "群馬県伊勢崎市西久保町二丁目105",
"Capacity": "－",
"la": "36.38031900000",
"ln": "139.23158900000"
},
"geometry": {
"type": "Point",
"coordinates": [
139.231589,
36.380319
]
}
},
{
"type": "Feature",
"properties": {
"Name": "赤堀南児童館",
"Jusho": "群馬県伊勢崎市堀下町276",
"Capacity": "－",
"la": "36.36761100000",
"ln": "139.21372700000"
},
"geometry": {
"type": "Point",
"coordinates": [
139.213727,
36.367611
]
}
},
{
"type": "Feature",
"properties": {
"Name": "赤堀保健福祉センター",
"Jusho": "群馬県伊勢崎市西久保町二丁目123－",
"Capacity": "－",
"la": "36.38067200000",
"ln": "139.23234500000"
},
"geometry": {
"type": "Point",
"coordinates": [
139.232345,
36.380672
]
}
},
{
"type": "Feature",
"properties": {
"Name": "総合教育センター",
"Jusho": "群馬県伊勢崎市今泉町一丁目233-2",
"Capacity": "－",
"la": "36.31486400000",
"ln": "139.20893500000"
},
"geometry": {
"type": "Point",
"coordinates": [
139.208935,
36.314864
]
}
},
{
"type": "Feature",
"properties": {
"Name": "第一幼稚園",
"Jusho": "群馬県伊勢崎市曲輪町24-26",
"Capacity": "－",
"la": "36.32361700000",
"ln": "139.19176600000"
},
"geometry": {
"type": "Point",
"coordinates": [
139.191766,
36.323617
]
}
},
{
"type": "Feature",
"properties": {
"Name": "地域ふくし館うえはす",
"Jusho": "群馬県伊勢崎市日乃出町1347－",
"Capacity": "－",
"la": "36.32271900000",
"ln": "139.21595900000"
},
"geometry": {
"type": "Point",
"coordinates": [
139.215959,
36.322719
]
}
},
{
"type": "Feature",
"properties": {
"Name": "地域ふくし館ばんどう",
"Jusho": "群馬県伊勢崎市除ｹ町410－",
"Capacity": "－",
"la": "36.28218900000",
"ln": "139.18983600000"
},
"geometry": {
"type": "Point",
"coordinates": [
139.189836,
36.282189
]
}
},
{
"type": "Feature",
"properties": {
"Name": "東京福祉大学",
"Jusho": "群馬県伊勢崎市山王町2020－",
"Capacity": "－",
"la": "36.28604793510",
"ln": "139.19357603300"
},
"geometry": {
"type": "Point",
"coordinates": [
139.193576033,
36.2860479351
]
}
},
{
"type": "Feature",
"properties": {
"Name": "南公民館",
"Jusho": "群馬県伊勢崎市上泉町619-3",
"Capacity": "－",
"la": "36.31269700000",
"ln": "139.18914100000"
},
"geometry": {
"type": "Point",
"coordinates": [
139.189141,
36.312697
]
}
},
{
"type": "Feature",
"properties": {
"Name": "南幼稚園",
"Jusho": "群馬県伊勢崎市上泉町116",
"Capacity": "－",
"la": "36.31378500000",
"ln": "139.19021200000"
},
"geometry": {
"type": "Point",
"coordinates": [
139.190212,
36.313785
]
}
},
{
"type": "Feature",
"properties": {
"Name": "豊受公民館",
"Jusho": "群馬県伊勢崎市馬見塚本町1296",
"Capacity": "－",
"la": "36.27808200000",
"ln": "139.21472800000"
},
"geometry": {
"type": "Point",
"coordinates": [
139.214728,
36.278082
]
}
},
{
"type": "Feature",
"properties": {
"Name": "豊受幼稚園",
"Jusho": "群馬県伊勢崎市下道寺町163",
"Capacity": "－",
"la": "36.27695700000",
"ln": "139.20632300000"
},
"geometry": {
"type": "Point",
"coordinates": [
139.206323,
36.276957
]
}
},
{
"type": "Feature",
"properties": {
"Name": "北公民館",
"Jusho": "群馬県伊勢崎市平和町27-32",
"Capacity": "－",
"la": "36.32144300000",
"ln": "139.19817500000"
},
"geometry": {
"type": "Point",
"coordinates": [
139.198175,
36.321443
]
}
},
{
"type": "Feature",
"properties": {
"Name": "名和公民館",
"Jusho": "群馬県伊勢崎市堀口町492",
"Capacity": "－",
"la": "36.29148800000",
"ln": "139.18007900000"
},
"geometry": {
"type": "Point",
"coordinates": [
139.180079,
36.291488
]
}
},
{
"type": "Feature",
"properties": {
"Name": "名和幼稚園",
"Jusho": "群馬県伊勢崎市堀口町260",
"Capacity": "－",
"la": "36.29148200000",
"ln": "139.18499100000"
},
"geometry": {
"type": "Point",
"coordinates": [
139.184991,
36.291482
]
}
},
{
"type": "Feature",
"properties": {
"Name": "茂呂公民館",
"Jusho": "群馬県伊勢崎市美茂呂町3032-7",
"Capacity": "－",
"la": "36.30096300000",
"ln": "139.20623300000"
},
"geometry": {
"type": "Point",
"coordinates": [
139.206233,
36.300963
]
}
},
{
"type": "Feature",
"properties": {
"Name": "茂呂幼稚園",
"Jusho": "群馬県伊勢崎市茂呂町二丁目2139－",
"Capacity": "－",
"la": "36.30423100000",
"ln": "139.20954300000"
},
"geometry": {
"type": "Point",
"coordinates": [
139.209543,
36.304231
]
}
},
{
"type": "Feature",
"properties": {
"Name": "隣保館",
"Jusho": "群馬県伊勢崎市茂呂南町1422－",
"Capacity": "－",
"la": "36.29304100000",
"ln": "139.20247000000"
},
"geometry": {
"type": "Point",
"coordinates": [
139.20247,
36.293041
]
}
},
{
"type": "Feature",
"properties": {
"Name": "老人いこいの家",
"Jusho": "群馬県伊勢崎市赤堀鹿島町748",
"Capacity": "－",
"la": "36.38366000000",
"ln": "139.25016100000"
},
"geometry": {
"type": "Point",
"coordinates": [
139.250161,
36.38366
]
}
},
{
"type": "Feature",
"properties": {
"Name": "絣の郷",
"Jusho": "群馬県伊勢崎市昭和町1712-2",
"Capacity": "－",
"la": "36.33132000000",
"ln": "139.20410400000"
},
"geometry": {
"type": "Point",
"coordinates": [
139.204104,
36.33132
]
}
},
{
"type": "Feature",
"properties": {
"Name": "サンスポーツ広場",
"Jusho": "群馬県太田市鳥山上町2282",
"Capacity": "600",
"la": "36.32742154210",
"ln": "139.34116881600"
},
"geometry": {
"type": "Point",
"coordinates": [
139.341168816,
36.3274215421
]
}
},
{
"type": "Feature",
"properties": {
"Name": "休泊スポーツ広場",
"Jusho": "群馬県太田市龍舞町4053",
"Capacity": "700",
"la": "36.28877973630",
"ln": "139.41586591500"
},
"geometry": {
"type": "Point",
"coordinates": [
139.415865915,
36.2887797363
]
}
},
{
"type": "Feature",
"properties": {
"Name": "休泊行政センター",
"Jusho": "群馬県太田市龍舞町4053",
"Capacity": "－",
"la": "36.28947900000",
"ln": "139.41606200000"
},
"geometry": {
"type": "Point",
"coordinates": [
139.416062,
36.289479
]
}
},
{
"type": "Feature",
"properties": {
"Name": "強戸スポーツ広場",
"Jusho": "群馬県太田市菅塩町345",
"Capacity": "1000",
"la": "36.34159374870",
"ln": "139.34000068600"
},
"geometry": {
"type": "Point",
"coordinates": [
139.340000686,
36.3415937487
]
}
},
{
"type": "Feature",
"properties": {
"Name": "強戸ふれあいセンター",
"Jusho": "群馬県太田市石橋町856－",
"Capacity": "－",
"la": "36.33220600000",
"ln": "139.33855000000"
},
"geometry": {
"type": "Point",
"coordinates": [
139.33855,
36.332206
]
}
},
{
"type": "Feature",
"properties": {
"Name": "強戸行政センター",
"Jusho": "群馬県太田市菅塩町345",
"Capacity": "－",
"la": "36.34129700000",
"ln": "139.34058300000"
},
"geometry": {
"type": "Point",
"coordinates": [
139.340583,
36.341297
]
}
},
{
"type": "Feature",
"properties": {
"Name": "九合行政センター",
"Jusho": "群馬県太田市飯塚町591－",
"Capacity": "－",
"la": "36.27662100000",
"ln": "139.38411800000"
},
"geometry": {
"type": "Point",
"coordinates": [
139.384118,
36.276621
]
}
},
{
"type": "Feature",
"properties": {
"Name": "県立太田フレックス高校",
"Jusho": "群馬県太田市下田島町1243－",
"Capacity": "－",
"la": "36.26478600000",
"ln": "139.31563200000"
},
"geometry": {
"type": "Point",
"coordinates": [
139.315632,
36.264786
]
}
},
{
"type": "Feature",
"properties": {
"Name": "県立太田工業高校",
"Jusho": "群馬県太田市茂木町380",
"Capacity": "－",
"la": "36.29525300000",
"ln": "139.41694100000"
},
"geometry": {
"type": "Point",
"coordinates": [
139.416941,
36.295253
]
}
},
{
"type": "Feature",
"properties": {
"Name": "県立太田高校",
"Jusho": "群馬県太田市西本町12－",
"Capacity": "－",
"la": "36.29381800000",
"ln": "139.36589000000"
},
"geometry": {
"type": "Point",
"coordinates": [
139.36589,
36.293818
]
}
},
{
"type": "Feature",
"properties": {
"Name": "県立太田女子高校",
"Jusho": "群馬県太田市八幡町16-7",
"Capacity": "－",
"la": "36.29820700000",
"ln": "139.36455700000"
},
"geometry": {
"type": "Point",
"coordinates": [
139.364557,
36.298207
]
}
},
{
"type": "Feature",
"properties": {
"Name": "県立太田東高校",
"Jusho": "群馬県太田市台之郷町448",
"Capacity": "－",
"la": "36.30597200000",
"ln": "139.41352300000"
},
"geometry": {
"type": "Point",
"coordinates": [
139.413523,
36.305972
]
}
},
{
"type": "Feature",
"properties": {
"Name": "高齢者福祉総合センター",
"Jusho": "群馬県太田市鳥山上町2313",
"Capacity": "－",
"la": "36.32825900000",
"ln": "139.34117000000"
},
"geometry": {
"type": "Point",
"coordinates": [
139.34117,
36.328259
]
}
},
{
"type": "Feature",
"properties": {
"Name": "市立太田商業高校",
"Jusho": "群馬県太田市細谷町1510",
"Capacity": "－",
"la": "36.28049700000",
"ln": "139.35312800000"
},
"geometry": {
"type": "Point",
"coordinates": [
139.353128,
36.280497
]
}
},
{
"type": "Feature",
"properties": {
"Name": "新田武道館",
"Jusho": "群馬県太田市新田上江田町721－",
"Capacity": "－",
"la": "36.29827900000",
"ln": "139.29865500000"
},
"geometry": {
"type": "Point",
"coordinates": [
139.298655,
36.298279
]
}
},
{
"type": "Feature",
"properties": {
"Name": "新田福祉総合センター",
"Jusho": "群馬県太田市新田反町町831-3",
"Capacity": "－",
"la": "36.29999000000",
"ln": "139.30164100000"
},
"geometry": {
"type": "Point",
"coordinates": [
139.301641,
36.29999
]
}
},
{
"type": "Feature",
"properties": {
"Name": "新田文化会館総合体育館",
"Jusho": "群馬県太田市新田金井町607",
"Capacity": "－",
"la": "36.30095000000",
"ln": "139.29622500000"
},
"geometry": {
"type": "Point",
"coordinates": [
139.296225,
36.30095
]
}
},
{
"type": "Feature",
"properties": {
"Name": "世良田生涯学習センター",
"Jusho": "群馬県太田市世良田町1535-4",
"Capacity": "－",
"la": "36.26612563150",
"ln": "139.28169285500"
},
"geometry": {
"type": "Point",
"coordinates": [
139.281692855,
36.2661256315
]
}
},
{
"type": "Feature",
"properties": {
"Name": "生品公民館",
"Jusho": "群馬県太田市新田村田町1107－",
"Capacity": "－",
"la": "36.31550500000",
"ln": "139.31282500000"
},
"geometry": {
"type": "Point",
"coordinates": [
139.312825,
36.315505
]
}
},
{
"type": "Feature",
"properties": {
"Name": "太田行政センター",
"Jusho": "群馬県太田市本町20－",
"Capacity": "－",
"la": "36.29658300000",
"ln": "139.37421500000"
},
"geometry": {
"type": "Point",
"coordinates": [
139.374215,
36.296583
]
}
},
{
"type": "Feature",
"properties": {
"Name": "太田行政センター東別館",
"Jusho": "群馬県太田市東本町53-20",
"Capacity": "－",
"la": "36.30024400000",
"ln": "139.37933400000"
},
"geometry": {
"type": "Point",
"coordinates": [
139.379334,
36.300244
]
}
},
{
"type": "Feature",
"properties": {
"Name": "太田養護学校",
"Jusho": "群馬県太田市藤阿久町26－",
"Capacity": "－",
"la": "36.28443000000",
"ln": "139.35869700000"
},
"geometry": {
"type": "Point",
"coordinates": [
139.358697,
36.28443
]
}
},
{
"type": "Feature",
"properties": {
"Name": "大舘区民会館",
"Jusho": "群馬県太田市大舘町1492-4",
"Capacity": "－",
"la": "36.25129000000",
"ln": "139.29876100000"
},
"geometry": {
"type": "Point",
"coordinates": [
139.298761,
36.25129
]
}
},
{
"type": "Feature",
"properties": {
"Name": "第一老人福祉センター",
"Jusho": "群馬県太田市藤阿久町3-3",
"Capacity": "－",
"la": "36.28265600000",
"ln": "139.35527200000"
},
"geometry": {
"type": "Point",
"coordinates": [
139.355272,
36.282656
]
}
},
{
"type": "Feature",
"properties": {
"Name": "第二老人福祉センター",
"Jusho": "群馬県太田市東金金井町150",
"Capacity": "－",
"la": "36.31873600000",
"ln": "139.38558600000"
},
"geometry": {
"type": "Point",
"coordinates": [
139.385586,
36.318736
]
}
},
{
"type": "Feature",
"properties": {
"Name": "沢野スポーツ広場",
"Jusho": "群馬県太田市高林北町894",
"Capacity": "1200",
"la": "36.25901751570",
"ln": "139.36446982000"
},
"geometry": {
"type": "Point",
"coordinates": [
139.36446982,
36.2590175157
]
}
},
{
"type": "Feature",
"properties": {
"Name": "鳥之郷スポーツ広場",
"Jusho": "群馬県太田市新野町203",
"Capacity": "900",
"la": "36.30808641750",
"ln": "139.34641743000"
},
"geometry": {
"type": "Point",
"coordinates": [
139.34641743,
36.3080864175
]
}
},
{
"type": "Feature",
"properties": {
"Name": "鳥之郷行政センター",
"Jusho": "群馬県太田市新野町203",
"Capacity": "－",
"la": "36.30844800000",
"ln": "139.34583600000"
},
"geometry": {
"type": "Point",
"coordinates": [
139.345836,
36.308448
]
}
},
{
"type": "Feature",
"properties": {
"Name": "南ふれあいセンター",
"Jusho": "群馬県太田市高林東町1302",
"Capacity": "－",
"la": "36.25369300000",
"ln": "139.37548400000"
},
"geometry": {
"type": "Point",
"coordinates": [
139.375484,
36.253693
]
}
},
{
"type": "Feature",
"properties": {
"Name": "南前小屋集会所",
"Jusho": "群馬県太田市前小屋町55",
"Capacity": "－",
"la": "36.24416665600",
"ln": "139.32634519600"
},
"geometry": {
"type": "Point",
"coordinates": [
139.326345196,
36.244166656
]
}
},
{
"type": "Feature",
"properties": {
"Name": "韮川スポーツ広場",
"Jusho": "群馬県太田市東長岡町1853",
"Capacity": "900",
"la": "36.30225344890",
"ln": "139.39992348500"
},
"geometry": {
"type": "Point",
"coordinates": [
139.399923485,
36.3022534489
]
}
},
{
"type": "Feature",
"properties": {
"Name": "韮川行政センター",
"Jusho": "群馬県太田市東長岡町1853",
"Capacity": "－",
"la": "36.30218700000",
"ln": "139.39898800000"
},
"geometry": {
"type": "Point",
"coordinates": [
139.398988,
36.302187
]
}
},
{
"type": "Feature",
"properties": {
"Name": "尾島生涯学習センター",
"Jusho": "群馬県太田市亀岡町63－",
"Capacity": "－",
"la": "36.25664700000",
"ln": "139.32115100000"
},
"geometry": {
"type": "Point",
"coordinates": [
139.321151,
36.256647
]
}
},
{
"type": "Feature",
"properties": {
"Name": "尾島体育館",
"Jusho": "群馬県太田市亀岡町656－",
"Capacity": "－",
"la": "36.25500300000",
"ln": "139.31059500000"
},
"geometry": {
"type": "Point",
"coordinates": [
139.310595,
36.255003
]
}
},
{
"type": "Feature",
"properties": {
"Name": "尾島第２体育館",
"Jusho": "群馬県太田市岩松町802",
"Capacity": "－",
"la": "36.26226900000",
"ln": "139.32901800000"
},
"geometry": {
"type": "Point",
"coordinates": [
139.329018,
36.262269
]
}
},
{
"type": "Feature",
"properties": {
"Name": "武道館",
"Jusho": "群馬県太田市内ヶ島町384-2",
"Capacity": "－",
"la": "36.27700400000",
"ln": "139.39446200000"
},
"geometry": {
"type": "Point",
"coordinates": [
139.394462,
36.277004
]
}
},
{
"type": "Feature",
"properties": {
"Name": "宝泉スポーツ広場",
"Jusho": "群馬県太田市西野谷町40-4",
"Capacity": "1000",
"la": "36.28164272870",
"ln": "139.33145726400"
},
"geometry": {
"type": "Point",
"coordinates": [
139.331457264,
36.2816427287
]
}
},
{
"type": "Feature",
"properties": {
"Name": "宝泉行政センター",
"Jusho": "群馬県太田市西野谷町38-2",
"Capacity": "－",
"la": "36.28226700000",
"ln": "139.33238500000"
},
"geometry": {
"type": "Point",
"coordinates": [
139.332385,
36.282267
]
}
},
{
"type": "Feature",
"properties": {
"Name": "綿打公民館",
"Jusho": "群馬県太田市新田大根町916－",
"Capacity": "－",
"la": "36.30875500000",
"ln": "139.27905100000"
},
"geometry": {
"type": "Point",
"coordinates": [
139.279051,
36.308755
]
}
},
{
"type": "Feature",
"properties": {
"Name": "毛里田行政センター",
"Jusho": "群馬県太田市矢田堀町244-5",
"Capacity": "－",
"la": "36.33792500000",
"ln": "139.38375000000"
},
"geometry": {
"type": "Point",
"coordinates": [
139.38375,
36.337925
]
}
},
{
"type": "Feature",
"properties": {
"Name": "木崎公民館",
"Jusho": "群馬県太田市新田木崎町1215－",
"Capacity": "－",
"la": "36.28170300000",
"ln": "139.30135300000"
},
"geometry": {
"type": "Point",
"coordinates": [
139.301353,
36.281703
]
}
},
{
"type": "Feature",
"properties": {
"Name": "老人福祉センターかたくりの里",
"Jusho": "群馬県太田市吉沢町5292",
"Capacity": "－",
"la": "36.34105800000",
"ln": "139.37482000000"
},
"geometry": {
"type": "Point",
"coordinates": [
139.37482,
36.341058
]
}
},
{
"type": "Feature",
"properties": {
"Name": "藪塚本町社会体育館",
"Jusho": "群馬県太田市大原町383-70",
"Capacity": "－",
"la": "36.35360700000",
"ln": "139.29913400000"
},
"geometry": {
"type": "Point",
"coordinates": [
139.299134,
36.353607
]
}
},
{
"type": "Feature",
"properties": {
"Name": "藪塚本町中央公民館",
"Jusho": "群馬県太田市大原町505",
"Capacity": "－",
"la": "36.35670900000",
"ln": "139.29773900000"
},
"geometry": {
"type": "Point",
"coordinates": [
139.297739,
36.356709
]
}
},
{
"type": "Feature",
"properties": {
"Name": "伊香原地区集会所",
"Jusho": "群馬県沼田市",
"Capacity": "40",
"la": "36.73025100000",
"ln": "139.22450100000"
},
"geometry": {
"type": "Point",
"coordinates": [
139.224501,
36.730251
]
}
},
{
"type": "Feature",
"properties": {
"Name": "園原地区集会所",
"Jusho": "群馬県沼田市",
"Capacity": "20",
"la": "36.65555707360",
"ln": "139.18091803900"
},
"geometry": {
"type": "Point",
"coordinates": [
139.180918039,
36.6555570736
]
}
},
{
"type": "Feature",
"properties": {
"Name": "下町住民センター",
"Jusho": "群馬県沼田市",
"Capacity": "50",
"la": "36.64454183420",
"ln": "139.03597862000"
},
"geometry": {
"type": "Point",
"coordinates": [
139.03597862,
36.6445418342
]
}
},
{
"type": "Feature",
"properties": {
"Name": "高戸谷地区集会所",
"Jusho": "群馬県沼田市利根町高戸谷439",
"Capacity": "20",
"la": "36.69364091630",
"ln": "139.20766828200"
},
"geometry": {
"type": "Point",
"coordinates": [
139.207668282,
36.6936409163
]
}
},
{
"type": "Feature",
"properties": {
"Name": "高平集会所",
"Jusho": "群馬県沼田市白沢町高平274",
"Capacity": "200",
"la": "36.66304929930",
"ln": "139.14212378000"
},
"geometry": {
"type": "Point",
"coordinates": [
139.14212378,
36.6630492993
]
}
},
{
"type": "Feature",
"properties": {
"Name": "砂川集会所",
"Jusho": "群馬県沼田市利根町砂川250－",
"Capacity": "20",
"la": "36.62409573730",
"ln": "139.16831262800"
},
"geometry": {
"type": "Point",
"coordinates": [
139.168312628,
36.6240957373
]
}
},
{
"type": "Feature",
"properties": {
"Name": "小松集会所",
"Jusho": "群馬県沼田市利根町小松78",
"Capacity": "10",
"la": "36.61521163980",
"ln": "139.21000614100"
},
"geometry": {
"type": "Point",
"coordinates": [
139.210006141,
36.6152116398
]
}
},
{
"type": "Feature",
"properties": {
"Name": "沼小講堂記念体育館",
"Jusho": "群馬県沼田市西倉内町650",
"Capacity": "420",
"la": "36.64895413970",
"ln": "139.04020063900"
},
"geometry": {
"type": "Point",
"coordinates": [
139.040200639,
36.6489541397
]
}
},
{
"type": "Feature",
"properties": {
"Name": "沼田高等学校",
"Jusho": "群馬県沼田市西原新町1510",
"Capacity": "450",
"la": "36.64566200000",
"ln": "139.05257700000"
},
"geometry": {
"type": "Point",
"coordinates": [
139.052577,
36.645662
]
}
},
{
"type": "Feature",
"properties": {
"Name": "沼田市ふれあい福祉センター",
"Jusho": "群馬県沼田市白岩町189－1",
"Capacity": "200",
"la": "36.65415167390",
"ln": "139.03787582700"
},
"geometry": {
"type": "Point",
"coordinates": [
139.037875827,
36.6541516739
]
}
},
{
"type": "Feature",
"properties": {
"Name": "沼田市民体育館",
"Jusho": "群馬県沼田市東原新町1801－",
"Capacity": "450",
"la": "36.64988799910",
"ln": "139.06063700000"
},
"geometry": {
"type": "Point",
"coordinates": [
139.060637,
36.6498879991
]
}
},
{
"type": "Feature",
"properties": {
"Name": "沼田女子高等学校",
"Jusho": "群馬県沼田市東倉内町753-3",
"Capacity": "400",
"la": "36.64752300000",
"ln": "139.04455000000"
},
"geometry": {
"type": "Point",
"coordinates": [
139.04455,
36.647523
]
}
},
{
"type": "Feature",
"properties": {
"Name": "生枝集会所",
"Jusho": "群馬県沼田市白沢町生枝1480",
"Capacity": "150",
"la": "36.65948523270",
"ln": "139.15712623900"
},
"geometry": {
"type": "Point",
"coordinates": [
139.157126239,
36.6594852327
]
}
},
{
"type": "Feature",
"properties": {
"Name": "青木多目的研修施設",
"Jusho": "群馬県沼田市利根町青木543",
"Capacity": "10",
"la": "36.62927930380",
"ln": "139.16970859200"
},
"geometry": {
"type": "Point",
"coordinates": [
139.169708592,
36.6292793038
]
}
},
{
"type": "Feature",
"properties": {
"Name": "千鳥転作促進研修施設",
"Jusho": "群馬県沼田市利根町千鳥5－",
"Capacity": "20",
"la": "36.71771342750",
"ln": "139.21823741000"
},
"geometry": {
"type": "Point",
"coordinates": [
139.21823741,
36.7177134275
]
}
},
{
"type": "Feature",
"properties": {
"Name": "川田運動広場",
"Jusho": "群馬県沼田市下川田町1455－",
"Capacity": "200",
"la": "36.64160728230",
"ln": "139.01984726400"
},
"geometry": {
"type": "Point",
"coordinates": [
139.019847264,
36.6416072823
]
}
},
{
"type": "Feature",
"properties": {
"Name": "川田公民館",
"Jusho": "群馬県沼田市下川田町乙798",
"Capacity": "50",
"la": "36.63126402750",
"ln": "139.03091258800"
},
"geometry": {
"type": "Point",
"coordinates": [
139.030912588,
36.6312640275
]
}
},
{
"type": "Feature",
"properties": {
"Name": "多那地区コミュニティセンター",
"Jusho": "群馬県沼田市利根町多那696-8",
"Capacity": "20",
"la": "36.63653810290",
"ln": "139.14534668600"
},
"geometry": {
"type": "Point",
"coordinates": [
139.145346686,
36.6365381029
]
}
},
{
"type": "Feature",
"properties": {
"Name": "多那婦人の家",
"Jusho": "群馬県沼田市利根町多那2544",
"Capacity": "40",
"la": "36.63917078010",
"ln": "139.13453246700"
},
"geometry": {
"type": "Point",
"coordinates": [
139.134532467,
36.6391707801
]
}
},
{
"type": "Feature",
"properties": {
"Name": "大原集会所",
"Jusho": "群馬県沼田市利根町大原4－",
"Capacity": "20",
"la": "36.67371629490",
"ln": "139.19667601200"
},
"geometry": {
"type": "Point",
"coordinates": [
139.196676012,
36.6737162949
]
}
},
{
"type": "Feature",
"properties": {
"Name": "池田公民館",
"Jusho": "群馬県沼田市発知新田町530-3",
"Capacity": "50",
"la": "36.69581125510",
"ln": "139.06428296800"
},
"geometry": {
"type": "Point",
"coordinates": [
139.064282968,
36.6958112551
]
}
},
{
"type": "Feature",
"properties": {
"Name": "追貝上組集会所",
"Jusho": "群馬県沼田市利根町追貝711",
"Capacity": "40",
"la": "36.70303292470",
"ln": "139.21613343500"
},
"geometry": {
"type": "Point",
"coordinates": [
139.216133435,
36.7030329247
]
}
},
{
"type": "Feature",
"properties": {
"Name": "追貝地区コミュニティセンター",
"Jusho": "群馬県沼田市利根町追貝835",
"Capacity": "40",
"la": "36.70159603530",
"ln": "139.21056757600"
},
"geometry": {
"type": "Point",
"coordinates": [
139.210567576,
36.7015960353
]
}
},
{
"type": "Feature",
"properties": {
"Name": "南郷集会所",
"Jusho": "群馬県沼田市利根町日影南郷69-2",
"Capacity": "20",
"la": "36.63336579440",
"ln": "139.18230921100"
},
"geometry": {
"type": "Point",
"coordinates": [
139.182309211,
36.6333657944
]
}
},
{
"type": "Feature",
"properties": {
"Name": "二本松多目的集会施設",
"Jusho": "群馬県沼田市利根町二本松110－",
"Capacity": "20",
"la": "36.62977842960",
"ln": "139.13580923600"
},
"geometry": {
"type": "Point",
"coordinates": [
139.135809236,
36.6297784296
]
}
},
{
"type": "Feature",
"properties": {
"Name": "二本松第二集会所",
"Jusho": "群馬県沼田市利根町砂川1994-34",
"Capacity": "20",
"la": "36.61485759510",
"ln": "139.14754088200"
},
"geometry": {
"type": "Point",
"coordinates": [
139.147540882,
36.6148575951
]
}
},
{
"type": "Feature",
"properties": {
"Name": "薄根公民館",
"Jusho": "群馬県沼田市下沼田町733－",
"Capacity": "50",
"la": "36.66092500000",
"ln": "139.03485800000"
},
"geometry": {
"type": "Point",
"coordinates": [
139.034858,
36.660925
]
}
},
{
"type": "Feature",
"properties": {
"Name": "薄根町公民館",
"Jusho": "群馬県沼田市薄根町3489－",
"Capacity": "50",
"la": "36.64111079860",
"ln": "139.02868213000"
},
"geometry": {
"type": "Point",
"coordinates": [
139.02868213,
36.6411107986
]
}
},
{
"type": "Feature",
"properties": {
"Name": "平川集落センター",
"Jusho": "群馬県沼田市利根町平川781",
"Capacity": "40",
"la": "36.72252016080",
"ln": "139.22396171800"
},
"geometry": {
"type": "Point",
"coordinates": [
139.223961718,
36.7225201608
]
}
},
{
"type": "Feature",
"properties": {
"Name": "平川上組コミュニティセンター",
"Jusho": "群馬県沼田市利根町平川190",
"Capacity": "20",
"la": "36.72564346030",
"ln": "139.23532864300"
},
"geometry": {
"type": "Point",
"coordinates": [
139.235328643,
36.7256434603
]
}
},
{
"type": "Feature",
"properties": {
"Name": "利根観光会館",
"Jusho": "群馬県沼田市利根町老神607－",
"Capacity": "150",
"la": "36.67111148400",
"ln": "139.20979305500"
},
"geometry": {
"type": "Point",
"coordinates": [
139.209793055,
36.671111484
]
}
},
{
"type": "Feature",
"properties": {
"Name": "利根実業高等学校",
"Jusho": "群馬県沼田市栄町165-2",
"Capacity": "430",
"la": "36.63449700000",
"ln": "139.04641100000"
},
"geometry": {
"type": "Point",
"coordinates": [
139.046411,
36.634497
]
}
},
{
"type": "Feature",
"properties": {
"Name": "利根第２生活改善センター",
"Jusho": "群馬県沼田市利根町根利529番地先",
"Capacity": "20",
"la": "36.60830498510",
"ln": "139.23681434600"
},
"geometry": {
"type": "Point",
"coordinates": [
139.236814346,
36.6083049851
]
}
},
{
"type": "Feature",
"properties": {
"Name": "利根第３生活改善センター",
"Jusho": "群馬県沼田市利根町輪組169",
"Capacity": "20",
"la": "36.64527217390",
"ln": "139.15643576100"
},
"geometry": {
"type": "Point",
"coordinates": [
139.156435761,
36.6452721739
]
}
},
{
"type": "Feature",
"properties": {
"Name": "利根第４生活改善センター",
"Jusho": "群馬県沼田市利根町穴原45",
"Capacity": "40",
"la": "36.64565426620",
"ln": "139.20244001200"
},
"geometry": {
"type": "Point",
"coordinates": [
139.202440012,
36.6456542662
]
}
},
{
"type": "Feature",
"properties": {
"Name": "利根第５生活改善センター",
"Jusho": "群馬県沼田市利根町大楊336",
"Capacity": "40",
"la": "36.68410390300",
"ln": "139.21297995700"
},
"geometry": {
"type": "Point",
"coordinates": [
139.212979957,
36.684103903
]
}
},
{
"type": "Feature",
"properties": {
"Name": "利根第６生活改善センター",
"Jusho": "群馬県沼田市利根町平川1809－",
"Capacity": "20",
"la": "36.73330555000",
"ln": "139.23694141200"
},
"geometry": {
"type": "Point",
"coordinates": [
139.236941412,
36.73330555
]
}
},
{
"type": "Feature",
"properties": {
"Name": "利根第７生活改善センター",
"Jusho": "群馬県沼田市利根町柿平14-2",
"Capacity": "10",
"la": "36.62450581890",
"ln": "139.19350751000"
},
"geometry": {
"type": "Point",
"coordinates": [
139.19350751,
36.6245058189
]
}
},
{
"type": "Feature",
"properties": {
"Name": "利南公民館",
"Jusho": "群馬県沼田市上沼須町197",
"Capacity": "50",
"la": "36.64148600000",
"ln": "139.06017600000"
},
"geometry": {
"type": "Point",
"coordinates": [
139.060176,
36.641486
]
}
},
{
"type": "Feature",
"properties": {
"Name": "輪久原集会所",
"Jusho": "群馬県沼田市利根町輪組683－",
"Capacity": "20",
"la": "36.63803886270",
"ln": "139.15568430600"
},
"geometry": {
"type": "Point",
"coordinates": [
139.155684306,
36.6380388627
]
}
},
{
"type": "Feature",
"properties": {
"Name": "老神集会所",
"Jusho": "群馬県沼田市利根町老神277",
"Capacity": "40",
"la": "36.67769464570",
"ln": "139.20760258200"
},
"geometry": {
"type": "Point",
"coordinates": [
139.207602582,
36.6776946457
]
}
},
{
"type": "Feature",
"properties": {
"Name": "ＪＡ館林市",
"Jusho": "群馬県館林市赤生田町847",
"Capacity": "－",
"la": "36.22618500000",
"ln": "139.56695200000"
},
"geometry": {
"type": "Point",
"coordinates": [
139.566952,
36.226185
]
}
},
{
"type": "Feature",
"properties": {
"Name": "アピタ館林店",
"Jusho": "群馬県館林市楠町3648－",
"Capacity": "－",
"la": "36.24248600000",
"ln": "139.56892137700"
},
"geometry": {
"type": "Point",
"coordinates": [
139.568921377,
36.242486
]
}
},
{
"type": "Feature",
"properties": {
"Name": "関東学園大学付属高等学校",
"Jusho": "群馬県館林市大谷町625",
"Capacity": "－",
"la": "36.24471599910",
"ln": "139.49915700000"
},
"geometry": {
"type": "Point",
"coordinates": [
139.499157,
36.2447159991
]
}
},
{
"type": "Feature",
"properties": {
"Name": "関東短期大学",
"Jusho": "群馬県館林市大谷町625",
"Capacity": "－",
"la": "36.24517400000",
"ln": "139.49896600000"
},
"geometry": {
"type": "Point",
"coordinates": [
139.498966,
36.245174
]
}
},
{
"type": "Feature",
"properties": {
"Name": "館林高等看護学院",
"Jusho": "群馬県館林市苗木町2497－",
"Capacity": "－",
"la": "36.23156560810",
"ln": "139.50317798600"
},
"geometry": {
"type": "Point",
"coordinates": [
139.503177986,
36.2315656081
]
}
},
{
"type": "Feature",
"properties": {
"Name": "郷谷公民館",
"Jusho": "群馬県館林市当郷町218",
"Capacity": "－",
"la": "36.24656700000",
"ln": "139.55964000000"
},
"geometry": {
"type": "Point",
"coordinates": [
139.55964,
36.246567
]
}
},
{
"type": "Feature",
"properties": {
"Name": "勤労青少年ホーム",
"Jusho": "群馬県館林市赤生田町1950-2",
"Capacity": "－",
"la": "36.22910393310",
"ln": "139.56128969000"
},
"geometry": {
"type": "Point",
"coordinates": [
139.56128969,
36.2291039331
]
}
},
{
"type": "Feature",
"properties": {
"Name": "県立館林高等学校",
"Jusho": "群馬県館林市富士原町1241",
"Capacity": "－",
"la": "36.24182799910",
"ln": "139.51335000000"
},
"geometry": {
"type": "Point",
"coordinates": [
139.51335,
36.2418279991
]
}
},
{
"type": "Feature",
"properties": {
"Name": "県立館林女子高等学校",
"Jusho": "群馬県館林市尾曳町6－",
"Capacity": "－",
"la": "36.24566199910",
"ln": "139.54404200000"
},
"geometry": {
"type": "Point",
"coordinates": [
139.544042,
36.2456619991
]
}
},
{
"type": "Feature",
"properties": {
"Name": "三の丸芸術ホール",
"Jusho": "群馬県館林市城町1-2",
"Capacity": "－",
"la": "36.24416800000",
"ln": "139.54012600000"
},
"geometry": {
"type": "Point",
"coordinates": [
139.540126,
36.244168
]
}
},
{
"type": "Feature",
"properties": {
"Name": "三野谷公民館",
"Jusho": "群馬県館林市上三林町113",
"Capacity": "－",
"la": "36.21825999910",
"ln": "139.48435800000"
},
"geometry": {
"type": "Point",
"coordinates": [
139.484358,
36.2182599991
]
}
},
{
"type": "Feature",
"properties": {
"Name": "三野谷保育園",
"Jusho": "群馬県館林市上三林町107－",
"Capacity": "－",
"la": "36.21871799910",
"ln": "139.48443700000"
},
"geometry": {
"type": "Point",
"coordinates": [
139.484437,
36.2187179991
]
}
},
{
"type": "Feature",
"properties": {
"Name": "市民体育館",
"Jusho": "群馬県館林市当郷町1904",
"Capacity": "－",
"la": "36.24709000000",
"ln": "139.55954100000"
},
"geometry": {
"type": "Point",
"coordinates": [
139.559541,
36.24709
]
}
},
{
"type": "Feature",
"properties": {
"Name": "児童センター",
"Jusho": "群馬県館林市大手町10-55",
"Capacity": "－",
"la": "36.24837500000",
"ln": "139.53864100000"
},
"geometry": {
"type": "Point",
"coordinates": [
139.538641,
36.248375
]
}
},
{
"type": "Feature",
"properties": {
"Name": "松波保育園",
"Jusho": "群馬県館林市高根町400-96",
"Capacity": "－",
"la": "36.26479500000",
"ln": "139.51332100000"
},
"geometry": {
"type": "Point",
"coordinates": [
139.513321,
36.264795
]
}
},
{
"type": "Feature",
"properties": {
"Name": "城沼公民館",
"Jusho": "群馬県館林市松原1-22-22",
"Capacity": "－",
"la": "36.24240700000",
"ln": "139.53914600000"
},
"geometry": {
"type": "Point",
"coordinates": [
139.539146,
36.242407
]
}
},
{
"type": "Feature",
"properties": {
"Name": "城沼総合体育館",
"Jusho": "群馬県館林市つつじ町14－",
"Capacity": "－",
"la": "36.23886400000",
"ln": "139.54400100000"
},
"geometry": {
"type": "Point",
"coordinates": [
139.544001,
36.238864
]
}
},
{
"type": "Feature",
"properties": {
"Name": "杉並幼稚園",
"Jusho": "群馬県館林市新宿2－4－8",
"Capacity": "－",
"la": "36.23751100000",
"ln": "139.52612600000"
},
"geometry": {
"type": "Point",
"coordinates": [
139.526126,
36.237511
]
}
},
{
"type": "Feature",
"properties": {
"Name": "成島保育園",
"Jusho": "群馬県館林市北成島町1645－",
"Capacity": "－",
"la": "36.25354800000",
"ln": "139.51173300000"
},
"geometry": {
"type": "Point",
"coordinates": [
139.511733,
36.253548
]
}
},
{
"type": "Feature",
"properties": {
"Name": "西公民館",
"Jusho": "群馬県館林市富士原町1241-80",
"Capacity": "－",
"la": "36.24105900000",
"ln": "139.51137900000"
},
"geometry": {
"type": "Point",
"coordinates": [
139.511379,
36.241059
]
}
},
{
"type": "Feature",
"properties": {
"Name": "西児童館",
"Jusho": "群馬県館林市富士原町1241-80",
"Capacity": "－",
"la": "36.24110599910",
"ln": "139.51139000000"
},
"geometry": {
"type": "Point",
"coordinates": [
139.51139,
36.2411059991
]
}
},
{
"type": "Feature",
"properties": {
"Name": "西幼稚園",
"Jusho": "群馬県館林市近藤町178-273",
"Capacity": "－",
"la": "36.24038300000",
"ln": "139.50779600000"
},
"geometry": {
"type": "Point",
"coordinates": [
139.507796,
36.240383
]
}
},
{
"type": "Feature",
"properties": {
"Name": "赤羽公民館",
"Jusho": "群馬県館林市赤生田町1950-2",
"Capacity": "－",
"la": "36.22921200000",
"ln": "139.56129200000"
},
"geometry": {
"type": "Point",
"coordinates": [
139.561292,
36.229212
]
}
},
{
"type": "Feature",
"properties": {
"Name": "赤羽児童館",
"Jusho": "群馬県館林市赤生田町1959-2",
"Capacity": "－",
"la": "36.22833300000",
"ln": "139.56171900000"
},
"geometry": {
"type": "Point",
"coordinates": [
139.561719,
36.228333
]
}
},
{
"type": "Feature",
"properties": {
"Name": "千代田町緑地",
"Jusho": "群馬県館林市千代田町地内",
"Capacity": "－",
"la": "36.24385770000",
"ln": "139.52920954000"
},
"geometry": {
"type": "Point",
"coordinates": [
139.52920954,
36.2438577
]
}
},
{
"type": "Feature",
"properties": {
"Name": "総合福祉センター",
"Jusho": "群馬県館林市苗木町2452－",
"Capacity": "－",
"la": "36.23146500000",
"ln": "139.50814200000"
},
"geometry": {
"type": "Point",
"coordinates": [
139.508142,
36.231465
]
}
},
{
"type": "Feature",
"properties": {
"Name": "多々良公民館",
"Jusho": "群馬県館林市西高根町48-2",
"Capacity": "－",
"la": "36.26201399910",
"ln": "139.51129200000"
},
"geometry": {
"type": "Point",
"coordinates": [
139.511292,
36.2620139991
]
}
},
{
"type": "Feature",
"properties": {
"Name": "多々良保育園",
"Jusho": "群馬県館林市日向町1147－6",
"Capacity": "－",
"la": "36.26887899910",
"ln": "139.49954500000"
},
"geometry": {
"type": "Point",
"coordinates": [
139.499545,
36.2688789991
]
}
},
{
"type": "Feature",
"properties": {
"Name": "大島公民館",
"Jusho": "群馬県館林市大島町4375－",
"Capacity": "－",
"la": "36.26351400000",
"ln": "139.58257300000"
},
"geometry": {
"type": "Point",
"coordinates": [
139.582573,
36.263514
]
}
},
{
"type": "Feature",
"properties": {
"Name": "中部公民館",
"Jusho": "群馬県館林市仲町14－",
"Capacity": "－",
"la": "36.24956700000",
"ln": "139.53215500000"
},
"geometry": {
"type": "Point",
"coordinates": [
139.532155,
36.249567
]
}
},
{
"type": "Feature",
"properties": {
"Name": "長良保育園",
"Jusho": "群馬県館林市台宿町7－2",
"Capacity": "－",
"la": "36.25413700000",
"ln": "139.53407000000"
},
"geometry": {
"type": "Point",
"coordinates": [
139.53407,
36.254137
]
}
},
{
"type": "Feature",
"properties": {
"Name": "渡瀬公民館",
"Jusho": "群馬県館林市足次町483",
"Capacity": "－",
"la": "36.27156600000",
"ln": "139.53157100000"
},
"geometry": {
"type": "Point",
"coordinates": [
139.531571,
36.271566
]
}
},
{
"type": "Feature",
"properties": {
"Name": "渡瀬保育園",
"Jusho": "群馬県館林市足次町486－",
"Capacity": "－",
"la": "36.27112700000",
"ln": "139.53134500000"
},
"geometry": {
"type": "Point",
"coordinates": [
139.531345,
36.271127
]
}
},
{
"type": "Feature",
"properties": {
"Name": "東保育園",
"Jusho": "群馬県館林市瀬戸谷町2240－7",
"Capacity": "－",
"la": "36.25306400000",
"ln": "139.54299700000"
},
"geometry": {
"type": "Point",
"coordinates": [
139.542997,
36.253064
]
}
},
{
"type": "Feature",
"properties": {
"Name": "東幼稚園",
"Jusho": "群馬県館林市大島町4364－",
"Capacity": "－",
"la": "36.26232699910",
"ln": "139.58095600000"
},
"geometry": {
"type": "Point",
"coordinates": [
139.580956,
36.2623269991
]
}
},
{
"type": "Feature",
"properties": {
"Name": "南保育園",
"Jusho": "群馬県館林市本町3-6－",
"Capacity": "－",
"la": "36.24446400000",
"ln": "139.53595900000"
},
"geometry": {
"type": "Point",
"coordinates": [
139.535959,
36.244464
]
}
},
{
"type": "Feature",
"properties": {
"Name": "南幼稚園",
"Jusho": "群馬県館林市本町3-6－",
"Capacity": "－",
"la": "36.24516200000",
"ln": "139.53668200000"
},
"geometry": {
"type": "Point",
"coordinates": [
139.536682,
36.245162
]
}
},
{
"type": "Feature",
"properties": {
"Name": "美園保育園",
"Jusho": "群馬県館林市美園町10-26",
"Capacity": "－",
"la": "36.23371600000",
"ln": "139.53419900000"
},
"geometry": {
"type": "Point",
"coordinates": [
139.534199,
36.233716
]
}
},
{
"type": "Feature",
"properties": {
"Name": "分福公民館",
"Jusho": "群馬県館林市分福町847-7",
"Capacity": "－",
"la": "36.22365300000",
"ln": "139.52131500000"
},
"geometry": {
"type": "Point",
"coordinates": [
139.521315,
36.223653
]
}
},
{
"type": "Feature",
"properties": {
"Name": "文化会館",
"Jusho": "群馬県館林市城町3－",
"Capacity": "－",
"la": "36.24499600000",
"ln": "139.54111800000"
},
"geometry": {
"type": "Point",
"coordinates": [
139.541118,
36.244996
]
}
},
{
"type": "Feature",
"properties": {
"Name": "保健福祉センター",
"Jusho": "群馬県館林市仲町14－",
"Capacity": "－",
"la": "36.24992310670",
"ln": "139.53174276600"
},
"geometry": {
"type": "Point",
"coordinates": [
139.531742766,
36.2499231067
]
}
},
{
"type": "Feature",
"properties": {
"Name": "北幼稚園",
"Jusho": "群馬県館林市台宿町9－",
"Capacity": "－",
"la": "36.25593800000",
"ln": "139.53301500000"
},
"geometry": {
"type": "Point",
"coordinates": [
139.533015,
36.255938
]
}
},
{
"type": "Feature",
"properties": {
"Name": "養護学校",
"Jusho": "群馬県館林市上三林町579",
"Capacity": "－",
"la": "36.21871799910",
"ln": "139.48546500000"
},
"geometry": {
"type": "Point",
"coordinates": [
139.485465,
36.2187179991
]
}
},
{
"type": "Feature",
"properties": {
"Name": "六郷公民館",
"Jusho": "群馬県館林市新宿1-4-30",
"Capacity": "－",
"la": "36.24125700000",
"ln": "139.53095500000"
},
"geometry": {
"type": "Point",
"coordinates": [
139.530955,
36.241257
]
}
},
{
"type": "Feature",
"properties": {
"Name": "六郷保育園",
"Jusho": "群馬県館林市新宿2－4－8",
"Capacity": "－",
"la": "36.23697799910",
"ln": "139.52574500000"
},
"geometry": {
"type": "Point",
"coordinates": [
139.525745,
36.2369779991
]
}
},
{
"type": "Feature",
"properties": {
"Name": "かに石幼稚園",
"Jusho": "群馬県渋川市村上3751－",
"Capacity": "－",
"la": "36.54783799910",
"ln": "138.93611800000"
},
"geometry": {
"type": "Point",
"coordinates": [
138.936118,
36.5478379991
]
}
},
{
"type": "Feature",
"properties": {
"Name": "コスモス会館",
"Jusho": "群馬県渋川市",
"Capacity": "－",
"la": "36.50932357110",
"ln": "138.92526899200"
},
"geometry": {
"type": "Point",
"coordinates": [
138.925268992,
36.5093235711
]
}
},
{
"type": "Feature",
"properties": {
"Name": "伊香保公民館",
"Jusho": "群馬県渋川市伊香保町伊香保163番地1",
"Capacity": "－",
"la": "36.49931200000",
"ln": "138.92408500000"
},
"geometry": {
"type": "Point",
"coordinates": [
138.924085,
36.499312
]
}
},
{
"type": "Feature",
"properties": {
"Name": "伊香保体育館",
"Jusho": "群馬県渋川市伊香保町伊香保552-2",
"Capacity": "－",
"la": "36.49899500000",
"ln": "138.92387100000"
},
"geometry": {
"type": "Point",
"coordinates": [
138.923871,
36.498995
]
}
},
{
"type": "Feature",
"properties": {
"Name": "伊香保保育所",
"Jusho": "群馬県渋川市伊香保町伊香保335-3",
"Capacity": "－",
"la": "36.50615200000",
"ln": "138.92538100000"
},
"geometry": {
"type": "Point",
"coordinates": [
138.925381,
36.506152
]
}
},
{
"type": "Feature",
"properties": {
"Name": "横堀集落センター",
"Jusho": "群馬県渋川市",
"Capacity": "－",
"la": "36.54253832240",
"ln": "138.98189686000"
},
"geometry": {
"type": "Point",
"coordinates": [
138.98189686,
36.5425383224
]
}
},
{
"type": "Feature",
"properties": {
"Name": "子持公民館",
"Jusho": "群馬県渋川市吹屋380番地1",
"Capacity": "－",
"la": "36.51926200000",
"ln": "139.00903000000"
},
"geometry": {
"type": "Point",
"coordinates": [
139.00903,
36.519262
]
}
},
{
"type": "Feature",
"properties": {
"Name": "子持社会体育館",
"Jusho": "群馬県渋川市吹屋658－0",
"Capacity": "－",
"la": "36.51556500000",
"ln": "139.01326000000"
},
"geometry": {
"type": "Point",
"coordinates": [
139.01326,
36.515565
]
}
},
{
"type": "Feature",
"properties": {
"Name": "子持総合運動場管理棟",
"Jusho": "群馬県渋川市",
"Capacity": "－",
"la": "36.54462250970",
"ln": "139.00550439100"
},
"geometry": {
"type": "Point",
"coordinates": [
139.005504391,
36.5446225097
]
}
},
{
"type": "Feature",
"properties": {
"Name": "子麓住民センター",
"Jusho": "群馬県渋川市上白井3340",
"Capacity": "－",
"la": "36.54482899910",
"ln": "139.02051100000"
},
"geometry": {
"type": "Point",
"coordinates": [
139.020511,
36.5448289991
]
}
},
{
"type": "Feature",
"properties": {
"Name": "渋川工業高等学校",
"Jusho": "群馬県渋川市渋川8－",
"Capacity": "－",
"la": "36.50333800000",
"ln": "138.99134000000"
},
"geometry": {
"type": "Point",
"coordinates": [
138.99134,
36.503338
]
}
},
{
"type": "Feature",
"properties": {
"Name": "渋川高等学校",
"Jusho": "群馬県渋川市並木町678-3",
"Capacity": "－",
"la": "36.50043100000",
"ln": "138.99837100000"
},
"geometry": {
"type": "Point",
"coordinates": [
138.998371,
36.500431
]
}
},
{
"type": "Feature",
"properties": {
"Name": "渋川女子高等学校",
"Jusho": "群馬県渋川市上郷2684",
"Capacity": "－",
"la": "36.49457200000",
"ln": "138.99710200000"
},
"geometry": {
"type": "Point",
"coordinates": [
138.997102,
36.494572
]
}
},
{
"type": "Feature",
"properties": {
"Name": "渋川青翠高等学校",
"Jusho": "群馬県渋川市折原3912－",
"Capacity": "－",
"la": "36.50420600000",
"ln": "138.98142900000"
},
"geometry": {
"type": "Point",
"coordinates": [
138.981429,
36.504206
]
}
},
{
"type": "Feature",
"properties": {
"Name": "小野上温泉センター",
"Jusho": "群馬県渋川市村上305-2",
"Capacity": "－",
"la": "36.55631880050",
"ln": "138.90373790700"
},
"geometry": {
"type": "Point",
"coordinates": [
138.903737907,
36.5563188005
]
}
},
{
"type": "Feature",
"properties": {
"Name": "小野上保健センター",
"Jusho": "群馬県渋川市",
"Capacity": "－",
"la": "36.54902610630",
"ln": "138.93849217500"
},
"geometry": {
"type": "Point",
"coordinates": [
138.938492175,
36.5490261063
]
}
},
{
"type": "Feature",
"properties": {
"Name": "上組養神館",
"Jusho": "群馬県渋川市",
"Capacity": "－",
"la": "36.56963923830",
"ln": "139.04332942000"
},
"geometry": {
"type": "Point",
"coordinates": [
139.04332942,
36.5696392383
]
}
},
{
"type": "Feature",
"properties": {
"Name": "上白井中組自治会館",
"Jusho": "群馬県渋川市上白井2192",
"Capacity": "－",
"la": "36.55243400000",
"ln": "139.03154900000"
},
"geometry": {
"type": "Point",
"coordinates": [
139.031549,
36.552434
]
}
},
{
"type": "Feature",
"properties": {
"Name": "上野コミュニティセンター",
"Jusho": "群馬県渋川市伊香保町伊香保326-4",
"Capacity": "－",
"la": "36.50443400000",
"ln": "138.92513200000"
},
"geometry": {
"type": "Point",
"coordinates": [
138.925132,
36.504434
]
}
},
{
"type": "Feature",
"properties": {
"Name": "吹屋参集殿",
"Jusho": "群馬県渋川市",
"Capacity": "－",
"la": "36.51566313250",
"ln": "139.01052601300"
},
"geometry": {
"type": "Point",
"coordinates": [
139.010526013,
36.5156631325
]
}
},
{
"type": "Feature",
"properties": {
"Name": "世代間交流館",
"Jusho": "群馬県渋川市",
"Capacity": "－",
"la": "36.50332299910",
"ln": "138.92455500000"
},
"geometry": {
"type": "Point",
"coordinates": [
138.924555,
36.5033229991
]
}
},
{
"type": "Feature",
"properties": {
"Name": "赤城公民館",
"Jusho": "群馬県渋川市赤城町敷島568番地1",
"Capacity": "－",
"la": "36.53430000000",
"ln": "139.03599700000"
},
"geometry": {
"type": "Point",
"coordinates": [
139.035997,
36.5343
]
}
},
{
"type": "Feature",
"properties": {
"Name": "浅田住民センター",
"Jusho": "群馬県渋川市",
"Capacity": "－",
"la": "36.53363516880",
"ln": "139.02327928800"
},
"geometry": {
"type": "Point",
"coordinates": [
139.023279288,
36.5336351688
]
}
},
{
"type": "Feature",
"properties": {
"Name": "第１０区住民センター",
"Jusho": "群馬県渋川市",
"Capacity": "－",
"la": "36.47798863300",
"ln": "138.94962992900"
},
"geometry": {
"type": "Point",
"coordinates": [
138.949629929,
36.477988633
]
}
},
{
"type": "Feature",
"properties": {
"Name": "第１１区住民センター",
"Jusho": "群馬県渋川市",
"Capacity": "－",
"la": "36.50549967050",
"ln": "138.94044954600"
},
"geometry": {
"type": "Point",
"coordinates": [
138.940449546,
36.5054996705
]
}
},
{
"type": "Feature",
"properties": {
"Name": "第９区湯中子会館",
"Jusho": "群馬県渋川市",
"Capacity": "－",
"la": "36.50848705610",
"ln": "138.91568213700"
},
"geometry": {
"type": "Point",
"coordinates": [
138.915682137,
36.5084870561
]
}
},
{
"type": "Feature",
"properties": {
"Name": "白井公会堂",
"Jusho": "群馬県渋川市",
"Capacity": "－",
"la": "36.51125872850",
"ln": "139.01351058500"
},
"geometry": {
"type": "Point",
"coordinates": [
139.013510585,
36.5112587285
]
}
},
{
"type": "Feature",
"properties": {
"Name": "コミュニティセンタ－やすらぎ",
"Jusho": "群馬県藤岡市",
"Capacity": "－",
"la": "36.21004600000",
"ln": "139.05152500000"
},
"geometry": {
"type": "Point",
"coordinates": [
139.051525,
36.210046
]
}
},
{
"type": "Feature",
"properties": {
"Name": "みかぼみらい館",
"Jusho": "群馬県藤岡市藤岡2728番地",
"Capacity": "－",
"la": "36.23609800000",
"ln": "139.06865100000"
},
"geometry": {
"type": "Point",
"coordinates": [
139.068651,
36.236098
]
}
},
{
"type": "Feature",
"properties": {
"Name": "みかぼ保育所",
"Jusho": "群馬県藤岡市",
"Capacity": "－",
"la": "36.19160440690",
"ln": "138.98436500500"
},
"geometry": {
"type": "Point",
"coordinates": [
138.984365005,
36.1916044069
]
}
},
{
"type": "Feature",
"properties": {
"Name": "御荷鉾会堂",
"Jusho": "群馬県藤岡市",
"Capacity": "－",
"la": "36.16868443340",
"ln": "138.86970512100"
},
"geometry": {
"type": "Point",
"coordinates": [
138.869705121,
36.1686844334
]
}
},
{
"type": "Feature",
"properties": {
"Name": "三ツ木公会堂",
"Jusho": "群馬県藤岡市三ﾂ木646-2､647",
"Capacity": "－",
"la": "36.25611187070",
"ln": "139.02711215100"
},
"geometry": {
"type": "Point",
"coordinates": [
139.027112151,
36.2561118707
]
}
},
{
"type": "Feature",
"properties": {
"Name": "自然活用管理センター",
"Jusho": "群馬県藤岡市",
"Capacity": "－",
"la": "36.13724939420",
"ln": "139.01088686800"
},
"geometry": {
"type": "Point",
"coordinates": [
139.010886868,
36.1372493942
]
}
},
{
"type": "Feature",
"properties": {
"Name": "小柏公会堂",
"Jusho": "群馬県藤岡市上日野444",
"Capacity": "－",
"la": "36.17892100000",
"ln": "138.93316500000"
},
"geometry": {
"type": "Point",
"coordinates": [
138.933165,
36.178921
]
}
},
{
"type": "Feature",
"properties": {
"Name": "体験学習館",
"Jusho": "群馬県藤岡市",
"Capacity": "－",
"la": "36.14302218690",
"ln": "139.04043700000"
},
"geometry": {
"type": "Point",
"coordinates": [
139.040437,
36.1430221869
]
}
},
{
"type": "Feature",
"properties": {
"Name": "長津公会堂",
"Jusho": "群馬県藤岡市",
"Capacity": "－",
"la": "36.26773600000",
"ln": "139.04185700000"
},
"geometry": {
"type": "Point",
"coordinates": [
139.041857,
36.267736
]
}
},
{
"type": "Feature",
"properties": {
"Name": "藤岡公民館",
"Jusho": "群馬県藤岡市藤岡1639番地5",
"Capacity": "－",
"la": "36.24493599910",
"ln": "139.07930500000"
},
"geometry": {
"type": "Point",
"coordinates": [
139.079305,
36.2449359991
]
}
},
{
"type": "Feature",
"properties": {
"Name": "藤岡高校",
"Jusho": "群馬県藤岡市",
"Capacity": "－",
"la": "36.24292700000",
"ln": "139.07172800000"
},
"geometry": {
"type": "Point",
"coordinates": [
139.071728,
36.242927
]
}
},
{
"type": "Feature",
"properties": {
"Name": "藤岡女子高校",
"Jusho": "群馬県藤岡市",
"Capacity": "－",
"la": "36.25383638530",
"ln": "139.07933235600"
},
"geometry": {
"type": "Point",
"coordinates": [
139.079332356,
36.2538363853
]
}
},
{
"type": "Feature",
"properties": {
"Name": "藤岡北高校",
"Jusho": "群馬県藤岡市",
"Capacity": "－",
"la": "36.25795299910",
"ln": "139.06625600000"
},
"geometry": {
"type": "Point",
"coordinates": [
139.066256,
36.2579529991
]
}
},
{
"type": "Feature",
"properties": {
"Name": "奈良山公民館",
"Jusho": "群馬県藤岡市",
"Capacity": "－",
"la": "36.17638390220",
"ln": "138.90766653200"
},
"geometry": {
"type": "Point",
"coordinates": [
138.907666532,
36.1763839022
]
}
},
{
"type": "Feature",
"properties": {
"Name": "日野公民館",
"Jusho": "群馬県藤岡市日野2271-3",
"Capacity": "－",
"la": "36.19360200000",
"ln": "138.98940400000"
},
"geometry": {
"type": "Point",
"coordinates": [
138.989404,
36.193602
]
}
},
{
"type": "Feature",
"properties": {
"Name": "白石公民館",
"Jusho": "群馬県藤岡市白石757",
"Capacity": "－",
"la": "36.24898200000",
"ln": "139.03376500000"
},
"geometry": {
"type": "Point",
"coordinates": [
139.033765,
36.248982
]
}
},
{
"type": "Feature",
"properties": {
"Name": "美九里公民館",
"Jusho": "群馬県藤岡市神田940番地1",
"Capacity": "－",
"la": "36.21374700000",
"ln": "139.06776100000"
},
"geometry": {
"type": "Point",
"coordinates": [
139.067761,
36.213747
]
}
},
{
"type": "Feature",
"properties": {
"Name": "法久集会所",
"Jusho": "群馬県藤岡市",
"Capacity": "－",
"la": "36.13337194420",
"ln": "138.97126316500"
},
"geometry": {
"type": "Point",
"coordinates": [
138.971263165,
36.1333719442
]
}
},
{
"type": "Feature",
"properties": {
"Name": "ＪＡ甘楽富岡ヴァンヴェール",
"Jusho": "群馬県富岡市富岡2638番地1",
"Capacity": "150",
"la": "36.26161800000",
"ln": "138.90598900000"
},
"geometry": {
"type": "Point",
"coordinates": [
138.905989,
36.261618
]
}
},
{
"type": "Feature",
"properties": {
"Name": "かぶら健康センターかのさと",
"Jusho": "群馬県富岡市",
"Capacity": "150",
"la": "36.24010557920",
"ln": "138.84079083000"
},
"geometry": {
"type": "Point",
"coordinates": [
138.84079083,
36.2401055792
]
}
},
{
"type": "Feature",
"properties": {
"Name": "一ノ宮公民館",
"Jusho": "群馬県富岡市一ﾉ宮1702番地",
"Capacity": "50",
"la": "36.25145402700",
"ln": "138.85950380100"
},
"geometry": {
"type": "Point",
"coordinates": [
138.859503801,
36.251454027
]
}
},
{
"type": "Feature",
"properties": {
"Name": "一ノ宮体育館",
"Jusho": "群馬県富岡市",
"Capacity": "150",
"la": "36.25147683930",
"ln": "138.85877128300"
},
"geometry": {
"type": "Point",
"coordinates": [
138.858771283,
36.2514768393
]
}
},
{
"type": "Feature",
"properties": {
"Name": "額部公民館",
"Jusho": "群馬県富岡市南後箇1183番地",
"Capacity": "50",
"la": "36.23314900000",
"ln": "138.87250500000"
},
"geometry": {
"type": "Point",
"coordinates": [
138.872505,
36.233149
]
}
},
{
"type": "Feature",
"properties": {
"Name": "吉田公民館",
"Jusho": "群馬県富岡市中沢183番地",
"Capacity": "50",
"la": "36.23907900000",
"ln": "138.81416600000"
},
"geometry": {
"type": "Point",
"coordinates": [
138.814166,
36.239079
]
}
},
{
"type": "Feature",
"properties": {
"Name": "勤労者会館",
"Jusho": "群馬県富岡市",
"Capacity": "80",
"la": "36.25282500000",
"ln": "138.89959600000"
},
"geometry": {
"type": "Point",
"coordinates": [
138.899596,
36.252825
]
}
},
{
"type": "Feature",
"properties": {
"Name": "勤労青少年ホーム（ウィングプラザ）",
"Jusho": "群馬県富岡市",
"Capacity": "80",
"la": "36.25697399910",
"ln": "138.92019000000"
},
"geometry": {
"type": "Point",
"coordinates": [
138.92019,
36.2569739991
]
}
},
{
"type": "Feature",
"properties": {
"Name": "県立富岡高等学校体育館",
"Jusho": "群馬県富岡市七日市1425－",
"Capacity": "200",
"la": "36.25653499910",
"ln": "138.87449700000"
},
"geometry": {
"type": "Point",
"coordinates": [
138.874497,
36.2565349991
]
}
},
{
"type": "Feature",
"properties": {
"Name": "県立富岡実業高等学校体育館",
"Jusho": "群馬県富岡市富岡451",
"Capacity": "200",
"la": "36.25089699910",
"ln": "138.89669000000"
},
"geometry": {
"type": "Point",
"coordinates": [
138.89669,
36.2508969991
]
}
},
{
"type": "Feature",
"properties": {
"Name": "県立富岡東高等学校体育館",
"Jusho": "群馬県富岡市富岡118-6",
"Capacity": "200",
"la": "36.25389600000",
"ln": "138.89405100000"
},
"geometry": {
"type": "Point",
"coordinates": [
138.894051,
36.253896
]
}
},
{
"type": "Feature",
"properties": {
"Name": "高瀬公民館",
"Jusho": "群馬県富岡市中高瀬815番地",
"Capacity": "50",
"la": "36.24505100000",
"ln": "138.87838400000"
},
"geometry": {
"type": "Point",
"coordinates": [
138.878384,
36.245051
]
}
},
{
"type": "Feature",
"properties": {
"Name": "市民体育館",
"Jusho": "群馬県富岡市上黒岩1377番地1",
"Capacity": "1000",
"la": "36.27122000000",
"ln": "138.86827500000"
},
"geometry": {
"type": "Point",
"coordinates": [
138.868275,
36.27122
]
}
},
{
"type": "Feature",
"properties": {
"Name": "七日市公民館",
"Jusho": "群馬県富岡市七日市756番地1",
"Capacity": "80",
"la": "36.25871600000",
"ln": "138.88006600000"
},
"geometry": {
"type": "Point",
"coordinates": [
138.880066,
36.258716
]
}
},
{
"type": "Feature",
"properties": {
"Name": "小野公民館",
"Jusho": "群馬県富岡市白岩608番地6",
"Capacity": "50",
"la": "36.28480700000",
"ln": "138.92120300000"
},
"geometry": {
"type": "Point",
"coordinates": [
138.921203,
36.284807
]
}
},
{
"type": "Feature",
"properties": {
"Name": "菅原町公会堂",
"Jusho": "群馬県富岡市妙義町菅原1472番地7",
"Capacity": "30",
"la": "36.26883202990",
"ln": "138.76602797600"
},
"geometry": {
"type": "Point",
"coordinates": [
138.766027976,
36.2688320299
]
}
},
{
"type": "Feature",
"properties": {
"Name": "生涯学習センター",
"Jusho": "群馬県富岡市七日市400－",
"Capacity": "150",
"la": "36.26381500000",
"ln": "138.88032200000"
},
"geometry": {
"type": "Point",
"coordinates": [
138.880322,
36.263815
]
}
},
{
"type": "Feature",
"properties": {
"Name": "西毛自動車教習所",
"Jusho": "群馬県富岡市下黒岩849番地4",
"Capacity": "50",
"la": "36.27776100000",
"ln": "138.89144827300"
},
"geometry": {
"type": "Point",
"coordinates": [
138.891448273,
36.277761
]
}
},
{
"type": "Feature",
"properties": {
"Name": "東富岡公民館",
"Jusho": "群馬県富岡市曽木119番地",
"Capacity": "50",
"la": "36.25886734820",
"ln": "138.90883157600"
},
"geometry": {
"type": "Point",
"coordinates": [
138.908831576,
36.2588673482
]
}
},
{
"type": "Feature",
"properties": {
"Name": "内匠公会堂",
"Jusho": "群馬県富岡市内匠317番地",
"Capacity": "50",
"la": "36.24550700000",
"ln": "138.89961300000"
},
"geometry": {
"type": "Point",
"coordinates": [
138.899613,
36.245507
]
}
},
{
"type": "Feature",
"properties": {
"Name": "富岡公民館",
"Jusho": "群馬県富岡市富岡1775番地2",
"Capacity": "80",
"la": "36.26009600000",
"ln": "138.89476800000"
},
"geometry": {
"type": "Point",
"coordinates": [
138.894768,
36.260096
]
}
},
{
"type": "Feature",
"properties": {
"Name": "妙義児童館",
"Jusho": "群馬県富岡市",
"Capacity": "100",
"la": "36.28851100000",
"ln": "138.78337400000"
},
"geometry": {
"type": "Point",
"coordinates": [
138.783374,
36.288511
]
}
},
{
"type": "Feature",
"properties": {
"Name": "妙義中央公民館",
"Jusho": "群馬県富岡市妙義町上高田1195番地1",
"Capacity": "100",
"la": "36.28622900000",
"ln": "138.81683800000"
},
"geometry": {
"type": "Point",
"coordinates": [
138.816838,
36.286229
]
}
},
{
"type": "Feature",
"properties": {
"Name": "妙義庁舎",
"Jusho": "群馬県富岡市妙義町上高岡1206",
"Capacity": "200",
"la": "36.28634900000",
"ln": "138.81629800000"
},
"geometry": {
"type": "Point",
"coordinates": [
138.816298,
36.286349
]
}
},
{
"type": "Feature",
"properties": {
"Name": "安中公民館",
"Jusho": "群馬県安中市安中3799",
"Capacity": "－",
"la": "36.32413946870",
"ln": "138.89645886800"
},
"geometry": {
"type": "Point",
"coordinates": [
138.896458868,
36.3241394687
]
}
},
{
"type": "Feature",
"properties": {
"Name": "安中市光陽館",
"Jusho": "群馬県安中市安中4丁目8番32号",
"Capacity": "－",
"la": "36.33290400000",
"ln": "138.90375200000"
},
"geometry": {
"type": "Point",
"coordinates": [
138.903752,
36.332904
]
}
},
{
"type": "Feature",
"properties": {
"Name": "安中市役所",
"Jusho": "群馬県安中市安中1-23－3",
"Capacity": "－",
"la": "36.32629800000",
"ln": "138.88724400000"
},
"geometry": {
"type": "Point",
"coordinates": [
138.887244,
36.326298
]
}
},
{
"type": "Feature",
"properties": {
"Name": "磯部温泉会館",
"Jusho": "群馬県安中市磯部1－2-21",
"Capacity": "－",
"la": "36.30040800000",
"ln": "138.84875600000"
},
"geometry": {
"type": "Point",
"coordinates": [
138.848756,
36.300408
]
}
},
{
"type": "Feature",
"properties": {
"Name": "磯部公民館",
"Jusho": "群馬県安中市磯部4－3-23",
"Capacity": "－",
"la": "36.30531600000",
"ln": "138.86270200000"
},
"geometry": {
"type": "Point",
"coordinates": [
138.862702,
36.305316
]
}
},
{
"type": "Feature",
"properties": {
"Name": "岩野谷公民館",
"Jusho": "群馬県安中市岩井甲617",
"Capacity": "－",
"la": "36.32996300000",
"ln": "138.92766000000"
},
"geometry": {
"type": "Point",
"coordinates": [
138.92766,
36.329963
]
}
},
{
"type": "Feature",
"properties": {
"Name": "県立松井田高等学校",
"Jusho": "群馬県安中市松井田町松井田803－",
"Capacity": "－",
"la": "36.31372900000",
"ln": "138.80479400000"
},
"geometry": {
"type": "Point",
"coordinates": [
138.804794,
36.313729
]
}
},
{
"type": "Feature",
"properties": {
"Name": "原市公民館",
"Jusho": "群馬県安中市原市1441－6",
"Capacity": "－",
"la": "36.31245400000",
"ln": "138.85489600000"
},
"geometry": {
"type": "Point",
"coordinates": [
138.854896,
36.312454
]
}
},
{
"type": "Feature",
"properties": {
"Name": "後閑公民館",
"Jusho": "群馬県安中市中後閑1495",
"Capacity": "－",
"la": "36.33422500000",
"ln": "138.83206700000"
},
"geometry": {
"type": "Point",
"coordinates": [
138.832067,
36.334225
]
}
},
{
"type": "Feature",
"properties": {
"Name": "細野ふるさとセンター",
"Jusho": "群馬県安中市",
"Capacity": "－",
"la": "36.34703076260",
"ln": "138.77698377800"
},
"geometry": {
"type": "Point",
"coordinates": [
138.776983778,
36.3470307626
]
}
},
{
"type": "Feature",
"properties": {
"Name": "市立原市保育所",
"Jusho": "群馬県安中市",
"Capacity": "－",
"la": "36.31011931110",
"ln": "138.84851401000"
},
"geometry": {
"type": "Point",
"coordinates": [
138.84851401,
36.3101193111
]
}
},
{
"type": "Feature",
"properties": {
"Name": "秋間公民館",
"Jusho": "群馬県安中市中秋間1801－",
"Capacity": "－",
"la": "36.35239500000",
"ln": "138.86444400000"
},
"geometry": {
"type": "Point",
"coordinates": [
138.864444,
36.352395
]
}
},
{
"type": "Feature",
"properties": {
"Name": "陣場集落センター",
"Jusho": "群馬県安中市",
"Capacity": "－",
"la": "36.43164399910",
"ln": "139.00357900000"
},
"geometry": {
"type": "Point",
"coordinates": [
139.003579,
36.4316439991
]
}
},
{
"type": "Feature",
"properties": {
"Name": "中央体育館",
"Jusho": "群馬県安中市",
"Capacity": "－",
"la": "36.33022019360",
"ln": "138.89367071700"
},
"geometry": {
"type": "Point",
"coordinates": [
138.893670717,
36.3302201936
]
}
},
{
"type": "Feature",
"properties": {
"Name": "東横野公民館",
"Jusho": "群馬県安中市鷺宮3145",
"Capacity": "－",
"la": "36.29789800000",
"ln": "138.87918100000"
},
"geometry": {
"type": "Point",
"coordinates": [
138.879181,
36.297898
]
}
},
{
"type": "Feature",
"properties": {
"Name": "入牧いきがいセンター",
"Jusho": "群馬県安中市",
"Capacity": "－",
"la": "36.32256500000",
"ln": "138.69635700000"
},
"geometry": {
"type": "Point",
"coordinates": [
138.696357,
36.322565
]
}
},
{
"type": "Feature",
"properties": {
"Name": "板鼻公民館",
"Jusho": "群馬県安中市板鼻1-6-20",
"Capacity": "－",
"la": "36.33745406520",
"ln": "138.93012185900"
},
"geometry": {
"type": "Point",
"coordinates": [
138.930121859,
36.3374540652
]
}
},
{
"type": "Feature",
"properties": {
"Name": "ふるさと往来センター",
"Jusho": "群馬県みどり市大間々町塩原435－",
"Capacity": "－",
"la": "36.45906600000",
"ln": "139.26966500000"
},
"geometry": {
"type": "Point",
"coordinates": [
139.269665,
36.459066
]
}
},
{
"type": "Feature",
"properties": {
"Name": "みどり市民体育館",
"Jusho": "群馬県みどり市笠懸町阿左美1714-2",
"Capacity": "－",
"la": "36.39252199910",
"ln": "139.29017300000"
},
"geometry": {
"type": "Point",
"coordinates": [
139.290173,
36.3925219991
]
}
},
{
"type": "Feature",
"properties": {
"Name": "みどり地区高等職業訓練校",
"Jusho": "群馬県みどり市大間々町桐原99-8",
"Capacity": "－",
"la": "36.43118332670",
"ln": "139.27064021500"
},
"geometry": {
"type": "Point",
"coordinates": [
139.270640215,
36.4311833267
]
}
},
{
"type": "Feature",
"properties": {
"Name": "塩原生活改善センター",
"Jusho": "群馬県みどり市大間々町塩原435",
"Capacity": "－",
"la": "36.45945599910",
"ln": "139.26959500000"
},
"geometry": {
"type": "Point",
"coordinates": [
139.269595,
36.4594559991
]
}
},
{
"type": "Feature",
"properties": {
"Name": "花輪１区集会所",
"Jusho": "群馬県みどり市東町花輪132",
"Capacity": "－",
"la": "36.52000358450",
"ln": "139.30695600000"
},
"geometry": {
"type": "Point",
"coordinates": [
139.306956,
36.5200035845
]
}
},
{
"type": "Feature",
"properties": {
"Name": "花輪体育館",
"Jusho": "群馬県みどり市東町花輪191",
"Capacity": "－",
"la": "36.52283467160",
"ln": "139.30952300000"
},
"geometry": {
"type": "Point",
"coordinates": [
139.309523,
36.5228346716
]
}
},
{
"type": "Feature",
"properties": {
"Name": "笠懸公民館",
"Jusho": "群馬県みどり市笠懸町阿左美1581－",
"Capacity": "－",
"la": "36.39023300000",
"ln": "139.29066100000"
},
"geometry": {
"type": "Point",
"coordinates": [
139.290661,
36.390233
]
}
},
{
"type": "Feature",
"properties": {
"Name": "笠懸第１保育園",
"Jusho": "群馬県みどり市笠懸町阿左美3740",
"Capacity": "－",
"la": "36.40394500000",
"ln": "139.29149200000"
},
"geometry": {
"type": "Point",
"coordinates": [
139.291492,
36.403945
]
}
},
{
"type": "Feature",
"properties": {
"Name": "笠懸第２保育園",
"Jusho": "群馬県みどり市笠懸町鹿4643－",
"Capacity": "－",
"la": "36.39036899910",
"ln": "139.27917500000"
},
"geometry": {
"type": "Point",
"coordinates": [
139.279175,
36.3903689991
]
}
},
{
"type": "Feature",
"properties": {
"Name": "笠懸町第１０区公民館",
"Jusho": "群馬県みどり市笠懸町西鹿田798-3",
"Capacity": "－",
"la": "36.40255718350",
"ln": "139.25941608600"
},
"geometry": {
"type": "Point",
"coordinates": [
139.259416086,
36.4025571835
]
}
},
{
"type": "Feature",
"properties": {
"Name": "笠懸町第１区公民館",
"Jusho": "群馬県みどり市笠懸町阿左美3196-6",
"Capacity": "－",
"la": "36.39082799910",
"ln": "139.31328100000"
},
"geometry": {
"type": "Point",
"coordinates": [
139.313281,
36.3908279991
]
}
},
{
"type": "Feature",
"properties": {
"Name": "笠懸町第２区公民館",
"Jusho": "群馬県みどり市笠懸町阿左美410-8",
"Capacity": "－",
"la": "36.38179299910",
"ln": "139.29936100000"
},
"geometry": {
"type": "Point",
"coordinates": [
139.299361,
36.3817929991
]
}
},
{
"type": "Feature",
"properties": {
"Name": "笠懸町第３区公民館",
"Jusho": "群馬県みどり市笠懸町阿左美1430-5",
"Capacity": "－",
"la": "36.38953099910",
"ln": "139.30040700000"
},
"geometry": {
"type": "Point",
"coordinates": [
139.300407,
36.3895309991
]
}
},
{
"type": "Feature",
"properties": {
"Name": "笠懸町第４区公民館",
"Jusho": "群馬県みどり市笠懸町阿左美2220-2",
"Capacity": "－",
"la": "36.40284400000",
"ln": "139.29441700000"
},
"geometry": {
"type": "Point",
"coordinates": [
139.294417,
36.402844
]
}
},
{
"type": "Feature",
"properties": {
"Name": "笠懸町第５区公民館",
"Jusho": "群馬県みどり市笠懸町阿左美3631－",
"Capacity": "－",
"la": "36.40069000000",
"ln": "139.28872000000"
},
"geometry": {
"type": "Point",
"coordinates": [
139.28872,
36.40069
]
}
},
{
"type": "Feature",
"properties": {
"Name": "笠懸町第６区公民館",
"Jusho": "群馬県みどり市笠懸町久宮330",
"Capacity": "－",
"la": "36.37546399910",
"ln": "139.28321100000"
},
"geometry": {
"type": "Point",
"coordinates": [
139.283211,
36.3754639991
]
}
},
{
"type": "Feature",
"properties": {
"Name": "笠懸町第７区公民館",
"Jusho": "群馬県みどり市笠懸町鹿385－",
"Capacity": "－",
"la": "36.39124099910",
"ln": "139.28264800000"
},
"geometry": {
"type": "Point",
"coordinates": [
139.282648,
36.3912409991
]
}
},
{
"type": "Feature",
"properties": {
"Name": "笠懸町第８区公民館",
"Jusho": "群馬県みどり市笠懸町鹿2693",
"Capacity": "－",
"la": "36.40062050600",
"ln": "139.27164358900"
},
"geometry": {
"type": "Point",
"coordinates": [
139.271643589,
36.400620506
]
}
},
{
"type": "Feature",
"properties": {
"Name": "笠懸町第９区公民館",
"Jusho": "群馬県みどり市笠懸町鹿3736－",
"Capacity": "－",
"la": "36.38989898090",
"ln": "139.27320175600"
},
"geometry": {
"type": "Point",
"coordinates": [
139.273201756,
36.3898989809
]
}
},
{
"type": "Feature",
"properties": {
"Name": "笠懸幼稚園",
"Jusho": "群馬県みどり市笠懸町鹿4590-2",
"Capacity": "－",
"la": "36.38822500000",
"ln": "139.27945100000"
},
"geometry": {
"type": "Point",
"coordinates": [
139.279451,
36.388225
]
}
},
{
"type": "Feature",
"properties": {
"Name": "関東開発株式会社桐生競艇場",
"Jusho": "群馬県みどり市笠懸町阿左美2887",
"Capacity": "－",
"la": "36.39669385380",
"ln": "139.30809904300"
},
"geometry": {
"type": "Point",
"coordinates": [
139.308099043,
36.3966938538
]
}
},
{
"type": "Feature",
"properties": {
"Name": "厚生会館",
"Jusho": "群馬県みどり市大間々町桐原81-2",
"Capacity": "－",
"la": "36.42991200000",
"ln": "139.26989900000"
},
"geometry": {
"type": "Point",
"coordinates": [
139.269899,
36.429912
]
}
},
{
"type": "Feature",
"properties": {
"Name": "高齢者生活福祉センター",
"Jusho": "群馬県みどり市東町花輪114-3",
"Capacity": "－",
"la": "36.51945399910",
"ln": "139.30623700000"
},
"geometry": {
"type": "Point",
"coordinates": [
139.306237,
36.5194539991
]
}
},
{
"type": "Feature",
"properties": {
"Name": "神戸生活改善センター",
"Jusho": "群馬県みどり市東町神戸556-4",
"Capacity": "－",
"la": "36.53959700000",
"ln": "139.35188000000"
},
"geometry": {
"type": "Point",
"coordinates": [
139.35188,
36.539597
]
}
},
{
"type": "Feature",
"properties": {
"Name": "青年研修センター",
"Jusho": "群馬県みどり市東町座間26－",
"Capacity": "－",
"la": "36.53514500000",
"ln": "139.35944300000"
},
"geometry": {
"type": "Point",
"coordinates": [
139.359443,
36.535145
]
}
},
{
"type": "Feature",
"properties": {
"Name": "赤城保育園",
"Jusho": "群馬県みどり市大間々町大間－180",
"Capacity": "－",
"la": "36.44346800000",
"ln": "139.27595100000"
},
"geometry": {
"type": "Point",
"coordinates": [
139.275951,
36.443468
]
}
},
{
"type": "Feature",
"properties": {
"Name": "大間々町５丁目クラブ",
"Jusho": "群馬県みどり市大間々町大間々1496-7",
"Capacity": "－",
"la": "36.43240900000",
"ln": "139.27363400000"
},
"geometry": {
"type": "Point",
"coordinates": [
139.273634,
36.432409
]
}
},
{
"type": "Feature",
"properties": {
"Name": "大間々町塩原公民館",
"Jusho": "群馬県みどり市大間々町塩原434",
"Capacity": "－",
"la": "36.45924599910",
"ln": "139.26947800000"
},
"geometry": {
"type": "Point",
"coordinates": [
139.269478,
36.4592459991
]
}
},
{
"type": "Feature",
"properties": {
"Name": "大間々町第１０区公民館",
"Jusho": "群馬県みどり市大間々町桐原525－",
"Capacity": "－",
"la": "36.43991000000",
"ln": "139.27207600000"
},
"geometry": {
"type": "Point",
"coordinates": [
139.272076,
36.43991
]
}
},
{
"type": "Feature",
"properties": {
"Name": "大間々町第１１区公民館",
"Jusho": "群馬県みどり市大間々町桐原991－",
"Capacity": "－",
"la": "36.44567200000",
"ln": "139.27354200000"
},
"geometry": {
"type": "Point",
"coordinates": [
139.273542,
36.445672
]
}
},
{
"type": "Feature",
"properties": {
"Name": "大間々町第１２区公民館",
"Jusho": "群馬県みどり市大間々町桐原1040－",
"Capacity": "－",
"la": "36.44740500000",
"ln": "139.27749900000"
},
"geometry": {
"type": "Point",
"coordinates": [
139.277499,
36.447405
]
}
},
{
"type": "Feature",
"properties": {
"Name": "大間々町第１３区集会所",
"Jusho": "群馬県みどり市大間々町大間々1955-2",
"Capacity": "－",
"la": "36.42311900000",
"ln": "139.29008200000"
},
"geometry": {
"type": "Point",
"coordinates": [
139.290082,
36.423119
]
}
},
{
"type": "Feature",
"properties": {
"Name": "大間々町第１４区集会所",
"Jusho": "群馬県みどり市大間々町高津戸559-5",
"Capacity": "－",
"la": "36.43447800000",
"ln": "139.28649700000"
},
"geometry": {
"type": "Point",
"coordinates": [
139.286497,
36.434478
]
}
},
{
"type": "Feature",
"properties": {
"Name": "大間々町第１６区集会所",
"Jusho": "群馬県みどり市大間々町塩原616－",
"Capacity": "－",
"la": "36.46349800000",
"ln": "139.26291100000"
},
"geometry": {
"type": "Point",
"coordinates": [
139.262911,
36.463498
]
}
},
{
"type": "Feature",
"properties": {
"Name": "大間々町第１区公民館",
"Jusho": "群馬県みどり市大間々町大間々1196",
"Capacity": "－",
"la": "36.44044200000",
"ln": "139.27935700000"
},
"geometry": {
"type": "Point",
"coordinates": [
139.279357,
36.440442
]
}
},
{
"type": "Feature",
"properties": {
"Name": "大間々町第２６区公民館",
"Jusho": "群馬県みどり市大間々町上神梅68－",
"Capacity": "－",
"la": "36.46806197970",
"ln": "139.25489995000"
},
"geometry": {
"type": "Point",
"coordinates": [
139.25489995,
36.4680619797
]
}
},
{
"type": "Feature",
"properties": {
"Name": "大間々町第２６区集会所",
"Jusho": "群馬県みどり市大間々町上神梅68－0",
"Capacity": "－",
"la": "36.46819610850",
"ln": "139.25514600000"
},
"geometry": {
"type": "Point",
"coordinates": [
139.255146,
36.4681961085
]
}
},