var o={
"type":"FeatureCollection",
"features":[
{
"type":"Feature",
"properties":{
"Name":"リフレスおおむた",
"Jusho":"福岡県大牟田市",
"Capacity":"－",
"la":"33.07417799910",
"ln":"130.53503500000"
},
"geometry":{
"type":"Point",
"coordinates":[
130.535035,
33.0741779991
]
}
},
{
"type":"Feature",
"properties":{
"Name":"吉野地区公民館",
"Jusho":"福岡県大牟田市大字白銀781番地3",
"Capacity":"－",
"la":"33.07292000000",
"ln":"130.48335600000"
},
"geometry":{
"type":"Point",
"coordinates":[
130.483356,
33.07292
]
}
},
{
"type":"Feature",
"properties":{
"Name":"三川地区公民館",
"Jusho":"福岡県大牟田市上屋敷町1丁目12番地3",
"Capacity":"－",
"la":"33.01174999910",
"ln":"130.43323000000"
},
"geometry":{
"type":"Point",
"coordinates":[
130.43323,
33.0117499991
]
}
},
{
"type":"Feature",
"properties":{
"Name":"三池地区公民館",
"Jusho":"福岡県大牟田市大字三池629番地2",
"Capacity":"－",
"la":"33.04640300000",
"ln":"130.47913000000"
},
"geometry":{
"type":"Point",
"coordinates":[
130.47913,
33.046403
]
}
},
{
"type":"Feature",
"properties":{
"Name":"市民体育館",
"Jusho":"福岡県大牟田市",
"Capacity":"－",
"la":"33.02212100000",
"ln":"130.44586800000"
},
"geometry":{
"type":"Point",
"coordinates":[
130.445868,
33.022121
]
}
},
{
"type":"Feature",
"properties":{
"Name":"手鎌地区公民館",
"Jusho":"福岡県大牟田市大字手鎌1300-42",
"Capacity":"－",
"la":"33.05462100000",
"ln":"130.45140300000"
},
"geometry":{
"type":"Point",
"coordinates":[
130.451403,
33.054621
]
}
},
{
"type":"Feature",
"properties":{
"Name":"勝立地区公民館",
"Jusho":"福岡県大牟田市新勝立町4－－",
"Capacity":"－",
"la":"33.01342500000",
"ln":"130.47511400000"
},
"geometry":{
"type":"Point",
"coordinates":[
130.475114,
33.013425
]
}
},
{
"type":"Feature",
"properties":{
"Name":"第二市民体育館（旧大牟田南高校）",
"Jusho":"福岡県大牟田市",
"Capacity":"－",
"la":"33.02110000000",
"ln":"130.44790000000"
},
"geometry":{
"type":"Point",
"coordinates":[
130.4479,
33.0211
]
}
},
{
"type":"Feature",
"properties":{
"Name":"中央地区公民館",
"Jusho":"福岡県大牟田市",
"Capacity":"－",
"la":"33.02455200000",
"ln":"130.44654100000"
},
"geometry":{
"type":"Point",
"coordinates":[
130.446541,
33.024552
]
}
},
{
"type":"Feature",
"properties":{
"Name":"駛馬地区公民館",
"Jusho":"福岡県大牟田市馬込町1-20－",
"Capacity":"－",
"la":"33.01133900000",
"ln":"130.45188200000"
},
"geometry":{
"type":"Point",
"coordinates":[
130.451882,
33.011339
]
}
},
{
"type":"Feature",
"properties":{
"Name":"えーるピア久留米",
"Jusho":"福岡県久留米市諏訪野町1830-6",
"Capacity":"470",
"la":"33.30609900000",
"ln":"130.52299100000"
},
"geometry":{
"type":"Point",
"coordinates":[
130.522991,
33.306099
]
}
},
{
"type":"Feature",
"properties":{
"Name":"くるめウス",
"Jusho":"福岡県久留米市新合川1－-3",
"Capacity":"40",
"la":"33.32274200000",
"ln":"130.53595200000"
},
"geometry":{
"type":"Point",
"coordinates":[
130.535952,
33.322742
]
}
},
{
"type":"Feature",
"properties":{
"Name":"コミュニティセンター高良内会館",
"Jusho":"福岡県久留米市高良内町606－",
"Capacity":"270",
"la":"33.29234000000",
"ln":"130.56154800000"
},
"geometry":{
"type":"Point",
"coordinates":[
130.561548,
33.29234
]
}
},
{
"type":"Feature",
"properties":{
"Name":"コミュニティセンター上津校区会館",
"Jusho":"福岡県久留米市上津町2201－",
"Capacity":"160",
"la":"33.27957700000",
"ln":"130.53544400000"
},
"geometry":{
"type":"Point",
"coordinates":[
130.535444,
33.279577
]
}
},
{
"type":"Feature",
"properties":{
"Name":"そよ風ホール",
"Jusho":"福岡県久留米市田主丸町田主丸770－",
"Capacity":"500",
"la":"33.33849000000",
"ln":"130.68626700000"
},
"geometry":{
"type":"Point",
"coordinates":[
130.686267,
33.33849
]
}
},
{
"type":"Feature",
"properties":{
"Name":"ふれあいセンター",
"Jusho":"福岡県久留米市城島町浜293",
"Capacity":"300",
"la":"33.26742799910",
"ln":"130.43267300000"
},
"geometry":{
"type":"Point",
"coordinates":[
130.432673,
33.2674279991
]
}
},
{
"type":"Feature",
"properties":{
"Name":"みづま総合体育館",
"Jusho":"福岡県久留米市三潴町玉満2593－",
"Capacity":"730",
"la":"33.25154200000",
"ln":"130.46674700000"
},
"geometry":{
"type":"Point",
"coordinates":[
130.466747,
33.251542
]
}
},
{
"type":"Feature",
"properties":{
"Name":"安武校区コミュニティセンター",
"Jusho":"福岡県久留米市安武町武島808",
"Capacity":"80",
"la":"33.29204400000",
"ln":"130.47399900000"
},
"geometry":{
"type":"Point",
"coordinates":[
130.473999,
33.292044
]
}
},
{
"type":"Feature",
"properties":{
"Name":"久留米商業高等学校",
"Jusho":"福岡県久留米市南1丁目1－",
"Capacity":"1080",
"la":"33.29355600000",
"ln":"130.51368200000"
},
"geometry":{
"type":"Point",
"coordinates":[
130.513682,
33.293556
]
}
},
{
"type":"Feature",
"properties":{
"Name":"久留米第一自動車学校",
"Jusho":"福岡県久留米市山本町豊田1358－",
"Capacity":"100",
"la":"33.31669000000",
"ln":"130.59217000000"
},
"geometry":{
"type":"Point",
"coordinates":[
130.59217,
33.31669
]
}
},
{
"type":"Feature",
"properties":{
"Name":"久留米筑水高等学校",
"Jusho":"福岡県久留米市山川町1493",
"Capacity":"830",
"la":"33.31359800000",
"ln":"130.57099600000"
},
"geometry":{
"type":"Point",
"coordinates":[
130.570996,
33.313598
]
}
},
{
"type":"Feature",
"properties":{
"Name":"宮ノ陣校区コミュニティセンター",
"Jusho":"福岡県久留米市宮ノ陣町大杜434-2",
"Capacity":"160",
"la":"33.33627500000",
"ln":"130.54634300000"
},
"geometry":{
"type":"Point",
"coordinates":[
130.546343,
33.336275
]
}
},
{
"type":"Feature",
"properties":{
"Name":"京町校区コミュニティセンター",
"Jusho":"福岡県久留米市大石町143",
"Capacity":"190",
"la":"33.31681399910",
"ln":"130.49768600000"
},
"geometry":{
"type":"Point",
"coordinates":[
130.497686,
33.3168139991
]
}
},
{
"type":"Feature",
"properties":{
"Name":"勤労青少年ホーム",
"Jusho":"福岡県久留米市田主丸町常盤1111－",
"Capacity":"320",
"la":"33.34872800000",
"ln":"130.69173900000"
},
"geometry":{
"type":"Point",
"coordinates":[
130.691739,
33.348728
]
}
},
{
"type":"Feature",
"properties":{
"Name":"金丸校区コミュニティセンター",
"Jusho":"福岡県久留米市原古賀町28-2",
"Capacity":"100",
"la":"33.30869500000",
"ln":"130.51165800000"
},
"geometry":{
"type":"Point",
"coordinates":[
130.511658,
33.308695
]
}
},
{
"type":"Feature",
"properties":{
"Name":"御井校区コミュニティセンター",
"Jusho":"福岡県久留米市御井町1600-4",
"Capacity":"120",
"la":"33.30485000000",
"ln":"130.55350600000"
},
"geometry":{
"type":"Point",
"coordinates":[
130.553506,
33.30485
]
}
},
{
"type":"Feature",
"properties":{
"Name":"荒木校区コミュニティセンター",
"Jusho":"福岡県久留米市荒木町荒木1486",
"Capacity":"240",
"la":"33.27024900000",
"ln":"130.50125800000"
},
"geometry":{
"type":"Point",
"coordinates":[
130.501258,
33.270249
]
}
},
{
"type":"Feature",
"properties":{
"Name":"合川校区コミュニティセンター",
"Jusho":"福岡県久留米市合川町354－",
"Capacity":"150",
"la":"33.31452300000",
"ln":"130.54124300000"
},
"geometry":{
"type":"Point",
"coordinates":[
130.541243,
33.314523
]
}
},
{
"type":"Feature",
"properties":{
"Name":"国分教育集会所",
"Jusho":"福岡県久留米市御井町2053－",
"Capacity":"40",
"la":"33.29832499910",
"ln":"130.54820100000"
},
"geometry":{
"type":"Point",
"coordinates":[
130.548201,
33.2983249991
]
}
},
{
"type":"Feature",
"properties":{
"Name":"三潴公民館",
"Jusho":"福岡県久留米市三潴町玉満2949－",
"Capacity":"200",
"la":"33.25226100000",
"ln":"130.46530600000"
},
"geometry":{
"type":"Point",
"coordinates":[
130.465306,
33.252261
]
}
},
{
"type":"Feature",
"properties":{
"Name":"三潴総合支所",
"Jusho":"福岡県久留米市三潴町玉満2779－",
"Capacity":"100",
"la":"33.25646900000",
"ln":"130.46698900000"
},
"geometry":{
"type":"Point",
"coordinates":[
130.466989,
33.256469
]
}
},
{
"type":"Feature",
"properties":{
"Name":"山川校区コミュニティセンター",
"Jusho":"福岡県久留米市山川追分2丁目10－6",
"Capacity":"150",
"la":"33.31367400000",
"ln":"130.56893800000"
},
"geometry":{
"type":"Point",
"coordinates":[
130.568938,
33.313674
]
}
},
{
"type":"Feature",
"properties":{
"Name":"山本校区コミュニティセンター",
"Jusho":"福岡県久留米市山本町耳納79-2",
"Capacity":"120",
"la":"33.31025500000",
"ln":"130.59649500000"
},
"geometry":{
"type":"Point",
"coordinates":[
130.596495,
33.310255
]
}
},
{
"type":"Feature",
"properties":{
"Name":"市役所",
"Jusho":"福岡県久留米市城南町15-3",
"Capacity":"500",
"la":"33.31929100000",
"ln":"130.50838900000"
},
"geometry":{
"type":"Point",
"coordinates":[
130.508389,
33.319291
]
}
},
{
"type":"Feature",
"properties":{
"Name":"耳納市民センター多目的棟",
"Jusho":"福岡県久留米市善導寺町飯田202－",
"Capacity":"300",
"la":"33.32345400000",
"ln":"130.61242300000"
},
"geometry":{
"type":"Point",
"coordinates":[
130.612423,
33.323454
]
}
},
{
"type":"Feature",
"properties":{
"Name":"篠山コミュニティセンター",
"Jusho":"福岡県久留米市城南町22-28",
"Capacity":"65",
"la":"33.32049200000",
"ln":"130.50965900000"
},
"geometry":{
"type":"Point",
"coordinates":[
130.509659,
33.320492
]
}
},
{
"type":"Feature",
"properties":{
"Name":"小森野校区コミュニティセンター",
"Jusho":"福岡県久留米市小森野6丁目3-46",
"Capacity":"200",
"la":"33.33965800000",
"ln":"130.51842600000"
},
"geometry":{
"type":"Point",
"coordinates":[
130.518426,
33.339658
]
}
},
{
"type":"Feature",
"properties":{
"Name":"城島げんきかん",
"Jusho":"福岡県久留米市城島町楢津739－",
"Capacity":"300",
"la":"33.25287700000",
"ln":"130.42614200000"
},
"geometry":{
"type":"Point",
"coordinates":[
130.426142,
33.252877
]
}
},
{
"type":"Feature",
"properties":{
"Name":"城島コミニュティセンター",
"Jusho":"福岡県久留米市城島町城島438－",
"Capacity":"100",
"la":"33.25850454820",
"ln":"130.42653823000"
},
"geometry":{
"type":"Point",
"coordinates":[
130.42653823,
33.2585045482
]
}
},
{
"type":"Feature",
"properties":{
"Name":"城島体育館",
"Jusho":"福岡県久留米市城島町楢津1468",
"Capacity":"1000",
"la":"33.25104400000",
"ln":"130.42092500000"
},
"geometry":{
"type":"Point",
"coordinates":[
130.420925,
33.251044
]
}
},
{
"type":"Feature",
"properties":{
"Name":"聖マリア学院体育館",
"Jusho":"福岡県久留米市津福本町422",
"Capacity":"260",
"la":"33.30536000000",
"ln":"130.50831100000"
},
"geometry":{
"type":"Point",
"coordinates":[
130.508311,
33.30536
]
}
},
{
"type":"Feature",
"properties":{
"Name":"西国分校区コミュニティセンター",
"Jusho":"福岡県久留米市諏訪野町1562－",
"Capacity":"130",
"la":"33.30190200000",
"ln":"130.52836300000"
},
"geometry":{
"type":"Point",
"coordinates":[
130.528363,
33.301902
]
}
},
{
"type":"Feature",
"properties":{
"Name":"西町教育集会所",
"Jusho":"福岡県久留米市西町1476",
"Capacity":"50",
"la":"33.30961300000",
"ln":"130.51808200000"
},
"geometry":{
"type":"Point",
"coordinates":[
130.518082,
33.309613
]
}
},
{
"type":"Feature",
"properties":{
"Name":"西部地区体育館",
"Jusho":"福岡県久留米市大善寺町藤吉434",
"Capacity":"600",
"la":"33.27684315950",
"ln":"130.45514517400"
},
"geometry":{
"type":"Point",
"coordinates":[
130.455145174,
33.2768431595
]
}
},
{
"type":"Feature",
"properties":{
"Name":"青峰校区コミュニティセンター",
"Jusho":"福岡県久留米市青峰2丁目25－2",
"Capacity":"220",
"la":"33.28259299910",
"ln":"130.56180300000"
},
"geometry":{
"type":"Point",
"coordinates":[
130.561803,
33.2825929991
]
}
},
{
"type":"Feature",
"properties":{
"Name":"善導寺コミュニティセンター",
"Jusho":"福岡県久留米市善導寺町飯田424－",
"Capacity":"100",
"la":"33.32484299910",
"ln":"130.60774600000"
},
"geometry":{
"type":"Point",
"coordinates":[
130.607746,
33.3248429991
]
}
},
{
"type":"Feature",
"properties":{
"Name":"善導寺教育集会所",
"Jusho":"福岡県久留米市善道導町木塚1672",
"Capacity":"60",
"la":"33.32256800000",
"ln":"130.59225400000"
},
"geometry":{
"type":"Point",
"coordinates":[
130.592254,
33.322568
]
}
},
{
"type":"Feature",
"properties":{
"Name":"総合福祉センター",
"Jusho":"福岡県久留米市三潴町玉満1790",
"Capacity":"300",
"la":"33.24992600000",
"ln":"130.46609500000"
},
"geometry":{
"type":"Point",
"coordinates":[
130.466095,
33.249926
]
}
},
{
"type":"Feature",
"properties":{
"Name":"総合福祉会館",
"Jusho":"福岡県久留米市長門石1丁目1-32",
"Capacity":"1000",
"la":"33.32706799910",
"ln":"130.49333600000"
},
"geometry":{
"type":"Point",
"coordinates":[
130.493336,
33.3270679991
]
}
},
{
"type":"Feature",
"properties":{
"Name":"総合文化センター",
"Jusho":"福岡県久留米市城島町楢津1－",
"Capacity":"1000",
"la":"33.25298000000",
"ln":"130.42763700000"
},
"geometry":{
"type":"Point",
"coordinates":[
130.427637,
33.25298
]
}
},
{
"type":"Feature",
"properties":{
"Name":"草野教育集会所",
"Jusho":"福岡県久留米市草野町吉木2476-3",
"Capacity":"50",
"la":"33.31486100000",
"ln":"130.62390800000"
},
"geometry":{
"type":"Point",
"coordinates":[
130.623908,
33.314861
]
}
},
{
"type":"Feature",
"properties":{
"Name":"草野校区コミュニティセンター",
"Jusho":"福岡県久留米市草野町矢作506－",
"Capacity":"120",
"la":"33.31719100000",
"ln":"130.63006600000"
},
"geometry":{
"type":"Point",
"coordinates":[
130.630066,
33.317191
]
}
},
{
"type":"Feature",
"properties":{
"Name":"荘島校区コミュニティセンター",
"Jusho":"福岡県久留米市荘島町376－",
"Capacity":"140",
"la":"33.31447800000",
"ln":"130.50277400000"
},
"geometry":{
"type":"Point",
"coordinates":[
130.502774,
33.314478
]
}
},
{
"type":"Feature",
"properties":{
"Name":"荘島体育館",
"Jusho":"福岡県久留米市荘島町11－",
"Capacity":"404",
"la":"33.31486948260",
"ln":"130.50479769800"
},
"geometry":{
"type":"Point",
"coordinates":[
130.504797698,
33.3148694826
]
}
},
{
"type":"Feature",
"properties":{
"Name":"大橋校区コミュニティセンター",
"Jusho":"福岡県久留米市大橋町合楽314－",
"Capacity":"160",
"la":"33.33937300000",
"ln":"130.63512700000"
},
"geometry":{
"type":"Point",
"coordinates":[
130.635127,
33.339373
]
}
},
{
"type":"Feature",
"properties":{
"Name":"大城ますかげセンター",
"Jusho":"福岡県久留米市北野町大城83",
"Capacity":"200",
"la":"33.34782100000",
"ln":"130.60691800000"
},
"geometry":{
"type":"Point",
"coordinates":[
130.606918,
33.347821
]
}
},
{
"type":"Feature",
"properties":{
"Name":"大善寺校区コミュニティセンター",
"Jusho":"福岡県久留米市大善寺町宮本1443-2",
"Capacity":"100",
"la":"33.27685900000",
"ln":"130.47484100000"
},
"geometry":{
"type":"Point",
"coordinates":[
130.474841,
33.276859
]
}
},
{
"type":"Feature",
"properties":{
"Name":"大谷会館",
"Jusho":"福岡県久留米市西町540－",
"Capacity":"500",
"la":"33.30343200000",
"ln":"130.51436400000"
},
"geometry":{
"type":"Point",
"coordinates":[
130.514364,
33.303432
]
}
},
{
"type":"Feature",
"properties":{
"Name":"筑邦市民センター多目的棟",
"Jusho":"福岡県久留米市大善寺町宮本165-6",
"Capacity":"300",
"la":"33.27725100000",
"ln":"130.48848100000"
},
"geometry":{
"type":"Point",
"coordinates":[
130.488481,
33.277251
]
}
},
{
"type":"Feature",
"properties":{
"Name":"長門石コミュニティセンター",
"Jusho":"福岡県久留米市長門石1丁目1-47",
"Capacity":"150",
"la":"33.32758000000",
"ln":"130.49297000000"
},
"geometry":{
"type":"Point",
"coordinates":[
130.49297,
33.32758
]
}
},
{
"type":"Feature",
"properties":{
"Name":"鳥飼校区コミュニティセンター",
"Jusho":"福岡県久留米市梅満町1223－",
"Capacity":"120",
"la":"33.30615700000",
"ln":"130.50251200000"
},
"geometry":{
"type":"Point",
"coordinates":[
130.502512,
33.306157
]
}
},
{
"type":"Feature",
"properties":{
"Name":"津福校区コミュニティセンター",
"Jusho":"福岡県久留米市津福今町472-31",
"Capacity":"120",
"la":"33.29035599910",
"ln":"130.50195700000"
},
"geometry":{
"type":"Point",
"coordinates":[
130.501957,
33.2903559991
]
}
},
{
"type":"Feature",
"properties":{
"Name":"田主丸総合支所",
"Jusho":"福岡県久留米市田主丸町田主丸459－1",
"Capacity":"100",
"la":"33.34347600000",
"ln":"130.69453300000"
},
"geometry":{
"type":"Point",
"coordinates":[
130.694533,
33.343476
]
}
},
{
"type":"Feature",
"properties":{
"Name":"東国分校区コミュニティセンター",
"Jusho":"福岡県久留米市国分町741",
"Capacity":"100",
"la":"33.29496400000",
"ln":"130.53834300000"
},
"geometry":{
"type":"Point",
"coordinates":[
130.538343,
33.294964
]
}
},
{
"type":"Feature",
"properties":{
"Name":"道の駅くるめ",
"Jusho":"福岡県久留米市善導寺町木塚221-33",
"Capacity":"70",
"la":"33.31903700000",
"ln":"130.59426100000"
},
"geometry":{
"type":"Point",
"coordinates":[
130.594261,
33.319037
]
}
},
{
"type":"Feature",
"properties":{
"Name":"南薫校区コミュニティセンター",
"Jusho":"福岡県久留米市通外町58",
"Capacity":"200",
"la":"33.31650900000",
"ln":"130.52657700000"
},
"geometry":{
"type":"Point",
"coordinates":[
130.526577,
33.316509
]
}
},
{
"type":"Feature",
"properties":{
"Name":"南校区コミュニティセンター",
"Jusho":"福岡県久留米市南1丁目2-41",
"Capacity":"140",
"la":"33.29202500000",
"ln":"130.51544500000"
},
"geometry":{
"type":"Point",
"coordinates":[
130.515445,
33.292025
]
}
},
{
"type":"Feature",
"properties":{
"Name":"南筑高等学校",
"Jusho":"福岡県久留米市御井町1360-5",
"Capacity":"500",
"la":"33.31018200000",
"ln":"130.54999700000"
},
"geometry":{
"type":"Point",
"coordinates":[
130.549997,
33.310182
]
}
},
{
"type":"Feature",
"properties":{
"Name":"南部浄化センター",
"Jusho":"福岡県久留米市安武町住吉1900",
"Capacity":"80",
"la":"33.28205450050",
"ln":"130.46242103100"
},
"geometry":{
"type":"Point",
"coordinates":[
130.462421031,
33.2820545005
]
}
},
{
"type":"Feature",
"properties":{
"Name":"日吉校区コミュニティセンター",
"Jusho":"福岡県久留米市日吉町83",
"Capacity":"100",
"la":"33.31465100000",
"ln":"130.51518100000"
},
"geometry":{
"type":"Point",
"coordinates":[
130.515181,
33.314651
]
}
},
{
"type":"Feature",
"properties":{
"Name":"梅満教育集会所",
"Jusho":"福岡県久留米市梅満町451-3",
"Capacity":"50",
"la":"33.31113999910",
"ln":"130.49907400000"
},
"geometry":{
"type":"Point",
"coordinates":[
130.499074,
33.3111399991
]
}
},
{
"type":"Feature",
"properties":{
"Name":"浮島公民館",
"Jusho":"福岡県久留米市城島町浮島388",
"Capacity":"150",
"la":"33.25264600000",
"ln":"130.39826200000"
},
"geometry":{
"type":"Point",
"coordinates":[
130.398262,
33.252646
]
}
},
{
"type":"Feature",
"properties":{
"Name":"北野コスモス館",
"Jusho":"福岡県久留米市北野町高良1706－",
"Capacity":"200",
"la":"33.33272200000",
"ln":"130.57228800000"
},
"geometry":{
"type":"Point",
"coordinates":[
130.572288,
33.332722
]
}
},
{
"type":"Feature",
"properties":{
"Name":"北野ふれあい交流センター",
"Jusho":"福岡県久留米市北野町八重亀139",
"Capacity":"200",
"la":"33.35287100000",
"ln":"130.62150000000"
},
"geometry":{
"type":"Point",
"coordinates":[
130.6215,
33.352871
]
}
},
{
"type":"Feature",
"properties":{
"Name":"北野公民館",
"Jusho":"福岡県久留米市北野町中273－",
"Capacity":"700",
"la":"33.34617600000",
"ln":"130.58455000000"
},
"geometry":{
"type":"Point",
"coordinates":[
130.58455,
33.346176
]
}
},
{
"type":"Feature",
"properties":{
"Name":"明善高等学校",
"Jusho":"福岡県久留米市城南町9－",
"Capacity":"1500",
"la":"33.32190200000",
"ln":"130.50538900000"
},
"geometry":{
"type":"Point",
"coordinates":[
130.505389,
33.321902
]
}
},
{
"type":"Feature",
"properties":{
"Name":"隣保館",
"Jusho":"福岡県久留米市白山町439－9",
"Capacity":"120",
"la":"33.31244500000",
"ln":"130.49901300000"
},
"geometry":{
"type":"Point",
"coordinates":[
130.499013,
33.312445
]
}
},
{
"type":"Feature",
"properties":{
"Name":"老人福祉センター",
"Jusho":"福岡県久留米市田主丸町田主丸749－",
"Capacity":"400",
"la":"33.33812599910",
"ln":"130.68237500000"
},
"geometry":{
"type":"Point",
"coordinates":[
130.682375,
33.3381259991
]
}
},
{
"type":"Feature",
"properties":{
"Name":"大石産業株式会社",
"Jusho":"福岡県直方市",
"Capacity":"－",
"la":"33.76471748220",
"ln":"130.73549217700"
},
"geometry":{
"type":"Point",
"coordinates":[
130.735492177,
33.7647174822
]
}
},
{
"type":"Feature",
"properties":{
"Name":"イオンモール",
"Jusho":"福岡県直方市",
"Capacity":"－",
"la":"33.76871527910",
"ln":"130.74961590000"
},
"geometry":{
"type":"Point",
"coordinates":[
130.7496159,
33.7687152791
]
}
},
{
"type":"Feature",
"properties":{
"Name":"鞍手高等学校（体育館）",
"Jusho":"福岡県直方市山部810番地",
"Capacity":"1130",
"la":"33.74693744580",
"ln":"130.71713549500"
},
"geometry":{
"type":"Point",
"coordinates":[
130.717135495,
33.7469374458
]
}
},
{
"type":"Feature",
"properties":{
"Name":"永満寺公民館",
"Jusho":"福岡県直方市永満寺2088番地",
"Capacity":"80",
"la":"33.73667961270",
"ln":"130.76439300100"
},
"geometry":{
"type":"Point",
"coordinates":[
130.764393001,
33.7366796127
]
}
},
{
"type":"Feature",
"properties":{
"Name":"遠賀川水辺館",
"Jusho":"福岡県直方市溝堀1丁目1番1号",
"Capacity":"117",
"la":"33.74046505610",
"ln":"130.73135614300"
},
"geometry":{
"type":"Point",
"coordinates":[
130.731356143,
33.7404650561
]
}
},
{
"type":"Feature",
"properties":{
"Name":"下境３区公民館",
"Jusho":"福岡県直方市下境3910番地3",
"Capacity":"66",
"la":"33.71985978940",
"ln":"130.73230550500"
},
"geometry":{
"type":"Point",
"coordinates":[
130.732305505,
33.7198597894
]
}
},
{
"type":"Feature",
"properties":{
"Name":"下境４区公民館",
"Jusho":"福岡県直方市下境4114番地",
"Capacity":"50",
"la":"33.72835640180",
"ln":"130.73361814700"
},
"geometry":{
"type":"Point",
"coordinates":[
130.733618147,
33.7283564018
]
}
},
{
"type":"Feature",
"properties":{
"Name":"下境第３集会所",
"Jusho":"福岡県直方市下境3910番地28",
"Capacity":"30",
"la":"33.71829381150",
"ln":"130.72961420000"
},
"geometry":{
"type":"Point",
"coordinates":[
130.7296142,
33.7182938115
]
}
},
{
"type":"Feature",
"properties":{
"Name":"感田第１集会場",
"Jusho":"福岡県直方市感田1472番地4",
"Capacity":"30",
"la":"33.76767781340",
"ln":"130.73274082600"
},
"geometry":{
"type":"Point",
"coordinates":[
130.732740826,
33.7676778134
]
}
},
{
"type":"Feature",
"properties":{
"Name":"願照寺",
"Jusho":"福岡県直方市植木2298番地",
"Capacity":"22",
"la":"33.78722000000",
"ln":"130.69825000000"
},
"geometry":{
"type":"Point",
"coordinates":[
130.69825,
33.78722
]
}
},
{
"type":"Feature",
"properties":{
"Name":"旧筑豊高等学校（体育館）",
"Jusho":"福岡県直方市植木100番地",
"Capacity":"1362",
"la":"33.76538473980",
"ln":"130.70076026600"
},
"geometry":{
"type":"Point",
"coordinates":[
130.700760266,
33.7653847398
]
}
},
{
"type":"Feature",
"properties":{
"Name":"健康福祉課別館",
"Jusho":"福岡県直方市津田町7番20号",
"Capacity":"238",
"la":"33.74714921160",
"ln":"130.73042912800"
},
"geometry":{
"type":"Point",
"coordinates":[
130.730429128,
33.7471492116
]
}
},
{
"type":"Feature",
"properties":{
"Name":"高橋内科クリニック",
"Jusho":"福岡県直方市頓野3803－",
"Capacity":"－",
"la":"33.74894640000",
"ln":"130.73627930000"
},
"geometry":{
"type":"Point",
"coordinates":[
130.7362793,
33.7489464
]
}
},
{
"type":"Feature",
"properties":{
"Name":"指定障害者支援施設鷹取学園",
"Jusho":"福岡県直方市下境336－1",
"Capacity":"－",
"la":"33.73328707090",
"ln":"130.75405211600"
},
"geometry":{
"type":"Point",
"coordinates":[
130.754052116,
33.7332870709
]
}
},
{
"type":"Feature",
"properties":{
"Name":"社会福祉法人薫風会たかみ学園",
"Jusho":"福岡県直方市上境385",
"Capacity":"－",
"la":"33.72270000000",
"ln":"130.75716700000"
},
"geometry":{
"type":"Point",
"coordinates":[
130.757167,
33.7227
]
}
},
{
"type":"Feature",
"properties":{
"Name":"社会福祉法人緑樹会",
"Jusho":"福岡県直方市上頓野4599－",
"Capacity":"－",
"la":"33.77270600000",
"ln":"130.76802000000"
},
"geometry":{
"type":"Point",
"coordinates":[
130.76802,
33.772706
]
}
},
{
"type":"Feature",
"properties":{
"Name":"社会福祉法人鈴の音会指定障害者支援施設あおばの里",
"Jusho":"福岡県直方市頓野627－",
"Capacity":"－",
"la":"33.75181900000",
"ln":"130.76083700000"
},
"geometry":{
"type":"Point",
"coordinates":[
130.760837,
33.751819
]
}
},
{
"type":"Feature",
"properties":{
"Name":"社会保険筑豊病院",
"Jusho":"福岡県直方市山部765－",
"Capacity":"－",
"la":"33.74285402000",
"ln":"130.72013353000"
},
"geometry":{
"type":"Point",
"coordinates":[
130.72013353,
33.74285402
]
}
},
{
"type":"Feature",
"properties":{
"Name":"障害福祉サービス事業所明幸学園",
"Jusho":"福岡県直方市頓野368－",
"Capacity":"－",
"la":"33.74902999910",
"ln":"130.76299800000"
},
"geometry":{
"type":"Point",
"coordinates":[
130.762998,
33.7490299991
]
}
},
{
"type":"Feature",
"properties":{
"Name":"上頓野校区自治公民館",
"Jusho":"福岡県直方市上頓野2672番地",
"Capacity":"22",
"la":"33.76600744400",
"ln":"130.76775337500"
},
"geometry":{
"type":"Point",
"coordinates":[
130.767753375,
33.766007444
]
}
},
{
"type":"Feature",
"properties":{
"Name":"浄化センター",
"Jusho":"福岡県直方市",
"Capacity":"－",
"la":"33.78591622100",
"ln":"130.71022976800"
},
"geometry":{
"type":"Point",
"coordinates":[
130.710229768,
33.785916221
]
}
},
{
"type":"Feature",
"properties":{
"Name":"真照寺",
"Jusho":"福岡県直方市下新入1672番地1",
"Capacity":"22",
"la":"33.75727097500",
"ln":"130.70430233400"
},
"geometry":{
"type":"Point",
"coordinates":[
130.704302334,
33.757270975
]
}
},
{
"type":"Feature",
"properties":{
"Name":"代行寺",
"Jusho":"福岡県直方市植木749番地",
"Capacity":"159",
"la":"33.77156734830",
"ln":"130.70698512800"
},
"geometry":{
"type":"Point",
"coordinates":[
130.706985128,
33.7715673483
]
}
},
{
"type":"Feature",
"properties":{
"Name":"地域活動支援センターⅢ型サロンなおみ",
"Jusho":"福岡県直方市山部751-31",
"Capacity":"－",
"la":"33.74567335500",
"ln":"130.71936646400"
},
"geometry":{
"type":"Point",
"coordinates":[
130.719366464,
33.745673355
]
}
},
{
"type":"Feature",
"properties":{
"Name":"地域子育て支援センター",
"Jusho":"福岡県直方市感田3601番地4",
"Capacity":"292",
"la":"33.75737976930",
"ln":"130.74444984000"
},
"geometry":{
"type":"Point",
"coordinates":[
130.74444984,
33.7573797693
]
}
},
{
"type":"Feature",
"properties":{
"Name":"筑豊高等学体育館",
"Jusho":"福岡県直方市頓野4019番地2",
"Capacity":"712",
"la":"33.75414488070",
"ln":"130.74505872400"
},
"geometry":{
"type":"Point",
"coordinates":[
130.745058724,
33.7541448807
]
}
},
{
"type":"Feature",
"properties":{
"Name":"中央隣保館",
"Jusho":"福岡県直方市下境2014番地1",
"Capacity":"628",
"la":"33.73558412110",
"ln":"130.73479602900"
},
"geometry":{
"type":"Point",
"coordinates":[
130.734796029,
33.7355841211
]
}
},
{
"type":"Feature",
"properties":{
"Name":"中小企業大学校直方校",
"Jusho":"福岡県直方市永満寺1463番地",
"Capacity":"120",
"la":"33.73342200000",
"ln":"130.77405500000"
},
"geometry":{
"type":"Point",
"coordinates":[
130.774055,
33.733422
]
}
},
{
"type":"Feature",
"properties":{
"Name":"直方いこいの村（多目的ホール）",
"Jusho":"福岡県直方市畑686番地",
"Capacity":"396",
"la":"33.74560400000",
"ln":"130.76999900000"
},
"geometry":{
"type":"Point",
"coordinates":[
130.769999,
33.745604
]
}
},
{
"type":"Feature",
"properties":{
"Name":"直方高等学校（講堂）",
"Jusho":"福岡県直方市頓野3459番地2",
"Capacity":"1657",
"la":"33.74578000000",
"ln":"130.74158400000"
},
"geometry":{
"type":"Point",
"coordinates":[
130.741584,
33.74578
]
}
},
{
"type":"Feature",
"properties":{
"Name":"直方市社会福祉協議会",
"Jusho":"福岡県直方市山部616－45",
"Capacity":"－",
"la":"33.74390325170",
"ln":"130.72389575800"
},
"geometry":{
"type":"Point",
"coordinates":[
130.723895758,
33.7439032517
]
}
},
{
"type":"Feature",
"properties":{
"Name":"直方市体育館",
"Jusho":"福岡県直方市直方67番地25",
"Capacity":"2335",
"la":"33.74109800000",
"ln":"130.72537200000"
},
"geometry":{
"type":"Point",
"coordinates":[
130.725372,
33.741098
]
}
},
{
"type":"Feature",
"properties":{
"Name":"直方市男女共同参画センター",
"Jusho":"福岡県直方市津田町7番20号",
"Capacity":"278",
"la":"33.74685276660",
"ln":"130.73017362300"
},
"geometry":{
"type":"Point",
"coordinates":[
130.730173623,
33.7468527666
]
}
},
{
"type":"Feature",
"properties":{
"Name":"直方市中央公民館",
"Jusho":"福岡県直方市津田町7番20号",
"Capacity":"998",
"la":"33.74659149850",
"ln":"130.73014520300"
},
"geometry":{
"type":"Point",
"coordinates":[
130.730145203,
33.7465914985
]
}
},
{
"type":"Feature",
"properties":{
"Name":"直方市民体育センター",
"Jusho":"福岡県直方市山部599番地2",
"Capacity":"397",
"la":"33.74483400000",
"ln":"130.72335500000"
},
"geometry":{
"type":"Point",
"coordinates":[
130.723355,
33.744834
]
}
},
{
"type":"Feature",
"properties":{
"Name":"直方自動車学校",
"Jusho":"福岡県直方市赤地1番地",
"Capacity":"237",
"la":"33.72932892610",
"ln":"130.73044246700"
},
"geometry":{
"type":"Point",
"coordinates":[
130.730442467,
33.7293289261
]
}
},
{
"type":"Feature",
"properties":{
"Name":"直方養護学校（体育館）",
"Jusho":"福岡県直方市下境410番地2",
"Capacity":"458",
"la":"33.73175300000",
"ln":"130.75391600000"
},
"geometry":{
"type":"Point",
"coordinates":[
130.753916,
33.731753
]
}
},
{
"type":"Feature",
"properties":{
"Name":"直方聾学校（アリーナ）",
"Jusho":"福岡県直方市感田346番地1",
"Capacity":"213",
"la":"33.75889000000",
"ln":"130.74794400000"
},
"geometry":{
"type":"Point",
"coordinates":[
130.747944,
33.75889
]
}
},
{
"type":"Feature",
"properties":{
"Name":"頓野公民館",
"Jusho":"福岡県直方市頓野1685番地4",
"Capacity":"68",
"la":"33.75445147740",
"ln":"130.75348789800"
},
"geometry":{
"type":"Point",
"coordinates":[
130.753487898,
33.7544514774
]
}
},
{
"type":"Feature",
"properties":{
"Name":"イイヅカコミュニティセンター",
"Jusho":"福岡県飯塚市飯塚14-67",
"Capacity":"2830",
"la":"33.63604699910",
"ln":"130.68509300000"
},
"geometry":{
"type":"Point",
"coordinates":[
130.685093,
33.6360469991
]
}
},
{
"type":"Feature",
"properties":{
"Name":"頴田公民館",
"Jusho":"福岡県飯塚市勢田1129－",
"Capacity":"360",
"la":"33.68065100000",
"ln":"130.72183700000"
},
"geometry":{
"type":"Point",
"coordinates":[
130.721837,
33.680651
]
}
},
{
"type":"Feature",
"properties":{
"Name":"頴田支所",
"Jusho":"福岡県飯塚市勢田1271－",
"Capacity":"1110",
"la":"33.68625000000",
"ln":"130.72323500000"
},
"geometry":{
"type":"Point",
"coordinates":[
130.723235,
33.68625
]
}
},
{
"type":"Feature",
"properties":{
"Name":"頴田体育館",
"Jusho":"福岡県飯塚市勢田1129-2",
"Capacity":"840",
"la":"33.67995900000",
"ln":"130.72257500000"
},
"geometry":{
"type":"Point",
"coordinates":[
130.722575,
33.679959
]
}
},
{
"type":"Feature",
"properties":{
"Name":"頴田武道館",
"Jusho":"福岡県飯塚市勢田1034－",
"Capacity":"230",
"la":"33.68039000000",
"ln":"130.72313700000"
},
"geometry":{
"type":"Point",
"coordinates":[
130.723137,
33.68039
]
}
},
{
"type":"Feature",
"properties":{
"Name":"嘉穂高等学校",
"Jusho":"福岡県飯塚市潤野8－2",
"Capacity":"5200",
"la":"33.63232800000",
"ln":"130.66488300000"
},
"geometry":{
"type":"Point",
"coordinates":[
130.664883,
33.632328
]
}
},
{
"type":"Feature",
"properties":{
"Name":"嘉穂東高等学校",
"Jusho":"福岡県飯塚市立岩1730-5",
"Capacity":"4000",
"la":"33.65126300000",
"ln":"130.69056000000"
},
"geometry":{
"type":"Point",
"coordinates":[
130.69056,
33.651263
]
}
},
{
"type":"Feature",
"properties":{
"Name":"海洋センター（体育館）",
"Jusho":"福岡県飯塚市平恒54-24",
"Capacity":"530",
"la":"33.61332500000",
"ln":"130.69489000000"
},
"geometry":{
"type":"Point",
"coordinates":[
130.69489,
33.613325
]
}
},
{
"type":"Feature",
"properties":{
"Name":"菰田公民館",
"Jusho":"福岡県飯塚市菰田177",
"Capacity":"300",
"la":"33.62860900000",
"ln":"130.69270900000"
},
"geometry":{
"type":"Point",
"coordinates":[
130.692709,
33.628609
]
}
},
{
"type":"Feature",
"properties":{
"Name":"幸袋公民館",
"Jusho":"福岡県飯塚市幸袋50",
"Capacity":"290",
"la":"33.66412500000",
"ln":"130.68728900000"
},
"geometry":{
"type":"Point",
"coordinates":[
130.687289,
33.664125
]
}
},
{
"type":"Feature",
"properties":{
"Name":"庄内グラウンド",
"Jusho":"福岡県飯塚市有安1-2",
"Capacity":"9010",
"la":"33.63934499350",
"ln":"130.73602484000"
},
"geometry":{
"type":"Point",
"coordinates":[
130.73602484,
33.6393449935
]
}
},
{
"type":"Feature",
"properties":{
"Name":"庄内公民館",
"Jusho":"福岡県飯塚市有安830-3",
"Capacity":"800",
"la":"33.64125300000",
"ln":"130.72425100000"
},
"geometry":{
"type":"Point",
"coordinates":[
130.724251,
33.641253
]
}
},
{
"type":"Feature",
"properties":{
"Name":"庄内工業団地グラウンド",
"Jusho":"福岡県飯塚市有安958－8",
"Capacity":"14210",
"la":"33.63736492850",
"ln":"130.71834112700"
},
"geometry":{
"type":"Point",
"coordinates":[
130.718341127,
33.6373649285
]
}
},
{
"type":"Feature",
"properties":{
"Name":"庄内支所",
"Jusho":"福岡県飯塚市綱分802",
"Capacity":"450",
"la":"33.63622574510",
"ln":"130.72957806500"
},
"geometry":{
"type":"Point",
"coordinates":[
130.729578065,
33.6362257451
]
}
},
{
"type":"Feature",
"properties":{
"Name":"庄内体育館",
"Jusho":"福岡県飯塚市有安830-6",
"Capacity":"930",
"la":"33.64084400000",
"ln":"130.72402600000"
},
"geometry":{
"type":"Point",
"coordinates":[
130.724026,
33.640844
]
}
},
{
"type":"Feature",
"properties":{
"Name":"庄内保健総合福祉センター",
"Jusho":"福岡県飯塚市綱分771－",
"Capacity":"940",
"la":"33.63775600000",
"ln":"130.72922300000"
},
"geometry":{
"type":"Point",
"coordinates":[
130.729223,
33.637756
]
}
},
{
"type":"Feature",
"properties":{
"Name":"筑穂グラウンド",
"Jusho":"福岡県飯塚市長尾1340",
"Capacity":"4430",
"la":"33.57190289160",
"ln":"130.64770380600"
},
"geometry":{
"type":"Point",
"coordinates":[
130.647703806,
33.5719028916
]
}
},
{
"type":"Feature",
"properties":{
"Name":"筑穂公民館",
"Jusho":"福岡県飯塚市長尾1340",
"Capacity":"880",
"la":"33.57129200000",
"ln":"130.64743100000"
},
"geometry":{
"type":"Point",
"coordinates":[
130.647431,
33.571292
]
}
},
{
"type":"Feature",
"properties":{
"Name":"筑穂高齢者生活福祉センター",
"Jusho":"福岡県飯塚市内野3540－",
"Capacity":"210",
"la":"33.54019013690",
"ln":"130.63926613000"
},
"geometry":{
"type":"Point",
"coordinates":[
130.63926613,
33.5401901369
]
}
},
{
"type":"Feature",
"properties":{
"Name":"筑穂支所",
"Jusho":"福岡県飯塚市長尾1242－",
"Capacity":"2090",
"la":"33.56989200000",
"ln":"130.64720100000"
},
"geometry":{
"type":"Point",
"coordinates":[
130.647201,
33.569892
]
}
},
{
"type":"Feature",
"properties":{
"Name":"筑穂人権啓発センター",
"Jusho":"福岡県飯塚市大分1543",
"Capacity":"220",
"la":"33.59060099910",
"ln":"130.63255400000"
},
"geometry":{
"type":"Point",
"coordinates":[
130.632554,
33.5906009991
]
}
},
{
"type":"Feature",
"properties":{
"Name":"筑穂総合運動場",
"Jusho":"福岡県飯塚市大分1985－",
"Capacity":"8750",
"la":"33.58702713240",
"ln":"130.62250210600"
},
"geometry":{
"type":"Point",
"coordinates":[
130.622502106,
33.5870271324
]
}
},
{
"type":"Feature",
"properties":{
"Name":"筑穂体育館",
"Jusho":"福岡県飯塚市長尾1340",
"Capacity":"1050",
"la":"33.57082999910",
"ln":"130.64698900000"
},
"geometry":{
"type":"Point",
"coordinates":[
130.646989,
33.5708299991
]
}
},
{
"type":"Feature",
"properties":{
"Name":"筑穂保健福祉総合センター",
"Jusho":"福岡県飯塚市長尾911－",
"Capacity":"1320",
"la":"33.57335199910",
"ln":"130.64426200000"
},
"geometry":{
"type":"Point",
"coordinates":[
130.644262,
33.5733519991
]
}
},
{
"type":"Feature",
"properties":{
"Name":"筑穂老人福祉センター",
"Jusho":"福岡県飯塚市長尾1340",
"Capacity":"330",
"la":"33.57113000000",
"ln":"130.64756700000"
},
"geometry":{
"type":"Point",
"coordinates":[
130.647567,
33.57113
]
}
},
{
"type":"Feature",
"properties":{
"Name":"忠隈住民センター",
"Jusho":"福岡県飯塚市忠隈188-3",
"Capacity":"210",
"la":"33.62096378600",
"ln":"130.68787247900"
},
"geometry":{
"type":"Point",
"coordinates":[
130.687872479,
33.620963786
]
}
},
{
"type":"Feature",
"properties":{
"Name":"鎮西公民館",
"Jusho":"福岡県飯塚市大日寺593－6",
"Capacity":"250",
"la":"33.64416500000",
"ln":"130.64072400000"
},
"geometry":{
"type":"Point",
"coordinates":[
130.640724,
33.644165
]
}
},
{
"type":"Feature",
"properties":{
"Name":"二瀬公民館",
"Jusho":"福岡県飯塚市川津675－",
"Capacity":"340",
"la":"33.64972900000",
"ln":"130.67198500000"
},
"geometry":{
"type":"Point",
"coordinates":[
130.671985,
33.649729
]
}
},
{
"type":"Feature",
"properties":{
"Name":"八木山青年の家",
"Jusho":"福岡県飯塚市八木山1113",
"Capacity":"340",
"la":"33.62449282730",
"ln":"130.60725240600"
},
"geometry":{
"type":"Point",
"coordinates":[
130.607252406,
33.6244928273
]
}
},
{
"type":"Feature",
"properties":{
"Name":"飯塚オートレース場",
"Jusho":"福岡県飯塚市鯰田147",
"Capacity":"8390",
"la":"33.65307183800",
"ln":"130.70849021500"
},
"geometry":{
"type":"Point",
"coordinates":[
130.708490215,
33.653071838
]
}
},
{
"type":"Feature",
"properties":{
"Name":"飯塚公民館",
"Jusho":"福岡県飯塚市本町20－7",
"Capacity":"290",
"la":"33.63792200000",
"ln":"130.68348400000"
},
"geometry":{
"type":"Point",
"coordinates":[
130.683484,
33.637922
]
}
},
{
"type":"Feature",
"properties":{
"Name":"飯塚市営野球場",
"Jusho":"福岡県飯塚市立岩1793",
"Capacity":"6400",
"la":"33.65147982240",
"ln":"130.69519144500"
},
"geometry":{
"type":"Point",
"coordinates":[
130.695191445,
33.6514798224
]
}
},
{
"type":"Feature",
"properties":{
"Name":"飯塚市文化会館",
"Jusho":"福岡県飯塚市飯塚14-66",
"Capacity":"6340",
"la":"33.63528100000",
"ln":"130.68469000000"
},
"geometry":{
"type":"Point",
"coordinates":[
130.68469,
33.635281
]
}
},
{
"type":"Feature",
"properties":{
"Name":"飯塚市役所",
"Jusho":"福岡県飯塚市新立岩5-5",
"Capacity":"4440",
"la":"33.64590300000",
"ln":"130.69144900000"
},
"geometry":{
"type":"Point",
"coordinates":[
130.691449,
33.645903
]
}
},
{
"type":"Feature",
"properties":{
"Name":"飯塚総合会館",
"Jusho":"福岡県飯塚市新飯塚20-30",
"Capacity":"530",
"la":"33.64486291450",
"ln":"130.69084326100"
},
"geometry":{
"type":"Point",
"coordinates":[
130.690843261,
33.6448629145
]
}
},
{
"type":"Feature",
"properties":{
"Name":"飯塚第１体育館",
"Jusho":"福岡県飯塚市枝国666－",
"Capacity":"1130",
"la":"33.63988300000",
"ln":"130.67551800000"
},
"geometry":{
"type":"Point",
"coordinates":[
130.675518,
33.639883
]
}
},
{
"type":"Feature",
"properties":{
"Name":"飯塚東公民館",
"Jusho":"福岡県飯塚市下三緒57-46",
"Capacity":"300",
"la":"33.63166200000",
"ln":"130.70644700000"
},
"geometry":{
"type":"Point",
"coordinates":[
130.706447,
33.631662
]
}
},
{
"type":"Feature",
"properties":{
"Name":"穂波公民館",
"Jusho":"福岡県飯塚市秋松408",
"Capacity":"650",
"la":"33.61975200000",
"ln":"130.67569800000"
},
"geometry":{
"type":"Point",
"coordinates":[
130.675698,
33.619752
]
}
},
{
"type":"Feature",
"properties":{
"Name":"穂波支所",
"Jusho":"福岡県飯塚市忠隈523",
"Capacity":"3390",
"la":"33.61997500000",
"ln":"130.68171400000"
},
"geometry":{
"type":"Point",
"coordinates":[
130.681714,
33.619975
]
}
},
{
"type":"Feature",
"properties":{
"Name":"穂波人権啓発センター",
"Jusho":"福岡県飯塚市太郎丸974-2",
"Capacity":"220",
"la":"33.61003121330",
"ln":"130.66883384100"
},
"geometry":{
"type":"Point",
"coordinates":[
130.668833841,
33.6100312133
]
}
},
{
"type":"Feature",
"properties":{
"Name":"穂波総合運動場",
"Jusho":"福岡県飯塚市平恒54",
"Capacity":"1270",
"la":"33.61413653950",
"ln":"130.69524651900"
},
"geometry":{
"type":"Point",
"coordinates":[
130.695246519,
33.6141365395
]
}
},
{
"type":"Feature",
"properties":{
"Name":"穂波総合福祉センター",
"Jusho":"福岡県飯塚市枝国402－00",
"Capacity":"1130",
"la":"33.62958442540",
"ln":"130.66934250800"
},
"geometry":{
"type":"Point",
"coordinates":[
130.669342508,
33.6295844254
]
}
},
{
"type":"Feature",
"properties":{
"Name":"穂波体育館",
"Jusho":"福岡県飯塚市秋松408",
"Capacity":"1060",
"la":"33.61937100000",
"ln":"130.67577500000"
},
"geometry":{
"type":"Point",
"coordinates":[
130.675775,
33.619371
]
}
},
{
"type":"Feature",
"properties":{
"Name":"鯰田公民館",
"Jusho":"福岡県飯塚市鯰田1373",
"Capacity":"290",
"la":"33.66736100000",
"ln":"130.70463300000"
},
"geometry":{
"type":"Point",
"coordinates":[
130.704633,
33.667361
]
}
},
{
"type":"Feature",
"properties":{
"Name":"弓削田隣保館",
"Jusho":"福岡県田川市弓削田635番地",
"Capacity":"－",
"la":"33.64064795640",
"ln":"130.78260679700"
},
"geometry":{
"type":"Point",
"coordinates":[
130.782606797,
33.6406479564
]
}
},
{
"type":"Feature",
"properties":{
"Name":"児童センター",
"Jusho":"福岡県田川市糒633番地の2",
"Capacity":"－",
"la":"33.66476300000",
"ln":"130.80866300000"
},
"geometry":{
"type":"Point",
"coordinates":[
130.808663,
33.664763
]
}
},
{
"type":"Feature",
"properties":{
"Name":"上伊田隣保館",
"Jusho":"福岡県田川市伊田406番地の3",
"Capacity":"－",
"la":"33.64197312300",
"ln":"130.83902063100"
},
"geometry":{
"type":"Point",
"coordinates":[
130.839020631,
33.641973123
]
}
},
{
"type":"Feature",
"properties":{
"Name":"西保育所",
"Jusho":"福岡県田川市川宮369番地",
"Capacity":"－",
"la":"33.64198699910",
"ln":"130.78758200000"
},
"geometry":{
"type":"Point",
"coordinates":[
130.787582,
33.6419869991
]
}
},
{
"type":"Feature",
"properties":{
"Name":"中央保育所",
"Jusho":"福岡県田川市平松町3番36号",
"Capacity":"－",
"la":"33.63443156790",
"ln":"130.80547389400"
},
"geometry":{
"type":"Point",
"coordinates":[
130.805473894,
33.6344315679
]
}
},
{
"type":"Feature",
"properties":{
"Name":"中央隣保館",
"Jusho":"福岡県田川市伊田5030番地の1",
"Capacity":"－",
"la":"33.64983424880",
"ln":"130.80752971000"
},
"geometry":{
"type":"Point",
"coordinates":[
130.80752971,
33.6498342488
]
}
},
{
"type":"Feature",
"properties":{
"Name":"北保育所",
"Jusho":"福岡県田川市糒2147番地の1",
"Capacity":"－",
"la":"33.66286200000",
"ln":"130.79718200000"
},
"geometry":{
"type":"Point",
"coordinates":[
130.797182,
33.662862
]
}
},
{
"type":"Feature",
"properties":{
"Name":"蒲池農村環境改善センター",
"Jusho":"福岡県柳川市矢加部251-3",
"Capacity":"－",
"la":"33.18411500000",
"ln":"130.41669900000"
},
"geometry":{
"type":"Point",
"coordinates":[
130.416699,
33.184115
]
}
},
{
"type":"Feature",
"properties":{
"Name":"三橋公民館",
"Jusho":"福岡県柳川市三橋町正行431-2",
"Capacity":"－",
"la":"33.16549499910",
"ln":"130.43543100000"
},
"geometry":{
"type":"Point",
"coordinates":[
130.435431,
33.1654949991
]
}
},
{
"type":"Feature",
"properties":{
"Name":"三橋総合保健福祉センター",
"Jusho":"福岡県柳川市三橋町正行476",
"Capacity":"－",
"la":"33.66501000000",
"ln":"130.68169900000"
},
"geometry":{
"type":"Point",
"coordinates":[
130.681699,
33.66501
]
}
},
{
"type":"Feature",
"properties":{
"Name":"就業改善センター",
"Jusho":"福岡県柳川市久々原126-3",
"Capacity":"－",
"la":"33.16993413130",
"ln":"130.38015842000"
},
"geometry":{
"type":"Point",
"coordinates":[
130.38015842,
33.1699341313
]
}
},
{
"type":"Feature",
"properties":{
"Name":"城内コミュニティ防災センター",
"Jusho":"福岡県柳川市本町53－",
"Capacity":"－",
"la":"33.16016400000",
"ln":"130.40431200000"
},
"geometry":{
"type":"Point",
"coordinates":[
130.404312,
33.160164
]
}
},
{
"type":"Feature",
"properties":{
"Name":"大和Ｂ＆Ｇ海洋センター",
"Jusho":"福岡県柳川市大和町鷹ノ尾106",
"Capacity":"－",
"la":"33.13487900000",
"ln":"130.43203200000"
},
"geometry":{
"type":"Point",
"coordinates":[
130.432032,
33.134879
]
}
},
{
"type":"Feature",
"properties":{
"Name":"大和漁村センター",
"Jusho":"福岡県柳川市大和町中島385",
"Capacity":"－",
"la":"33.12022502340",
"ln":"130.43152731700"
},
"geometry":{
"type":"Point",
"coordinates":[
130.431527317,
33.1202250234
]
}
},
{
"type":"Feature",
"properties":{
"Name":"大和公民館",
"Jusho":"福岡県柳川市大和町栄231、232",
"Capacity":"－",
"la":"33.13381200000",
"ln":"130.42975700000"
},
"geometry":{
"type":"Point",
"coordinates":[
130.429757,
33.133812
]
}
},
{
"type":"Feature",
"properties":{
"Name":"大和総合保健福祉センター",
"Jusho":"福岡県柳川市大和町栄234",
"Capacity":"－",
"la":"33.13351700000",
"ln":"130.42976800000"
},
"geometry":{
"type":"Point",
"coordinates":[
130.429768,
33.133517
]
}
},
{
"type":"Feature",
"properties":{
"Name":"矢留うぶすな館",
"Jusho":"福岡県柳川市矢留本町150",
"Capacity":"－",
"la":"33.15606199910",
"ln":"130.39327400000"
},
"geometry":{
"type":"Point",
"coordinates":[
130.393274,
33.1560619991
]
}
},
{
"type":"Feature",
"properties":{
"Name":"柳河ふれあいセンター",
"Jusho":"福岡県柳川市新町5-2",
"Capacity":"－",
"la":"33.16304699910",
"ln":"130.41144700000"
},
"geometry":{
"type":"Point",
"coordinates":[
130.411447,
33.1630469991
]
}
},
{
"type":"Feature",
"properties":{
"Name":"柳川市民会館",
"Jusho":"福岡県柳川市坂本町29-2",
"Capacity":"－",
"la":"33.16327500000",
"ln":"130.40481700000"
},
"geometry":{
"type":"Point",
"coordinates":[
130.404817,
33.163275
]
}
},
{
"type":"Feature",
"properties":{
"Name":"柳川市民体育館",
"Jusho":"福岡県柳川市本町53－",
"Capacity":"－",
"la":"33.16117875090",
"ln":"130.40484974900"
},
"geometry":{
"type":"Point",
"coordinates":[
130.404849749,
33.1611787509
]
}
},
{
"type":"Feature",
"properties":{
"Name":"柳川総合保健福祉センター",
"Jusho":"福岡県柳川市上宮永町6-3",
"Capacity":"－",
"la":"33.15445400000",
"ln":"130.40066800000"
},
"geometry":{
"type":"Point",
"coordinates":[
130.400668,
33.154454
]
}
},
{
"type":"Feature",
"properties":{
"Name":"柳川農村環境改善センター",
"Jusho":"福岡県柳川市下宮永町132－",
"Capacity":"－",
"la":"33.14963200000",
"ln":"130.40236500000"
},
"geometry":{
"type":"Point",
"coordinates":[
130.402365,
33.149632
]
}
},
{
"type":"Feature",
"properties":{
"Name":"有明まほろばセンター",
"Jusho":"福岡県柳川市有明町1490",
"Capacity":"－",
"la":"33.13045900000",
"ln":"130.39401000000"
},
"geometry":{
"type":"Point",
"coordinates":[
130.39401,
33.130459
]
}
},
{
"type":"Feature",
"properties":{
"Name":"お茶の里記念館",
"Jusho":"福岡県八女市黒木町笠原6528番地1",
"Capacity":"－",
"la":"33.22381858790",
"ln":"130.73891625000"
},
"geometry":{
"type":"Point",
"coordinates":[
130.73891625,
33.2238185879
]
}
},
{
"type":"Feature",
"properties":{
"Name":"コミュニティーセンターふれあい",
"Jusho":"福岡県八女市星野村12618番地",
"Capacity":"－",
"la":"33.25255300000",
"ln":"130.77442900000"
},
"geometry":{
"type":"Point",
"coordinates":[
130.774429,
33.252553
]
}
},
{
"type":"Feature",
"properties":{
"Name":"さくら館",
"Jusho":"福岡県八女市星野村6306番地1",
"Capacity":"－",
"la":"33.27001839190",
"ln":"130.73379397300"
},
"geometry":{
"type":"Point",
"coordinates":[
130.733793973,
33.2700183919
]
}
},
{
"type":"Feature",
"properties":{
"Name":"臼ノ払地区集会所",
"Jusho":"福岡県八女市矢部村矢部2887番地15",
"Capacity":"－",
"la":"33.13570500000",
"ln":"130.81174800000"
},
"geometry":{
"type":"Point",
"coordinates":[
130.811748,
33.135705
]
}
},
{
"type":"Feature",
"properties":{
"Name":"横手地区集会所",
"Jusho":"福岡県八女市矢部村北矢部449番地2",
"Capacity":"－",
"la":"33.19086600000",
"ln":"130.80749100000"
},
"geometry":{
"type":"Point",
"coordinates":[
130.807491,
33.190866
]
}
},
{
"type":"Feature",
"properties":{
"Name":"下横山コミュニティセンター",
"Jusho":"福岡県八女市上陽町下横山3808番地",
"Capacity":"－",
"la":"33.27373200000",
"ln":"130.63080000000"
},
"geometry":{
"type":"Point",
"coordinates":[
130.6308,
33.273732
]
}
},
{
"type":"Feature",
"properties":{
"Name":"笠原集会所",
"Jusho":"福岡県八女市黒木町笠原7552番地1",
"Capacity":"－",
"la":"33.22257700000",
"ln":"130.70960600000"
},
"geometry":{
"type":"Point",
"coordinates":[
130.709606,
33.222577
]
}
},
{
"type":"Feature",
"properties":{
"Name":"笠原東交流センター",
"Jusho":"福岡県八女市黒木町笠原9836番地1",
"Capacity":"－",
"la":"33.22159700000",
"ln":"130.74702200000"
},
"geometry":{
"type":"Point",
"coordinates":[
130.747022,
33.221597
]
}
},
{
"type":"Feature",
"properties":{
"Name":"吉田公民館",
"Jusho":"福岡県八女市吉田1736番地1",
"Capacity":"－",
"la":"33.22821582990",
"ln":"130.55608193700"
},
"geometry":{
"type":"Point",
"coordinates":[
130.556081937,
33.2282158299
]
}
},
{
"type":"Feature",
"properties":{
"Name":"宮ノ尾地区集会施設",
"Jusho":"福岡県八女市矢部村北矢部10411番地6",
"Capacity":"－",
"la":"33.14744999300",
"ln":"130.82457057600"
},
"geometry":{
"type":"Point",
"coordinates":[
130.824570576,
33.147449993
]
}
},
{
"type":"Feature",
"properties":{
"Name":"勤労青少年ホーム",
"Jusho":"福岡県八女市馬場420番地",
"Capacity":"－",
"la":"33.20939600000",
"ln":"130.56921000000"
},
"geometry":{
"type":"Point",
"coordinates":[
130.56921,
33.209396
]
}
},
{
"type":"Feature",
"properties":{
"Name":"串毛コミュニティセンター",
"Jusho":"福岡県八女市黒木町土窪1419番地1",
"Capacity":"－",
"la":"33.20413500000",
"ln":"130.64754900000"
},
"geometry":{
"type":"Point",
"coordinates":[
130.647549,
33.204135
]
}
},
{
"type":"Feature",
"properties":{
"Name":"栗原公民館",
"Jusho":"福岡県八女市矢部村矢部4575番地1",
"Capacity":"－",
"la":"33.14078500000",
"ln":"130.83258000000"
},
"geometry":{
"type":"Point",
"coordinates":[
130.83258,
33.140785
]
}
},
{
"type":"Feature",
"properties":{
"Name":"桑の平公民館",
"Jusho":"福岡県八女市矢部村北矢部11578番地1",
"Capacity":"－",
"la":"33.17323500000",
"ln":"130.80975100000"
},
"geometry":{
"type":"Point",
"coordinates":[
130.809751,
33.173235
]
}
},
{
"type":"Feature",
"properties":{
"Name":"剣持ふれあいセンター",
"Jusho":"福岡県八女市黒木町大淵8473番地1",
"Capacity":"－",
"la":"33.16626700000",
"ln":"130.73485200000"
},
"geometry":{
"type":"Point",
"coordinates":[
130.734852,
33.166267
]
}
},
{
"type":"Feature",
"properties":{
"Name":"古野公民館",
"Jusho":"福岡県八女市矢部村矢部4967番地1",
"Capacity":"－",
"la":"33.13308400000",
"ln":"130.83280100000"
},
"geometry":{
"type":"Point",
"coordinates":[
130.832801,
33.133084
]
}
},
{
"type":"Feature",
"properties":{
"Name":"御側地区集会所",
"Jusho":"福岡県八女市矢部村北矢部7146番地8",
"Capacity":"－",
"la":"33.17129300000",
"ln":"130.84779700000"
},
"geometry":{
"type":"Point",
"coordinates":[
130.847797,
33.171293
]
}
},
{
"type":"Feature",
"properties":{
"Name":"高巣地区集会所",
"Jusho":"福岡県八女市矢部村北矢部9337番地4",
"Capacity":"－",
"la":"33.13846200000",
"ln":"130.84240900000"
},
"geometry":{
"type":"Point",
"coordinates":[
130.842409,
33.138462
]
}
},
{
"type":"Feature",
"properties":{
"Name":"黒木総合支所大会議室",
"Jusho":"福岡県八女市黒木町今1314番地1",
"Capacity":"－",
"la":"33.21749999910",
"ln":"130.66702800000"
},
"geometry":{
"type":"Point",
"coordinates":[
130.667028,
33.2174999991
]
}
},
{
"type":"Feature",
"properties":{
"Name":"山口地区集会所",
"Jusho":"福岡県八女市矢部村矢部5757番地4",
"Capacity":"－",
"la":"33.12439800000",
"ln":"130.84126000000"
},
"geometry":{
"type":"Point",
"coordinates":[
130.84126,
33.124398
]
}
},
{
"type":"Feature",
"properties":{
"Name":"枝折ふれあいセンター",
"Jusho":"福岡県八女市黒木町北大淵5937番地3",
"Capacity":"－",
"la":"33.18207800000",
"ln":"130.75281000000"
},
"geometry":{
"type":"Point",
"coordinates":[
130.75281,
33.182078
]
}
},
{
"type":"Feature",
"properties":{
"Name":"耳納館",
"Jusho":"福岡県八女市星野村6932番地1",
"Capacity":"－",
"la":"33.26389900000",
"ln":"130.74223700000"
},
"geometry":{
"type":"Point",
"coordinates":[
130.742237,
33.263899
]
}
},
{
"type":"Feature",
"properties":{
"Name":"鹿子生農村集落センター",
"Jusho":"福岡県八女市黒木町鹿子生2151番地",
"Capacity":"－",
"la":"33.18270500000",
"ln":"130.64069200000"
},
"geometry":{
"type":"Point",
"coordinates":[
130.640692,
33.182705
]
}
},
{
"type":"Feature",
"properties":{
"Name":"鹿里コミュニティーセンター",
"Jusho":"福岡県八女市星野村4031番地3",
"Capacity":"－",
"la":"33.27503249530",
"ln":"130.72273747500"
},
"geometry":{
"type":"Point",
"coordinates":[
130.722737475,
33.2750324953
]
}
},
{
"type":"Feature",
"properties":{
"Name":"室山館",
"Jusho":"福岡県八女市星野村13078番地6",
"Capacity":"－",
"la":"33.24992121560",
"ln":"130.76233917600"
},
"geometry":{
"type":"Point",
"coordinates":[
130.762339176,
33.2499212156
]
}
},
{
"type":"Feature",
"properties":{
"Name":"社会福祉会館",
"Jusho":"福岡県八女市本町599番地",
"Capacity":"－",
"la":"33.21210600000",
"ln":"130.55688100000"
},
"geometry":{
"type":"Point",
"coordinates":[
130.556881,
33.212106
]
}
},
{
"type":"Feature",
"properties":{
"Name":"殊正寺地区集会所",
"Jusho":"福岡県八女市矢部村北矢部5147番地2",
"Capacity":"－",
"la":"33.15544700000",
"ln":"130.82977200000"
},
"geometry":{
"type":"Point",
"coordinates":[
130.829772,
33.155447
]
}
},
{
"type":"Feature",
"properties":{
"Name":"小野１区多目的集会施設",
"Jusho":"福岡県八女市星野村1186番地1",
"Capacity":"－",
"la":"33.24717000000",
"ln":"130.70348800000"
},
"geometry":{
"type":"Point",
"coordinates":[
130.703488,
33.24717
]
}
},
{
"type":"Feature",
"properties":{
"Name":"小野地域交流センターけやき体育館",
"Jusho":"福岡県八女市星野村2654番地3",
"Capacity":"－",
"la":"33.25766975010",
"ln":"130.71318201000"
},
"geometry":{
"type":"Point",
"coordinates":[
130.71318201,
33.2576697501
]
}
},
{
"type":"Feature",
"properties":{
"Name":"上郷１区１４支部多目的集会施設",
"Jusho":"福岡県八女市星野村18826番地",
"Capacity":"－",
"la":"33.20862108540",
"ln":"130.81268457000"
},
"geometry":{
"type":"Point",
"coordinates":[
130.81268457,
33.2086210854
]
}
},
{
"type":"Feature",
"properties":{
"Name":"上郷地域交流センター講堂",
"Jusho":"福岡県八女市星野村15880番地",
"Capacity":"－",
"la":"33.22335400000",
"ln":"130.79943700000"
},
"geometry":{
"type":"Point",
"coordinates":[
130.799437,
33.223354
]
}
},
{
"type":"Feature",
"properties":{
"Name":"上小野地区農村集落センター",
"Jusho":"福岡県八女市星野村2290番地1",
"Capacity":"－",
"la":"33.25533400000",
"ln":"130.71246100000"
},
"geometry":{
"type":"Point",
"coordinates":[
130.712461,
33.255334
]
}
},
{
"type":"Feature",
"properties":{
"Name":"星の自然の家",
"Jusho":"福岡県八女市星野村15943番地",
"Capacity":"－",
"la":"33.21806892600",
"ln":"130.79774978900"
},
"geometry":{
"type":"Point",
"coordinates":[
130.797749789,
33.218068926
]
}
},
{
"type":"Feature",
"properties":{
"Name":"星野３区多目的集会施設",
"Jusho":"福岡県八女市星野村11684番地6",
"Capacity":"－",
"la":"33.24469867110",
"ln":"130.76758424900"
},
"geometry":{
"type":"Point",
"coordinates":[
130.767584249,
33.2446986711
]
}
},
{
"type":"Feature",
"properties":{
"Name":"星野行政福祉センター（星野支所）",
"Jusho":"福岡県八女市星野村13102番地1",
"Capacity":"－",
"la":"33.25035900000",
"ln":"130.76192800000"
},
"geometry":{
"type":"Point",
"coordinates":[
130.761928,
33.250359
]
}
},
{
"type":"Feature",
"properties":{
"Name":"星野総合体育館",
"Jusho":"福岡県八女市星野村9564番地",
"Capacity":"－",
"la":"33.25153899910",
"ln":"130.75233200000"
},
"geometry":{
"type":"Point",
"coordinates":[
130.752332,
33.2515389991
]
}
},
{
"type":"Feature",
"properties":{
"Name":"西園地区集会所",
"Jusho":"福岡県八女市矢部村矢部1122番地",
"Capacity":"－",
"la":"33.15272500000",
"ln":"130.79408000000"
},
"geometry":{
"type":"Point",
"coordinates":[
130.79408,
33.152725
]
}
},
{
"type":"Feature",
"properties":{
"Name":"西公民館",
"Jusho":"福岡県八女市新庄385番地",
"Capacity":"－",
"la":"33.19553200000",
"ln":"130.53962500000"
},
"geometry":{
"type":"Point",
"coordinates":[
130.539625,
33.195532
]
}
},
{
"type":"Feature",
"properties":{
"Name":"多世代交流館",
"Jusho":"福岡県八女市高塚191番地",
"Capacity":"－",
"la":"33.20308200000",
"ln":"130.55414200000"
},
"geometry":{
"type":"Point",
"coordinates":[
130.554142,
33.203082
]
}
},
{
"type":"Feature",
"properties":{
"Name":"滝の脇農村集落センター",
"Jusho":"福岡県八女市星野村19566番地4",
"Capacity":"－",
"la":"33.22227700000",
"ln":"130.81877500000"
},
"geometry":{
"type":"Point",
"coordinates":[
130.818775,
33.222277
]
}
},
{
"type":"Feature",
"properties":{
"Name":"谷野地区集会所",
"Jusho":"福岡県八女市矢部村矢部字谷野（河川敷）",
"Capacity":"－",
"la":"33.16153600000",
"ln":"130.79330900000"
},
"geometry":{
"type":"Point",
"coordinates":[
130.793309,
33.161536
]
}
},
{
"type":"Feature",
"properties":{
"Name":"地域福祉センター",
"Jusho":"福岡県八女市上陽町北川内123番地1",
"Capacity":"－",
"la":"33.23617700000",
"ln":"130.63669300000"
},
"geometry":{
"type":"Point",
"coordinates":[
130.636693,
33.236177
]
}
},
{
"type":"Feature",
"properties":{
"Name":"竹原地区集会所",
"Jusho":"福岡県八女市矢部村北矢部8324番地1",
"Capacity":"－",
"la":"33.14256199910",
"ln":"130.86266200000"
},
"geometry":{
"type":"Point",
"coordinates":[
130.862662,
33.1425619991
]
}
},
{
"type":"Feature",
"properties":{
"Name":"中峯館",
"Jusho":"福岡県八女市星野村8427番地3",
"Capacity":"－",
"la":"33.26163500000",
"ln":"130.75223100000"
},
"geometry":{
"type":"Point",
"coordinates":[
130.752231,
33.261635
]
}
},
{
"type":"Feature",
"properties":{
"Name":"長尾地区農村集落センター",
"Jusho":"福岡県八女市星野村5217番地1",
"Capacity":"－",
"la":"33.25880300000",
"ln":"130.72872200000"
},
"geometry":{
"type":"Point",
"coordinates":[
130.728722,
33.258803
]
}
},
{
"type":"Feature",
"properties":{
"Name":"田の原農民休養センター",
"Jusho":"福岡県八女市星野村9610番地2",
"Capacity":"－",
"la":"33.25203300000",
"ln":"130.75047100000"
},
"geometry":{
"type":"Point",
"coordinates":[
130.750471,
33.252033
]
}
},
{
"type":"Feature",
"properties":{
"Name":"土穴地区農村集落センター",
"Jusho":"福岡県八女市星野村2685番地1",
"Capacity":"－",
"la":"33.25913200000",
"ln":"130.71395600000"
},
"geometry":{
"type":"Point",
"coordinates":[
130.713956,
33.259132
]
}
},
{
"type":"Feature",
"properties":{
"Name":"東公民館",
"Jusho":"福岡県八女市山内389番地5",
"Capacity":"－",
"la":"33.22070699910",
"ln":"130.60691900000"
},
"geometry":{
"type":"Point",
"coordinates":[
130.606919,
33.2207069991
]
}
},
{
"type":"Feature",
"properties":{
"Name":"東山地域ふれあいセンター",
"Jusho":"福岡県八女市上陽町上横山3484番地1",
"Capacity":"－",
"la":"33.28980100000",
"ln":"130.68344400000"
},
"geometry":{
"type":"Point",
"coordinates":[
130.683444,
33.289801
]
}
},
{
"type":"Feature",
"properties":{
"Name":"日出地区集会所",
"Jusho":"福岡県八女市矢部村北矢部1589番地",
"Capacity":"－",
"la":"33.18020600000",
"ln":"130.82351900000"
},
"geometry":{
"type":"Point",
"coordinates":[
130.823519,
33.180206
]
}
},
{
"type":"Feature",
"properties":{
"Name":"農村婦人の家",
"Jusho":"福岡県八女市上陽町久木原1928番地1",
"Capacity":"－",
"la":"33.25228600000",
"ln":"130.68367600000"
},
"geometry":{
"type":"Point",
"coordinates":[
130.683676,
33.252286
]
}
},
{
"type":"Feature",
"properties":{
"Name":"八女市研修センター",
"Jusho":"福岡県八女市上陽町上横山4906番地1",
"Capacity":"－",
"la":"33.27350799910",
"ln":"130.67263300000"
},
"geometry":{
"type":"Point",
"coordinates":[
130.672633,
33.2735079991
]
}
},
{
"type":"Feature",
"properties":{
"Name":"八女市黒木体育センター",
"Jusho":"福岡県八女市黒木町今2318番地1",
"Capacity":"－",
"la":"33.21451200000",
"ln":"130.66945900000"
},
"geometry":{
"type":"Point",
"coordinates":[
130.669459,
33.214512
]
}
},
{
"type":"Feature",
"properties":{
"Name":"八女市黒木体育館",
"Jusho":"福岡県八女市黒木町桑原212番地1",
"Capacity":"－",
"la":"33.21090900000",
"ln":"130.66812500000"
},
"geometry":{
"type":"Point",
"coordinates":[
130.668125,
33.210909
]
}
},
{
"type":"Feature",
"properties":{
"Name":"八女市総合体育館",
"Jusho":"福岡県八女市馬場434番地",
"Capacity":"－",
"la":"33.20906500000",
"ln":"130.56882100000"
},
"geometry":{
"type":"Point",
"coordinates":[
130.568821,
33.209065
]
}
},
{
"type":"Feature",
"properties":{
"Name":"八女市白木コミュニティセンター",
"Jusho":"福岡県八女市立花町白木5583番地1",
"Capacity":"－",
"la":"33.14660900000",
"ln":"130.56258700000"
},
"geometry":{
"type":"Point",
"coordinates":[
130.562587,
33.146609
]
}
},
{
"type":"Feature",
"properties":{
"Name":"八女市辺春コミュニティセンター",
"Jusho":"福岡県八女市立花町上辺春294番地2",
"Capacity":"－",
"la":"33.14984800000",
"ln":"130.61831100000"
},
"geometry":{
"type":"Point",
"coordinates":[
130.618311,
33.149848
]
}
},
{
"type":"Feature",
"properties":{
"Name":"八女市北山コミュニティセンター",
"Jusho":"福岡県八女市立花町北山2692番地",
"Capacity":"－",
"la":"33.18145899910",
"ln":"130.56183300000"
},
"geometry":{
"type":"Point",
"coordinates":[
130.561833,
33.1814589991
]
}
},
{
"type":"Feature",
"properties":{
"Name":"八女市民会館",
"Jusho":"福岡県八女市本町586番地",
"Capacity":"－",
"la":"33.21144200000",
"ln":"130.55712500000"
},
"geometry":{
"type":"Point",
"coordinates":[
130.557125,
33.211442
]
}
},
{
"type":"Feature",
"properties":{
"Name":"八女市矢部基幹集落センター",
"Jusho":"福岡県八女市矢部村北矢部10977番地1",
"Capacity":"－",
"la":"33.15245800000",
"ln":"130.81611200000"
},
"geometry":{
"type":"Point",
"coordinates":[
130.816112,
33.152458
]
}
},
{
"type":"Feature",
"properties":{
"Name":"八女市矢部公民館",
"Jusho":"福岡県八女市矢部村北矢部10528番地",
"Capacity":"－",
"la":"33.15046700000",
"ln":"130.82090100000"
},
"geometry":{
"type":"Point",
"coordinates":[
130.820901,
33.150467
]
}
},
{
"type":"Feature",
"properties":{
"Name":"八女市矢部高齢者生活福祉センター",
"Jusho":"福岡県八女市矢部村矢部字4058番地1",
"Capacity":"－",
"la":"33.14498900090",
"ln":"130.82779200000"
},
"geometry":{
"type":"Point",
"coordinates":[
130.827792,
33.1449890009
]
}
},
{
"type":"Feature",
"properties":{
"Name":"八女市矢部多目的交流ホール",
"Jusho":"福岡県八女市矢部村北矢部11075番地",
"Capacity":"－",
"la":"33.15407200000",
"ln":"130.81589700000"
},
"geometry":{
"type":"Point",
"coordinates":[
130.815897,
33.154072
]
}
},
{
"type":"Feature",
"properties":{
"Name":"八女市矢部体育館",
"Jusho":"福岡県八女市矢部村北矢部字鬼塚（河川敷）",
"Capacity":"－",
"la":"33.15587100000",
"ln":"130.81010700000"
},
"geometry":{
"type":"Point",
"coordinates":[
130.810107,
33.155871
]
}
},
{
"type":"Feature",
"properties":{
"Name":"八女市役所会議室",
"Jusho":"福岡県八女市本町647番地",
"Capacity":"－",
"la":"33.21183099910",
"ln":"130.55788800000"
},
"geometry":{
"type":"Point",
"coordinates":[
130.557888,
33.2118309991
]
}
},
{
"type":"Feature",
"properties":{
"Name":"八女市立花交流センター",
"Jusho":"福岡県八女市立花町兼松696番地",
"Capacity":"－",
"la":"33.19814700000",
"ln":"130.60032100000"
},
"geometry":{
"type":"Point",
"coordinates":[
130.600321,
33.198147
]
}
},
{
"type":"Feature",
"properties":{
"Name":"八女市立花市民センター",
"Jusho":"福岡県八女市立花町原島108番地1",
"Capacity":"－",
"la":"33.20281020100",
"ln":"130.58821037900"
},
"geometry":{
"type":"Point",
"coordinates":[
130.588210379,
33.202810201
]
}
},
{
"type":"Feature",
"properties":{
"Name":"八女市立花体育館",
"Jusho":"福岡県八女市立花町谷川1130番地",
"Capacity":"－",
"la":"33.20250000000",
"ln":"130.59056000000"
},
"geometry":{
"type":"Point",
"coordinates":[
130.59056,
33.2025
]
}
},
{
"type":"Feature",
"properties":{
"Name":"八女市立花隣保館",
"Jusho":"福岡県八女市立花町山崎2522番地1",
"Capacity":"－",
"la":"33.20271400000",
"ln":"130.57372200000"
},
"geometry":{
"type":"Point",
"coordinates":[
130.573722,
33.202714
]
}
},
{
"type":"Feature",
"properties":{
"Name":"八女津媛浮立館",
"Jusho":"福岡県八女市矢部村北矢部3976番地",
"Capacity":"－",
"la":"33.15737161360",
"ln":"130.82024472200"
},
"geometry":{
"type":"Point",
"coordinates":[
130.820244722,
33.1573716136
]
}
},
{
"type":"Feature",
"properties":{
"Name":"八女文化会館",
"Jusho":"福岡県八女市本町537番地2",
"Capacity":"－",
"la":"33.21103100000",
"ln":"130.55573900000"
},
"geometry":{
"type":"Point",
"coordinates":[
130.555739,
33.211031
]
}
},
{
"type":"Feature",
"properties":{
"Name":"飯干地区集会所",
"Jusho":"福岡県八女市矢部村矢部字飯干（河川敷）",
"Capacity":"－",
"la":"33.15537700000",
"ln":"130.80008000000"
},
"geometry":{
"type":"Point",
"coordinates":[
130.80008,
33.155377
]
}
},
{
"type":"Feature",
"properties":{
"Name":"飯塚生活改善センター",
"Jusho":"福岡県八女市上横山5522番地1",
"Capacity":"－",
"la":"33.28272700000",
"ln":"130.66396900000"
},
"geometry":{
"type":"Point",
"coordinates":[
130.663969,
33.282727
]
}
},
{
"type":"Feature",
"properties":{
"Name":"平野ふれあいセンター",
"Jusho":"福岡県八女市黒木町北大淵1734番地2",
"Capacity":"－",
"la":"33.18997907320",
"ln":"130.77800073300"
},
"geometry":{
"type":"Point",
"coordinates":[
130.778000733,
33.1899790732
]
}
},
{
"type":"Feature",
"properties":{
"Name":"豊岡コミュニティセンター",
"Jusho":"福岡県八女市黒木町本分1590番地2",
"Capacity":"－",
"la":"33.21070274290",
"ln":"130.64703819400"
},
"geometry":{
"type":"Point",
"coordinates":[
130.647038194,
33.2107027429
]
}
},
{
"type":"Feature",
"properties":{
"Name":"本星野農事集会所",
"Jusho":"福岡県八女市星野村10427番地1",
"Capacity":"－",
"la":"33.25224800000",
"ln":"130.74067900000"
},
"geometry":{
"type":"Point",
"coordinates":[
130.740679,
33.252248
]
}
},
{
"type":"Feature",
"properties":{
"Name":"椋谷地域交流センター",
"Jusho":"福岡県八女市星野村6294番地1",
"Capacity":"－",
"la":"33.27019500000",
"ln":"130.73445500000"
},
"geometry":{
"type":"Point",
"coordinates":[
130.734455,
33.270195
]
}
},
{
"type":"Feature",
"properties":{
"Name":"木屋農村環境改善センター",
"Jusho":"福岡県八女市黒木町北木屋2351番地",
"Capacity":"－",
"la":"33.20891459490",
"ln":"130.70356763100"
},
"geometry":{
"type":"Point",
"coordinates":[
130.703567631,
33.2089145949
]
}
},
{
"type":"Feature",
"properties":{
"Name":"立花活性化センター",
"Jusho":"福岡県八女市立花町下辺春331番地",
"Capacity":"－",
"la":"33.18726957310",
"ln":"130.61053101000"
},
"geometry":{
"type":"Point",
"coordinates":[
130.61053101,
33.1872695731
]
}
},
{
"type":"Feature",
"properties":{
"Name":"隣保館",
"Jusho":"福岡県八女市川犬1519番地",
"Capacity":"－",
"la":"33.19139200000",
"ln":"130.52807300000"
},
"geometry":{
"type":"Point",
"coordinates":[
130.528073,
33.191392
]
}
},
{
"type":"Feature",
"properties":{
"Name":"鶯西ふれあいセンター",
"Jusho":"福岡県八女市黒木町木屋6079番地",
"Capacity":"－",
"la":"33.17591543080",
"ln":"130.69742705800"
},
"geometry":{
"type":"Point",
"coordinates":[
130.697427058,
33.1759154308
]
}
},
{
"type":"Feature",
"properties":{
"Name":"寛元寺公民館",
"Jusho":"福岡県筑後市大字西牟田3980番地",
"Capacity":"－",
"la":"33.23904100000",
"ln":"130.48126000000"
},
"geometry":{
"type":"Point",
"coordinates":[
130.48126,
33.239041
]
}
},
{
"type":"Feature",
"properties":{
"Name":"勤労者家庭支援施設（サンコア）",
"Jusho":"福岡県筑後市山ノ井899番地",
"Capacity":"－",
"la":"33.21189322910",
"ln":"130.50306389800"
},
"geometry":{
"type":"Point",
"coordinates":[
130.503063898,
33.2118932291
]
}
},
{
"type":"Feature",
"properties":{
"Name":"水田コミュニティセンター",
"Jusho":"福岡県筑後市大字下北島150番地",
"Capacity":"－",
"la":"33.19817100000",
"ln":"130.48752500000"
},
"geometry":{
"type":"Point",
"coordinates":[
130.487525,
33.198171
]
}
},
{
"type":"Feature",
"properties":{
"Name":"総合福祉センター",
"Jusho":"福岡県筑後市野町680番地の1",
"Capacity":"－",
"la":"33.19880399910",
"ln":"130.50031000000"
},
"geometry":{
"type":"Point",
"coordinates":[
130.50031,
33.1988039991
]
}
},
{
"type":"Feature",
"properties":{
"Name":"ふれあいの家",
"Jusho":"福岡県大川市大野島2930",
"Capacity":"186",
"la":"33.19304800000",
"ln":"130.35247600000"
},
"geometry":{
"type":"Point",
"coordinates":[
130.352476,
33.193048
]
}
},
{
"type":"Feature",
"properties":{
"Name":"勤労者総合福祉センター",
"Jusho":"福岡県大川市小保614-6",
"Capacity":"215",
"la":"33.20545924420",
"ln":"130.36743986900"
},
"geometry":{
"type":"Point",
"coordinates":[
130.367439869,
33.2054592442
]
}
},
{
"type":"Feature",
"properties":{
"Name":"勤労青少年ホーム",
"Jusho":"福岡県大川市小保614-6",
"Capacity":"157",
"la":"33.20579980690",
"ln":"130.36739530400"
},
"geometry":{
"type":"Point",
"coordinates":[
130.367395304,
33.2057998069
]
}
},
{
"type":"Feature",
"properties":{
"Name":"国際医療福祉大学",
"Jusho":"福岡県大川市榎津137－",
"Capacity":"287",
"la":"33.20406499910",
"ln":"130.38000400000"
},
"geometry":{
"type":"Point",
"coordinates":[
130.380004,
33.2040649991
]
}
},
{
"type":"Feature",
"properties":{
"Name":"三又コミュニティセンター",
"Jusho":"福岡県大川市中古賀208－",
"Capacity":"83",
"la":"33.23048700000",
"ln":"130.38826500000"
},
"geometry":{
"type":"Point",
"coordinates":[
130.388265,
33.230487
]
}
},
{
"type":"Feature",
"properties":{
"Name":"小保団地集会場",
"Jusho":"福岡県大川市小保470-8",
"Capacity":"17",
"la":"33.20348123920",
"ln":"130.36411194500"
},
"geometry":{
"type":"Point",
"coordinates":[
130.364111945,
33.2034812392
]
}
},
{
"type":"Feature",
"properties":{
"Name":"川口コミュニティセンター",
"Jusho":"福岡県大川市一木721",
"Capacity":"101",
"la":"33.19113800000",
"ln":"130.36589900000"
},
"geometry":{
"type":"Point",
"coordinates":[
130.365899,
33.191138
]
}
},
{
"type":"Feature",
"properties":{
"Name":"大川コミュニティセンター",
"Jusho":"福岡県大川市向島1855-2",
"Capacity":"146",
"la":"33.21067300000",
"ln":"130.37158500000"
},
"geometry":{
"type":"Point",
"coordinates":[
130.371585,
33.210673
]
}
},
{
"type":"Feature",
"properties":{
"Name":"大川市水処理センター",
"Jusho":"福岡県大川市小保335",
"Capacity":"28700",
"la":"33.20226516850",
"ln":"130.36773746400"
},
"geometry":{
"type":"Point",
"coordinates":[
130.367737464,
33.2022651685
]
}
},
{
"type":"Feature",
"properties":{
"Name":"大川樟風高校",
"Jusho":"福岡県大川市向島1382",
"Capacity":"416",
"la":"33.21077100000",
"ln":"130.37762500000"
},
"geometry":{
"type":"Point",
"coordinates":[
130.377625,
33.210771
]
}
},
{
"type":"Feature",
"properties":{
"Name":"大野島コミュニティセンター",
"Jusho":"福岡県大川市大野島2812",
"Capacity":"102",
"la":"33.19417300000",
"ln":"130.35333400000"
},
"geometry":{
"type":"Point",
"coordinates":[
130.353334,
33.194173
]
}
},
{
"type":"Feature",
"properties":{
"Name":"田口コミュニティセンター",
"Jusho":"福岡県大川市三丸405-4",
"Capacity":"100",
"la":"33.19533500000",
"ln":"130.38874900000"
},
"geometry":{
"type":"Point",
"coordinates":[
130.388749,
33.195335
]
}
},
{
"type":"Feature",
"properties":{
"Name":"道海島公民館",
"Jusho":"福岡県大川市道海島547",
"Capacity":"63",
"la":"33.23712600000",
"ln":"130.37692900000"
},
"geometry":{
"type":"Point",
"coordinates":[
130.376929,
33.237126
]
}
},
{
"type":"Feature",
"properties":{
"Name":"木室コミュニティセンター",
"Jusho":"福岡県大川市中八院1465",
"Capacity":"144",
"la":"33.21282500000",
"ln":"130.40562500000"
},
"geometry":{
"type":"Point",
"coordinates":[
130.405625,
33.212825
]
}
},
{
"type":"Feature",
"properties":{
"Name":"老人福祉センター",
"Jusho":"福岡県大川市酒見221－1",
"Capacity":"49",
"la":"33.20541416430",
"ln":"130.38236623900"
},
"geometry":{
"type":"Point",
"coordinates":[
130.382366239,
33.2054141643
]
}
},
{
"type":"Feature",
"properties":{
"Name":"ウィズゆくはし",
"Jusho":"福岡県行橋市大字中津熊501番地",
"Capacity":"－",
"la":"33.72966100000",
"ln":"130.96324600000"
},
"geometry":{
"type":"Point",
"coordinates":[
130.963246,
33.729661
]
}
},
{
"type":"Feature",
"properties":{
"Name":"延永公民館",
"Jusho":"福岡県行橋市大字上津熊76番地1",
"Capacity":"－",
"la":"33.72955199910",
"ln":"130.95391700000"
},
"geometry":{
"type":"Point",
"coordinates":[
130.953917,
33.7295519991
]
}
},
{
"type":"Feature",
"properties":{
"Name":"行橋市中央公民館",
"Jusho":"福岡県行橋市大橋一丁目9番26号",
"Capacity":"－",
"la":"33.73043299910",
"ln":"130.98008700000"
},
"geometry":{
"type":"Point",
"coordinates":[
130.980087,
33.7304329991
]
}
},
{
"type":"Feature",
"properties":{
"Name":"行橋市武道館",
"Jusho":"福岡県行橋市大字今井3770番地",
"Capacity":"－",
"la":"33.73664000000",
"ln":"131.01395200000"
},
"geometry":{
"type":"Point",
"coordinates":[
131.013952,
33.73664
]
}
},
{
"type":"Feature",
"properties":{
"Name":"行橋市民体育館",
"Jusho":"福岡県行橋市大字今井3759番地",
"Capacity":"－",
"la":"33.73723200000",
"ln":"131.01347000000"
},
"geometry":{
"type":"Point",
"coordinates":[
131.01347,
33.737232
]
}
},
{
"type":"Feature",
"properties":{
"Name":"行橋南公民館",
"Jusho":"福岡県行橋市南大橋二丁目3番27号",
"Capacity":"－",
"la":"33.72612000000",
"ln":"130.98327300000"
},
"geometry":{
"type":"Point",
"coordinates":[
130.983273,
33.72612
]
}
},
{
"type":"Feature",
"properties":{
"Name":"行橋北公民館",
"Jusho":"福岡県行橋市行事三丁目17番50号",
"Capacity":"－",
"la":"33.73986000000",
"ln":"130.97200700000"
},
"geometry":{
"type":"Point",
"coordinates":[
130.972007,
33.73986
]
}
},
{
"type":"Feature",
"properties":{
"Name":"今元公民館",
"Jusho":"福岡県行橋市大字今井2092番地1",
"Capacity":"－",
"la":"33.72543500000",
"ln":"131.00374300000"
},
"geometry":{
"type":"Point",
"coordinates":[
131.003743,
33.725435
]
}
},
{
"type":"Feature",
"properties":{
"Name":"今川公民館",
"Jusho":"福岡県行橋市大字寺畔41番地2",
"Capacity":"－",
"la":"33.70795500000",
"ln":"130.95944200000"
},
"geometry":{
"type":"Point",
"coordinates":[
130.959442,
33.707955
]
}
},
{
"type":"Feature",
"properties":{
"Name":"泉公民館",
"Jusho":"福岡県行橋市西泉四丁目2番1号",
"Capacity":"－",
"la":"33.70902400000",
"ln":"130.97536000000"
},
"geometry":{
"type":"Point",
"coordinates":[
130.97536,
33.709024
]
}
},
{
"type":"Feature",
"properties":{
"Name":"地域ケア複合センター",
"Jusho":"福岡県行橋市大字金屋599番地1",
"Capacity":"－",
"la":"33.73367000000",
"ln":"130.99589900000"
},
"geometry":{
"type":"Point",
"coordinates":[
130.995899,
33.73367
]
}
},
{
"type":"Feature",
"properties":{
"Name":"仲津公民館",
"Jusho":"福岡県行橋市大字道場寺1517番地1",
"Capacity":"－",
"la":"33.69630700000",
"ln":"131.00968500000"
},
"geometry":{
"type":"Point",
"coordinates":[
131.009685,
33.696307
]
}
},
{
"type":"Feature",
"properties":{
"Name":"椿市公民館",
"Jusho":"福岡県行橋市大字長尾494番地1",
"Capacity":"－",
"la":"33.73616800000",
"ln":"130.92187100000"
},
"geometry":{
"type":"Point",
"coordinates":[
130.921871,
33.736168
]
}
},
{
"type":"Feature",
"properties":{
"Name":"稗田公民館",
"Jusho":"福岡県行橋市大字前田352番地1",
"Capacity":"－",
"la":"33.70132884730",
"ln":"130.94647689500"
},
"geometry":{
"type":"Point",
"coordinates":[
130.946476895,
33.7013288473
]
}
},
{
"type":"Feature",
"properties":{
"Name":"宇島公民館",
"Jusho":"福岡県豊前市大字赤熊484－",
"Capacity":"－",
"la":"33.62148800000",
"ln":"131.13658100000"
},
"geometry":{
"type":"Point",
"coordinates":[
131.136581,
33.621488
]
}
},
{
"type":"Feature",
"properties":{
"Name":"横武公民館（コミュニティセンター）",
"Jusho":"福岡県豊前市大字薬師寺70-3",
"Capacity":"－",
"la":"33.57893800000",
"ln":"131.11839400000"
},
"geometry":{
"type":"Point",
"coordinates":[
131.118394,
33.578938
]
}
},
{
"type":"Feature",
"properties":{
"Name":"角田公民館",
"Jusho":"福岡県豊前市大字中村412-2",
"Capacity":"－",
"la":"33.62481700000",
"ln":"131.08602400000"
},
"geometry":{
"type":"Point",
"coordinates":[
131.086024,
33.624817
]
}
},
{
"type":"Feature",
"properties":{
"Name":"岩屋公民館（活性化センター）",
"Jusho":"福岡県豊前市大字大河内301-3",
"Capacity":"－",
"la":"33.55739400000",
"ln":"131.06445800000"
},
"geometry":{
"type":"Point",
"coordinates":[
131.064458,
33.557394
]
}
},
{
"type":"Feature",
"properties":{
"Name":"求菩提温泉卜仙の郷",
"Jusho":"福岡県豊前市大字篠瀬57-2",
"Capacity":"－",
"la":"33.55265063490",
"ln":"131.02805460800"
},
"geometry":{
"type":"Point",
"coordinates":[
131.028054608,
33.5526506349
]
}
},
{
"type":"Feature",
"properties":{
"Name":"合河公民館",
"Jusho":"福岡県豊前市大字下川底304－",
"Capacity":"－",
"la":"33.55894333380",
"ln":"131.09301860400"
},
"geometry":{
"type":"Point",
"coordinates":[
131.093018604,
33.5589433338
]
}
},
{
"type":"Feature",
"properties":{
"Name":"黒土公民館（学習等供用施設）",
"Jusho":"福岡県豊前市大字久路土1180－",
"Capacity":"－",
"la":"33.59273200000",
"ln":"131.13645900000"
},
"geometry":{
"type":"Point",
"coordinates":[
131.136459,
33.592732
]
}
},
{
"type":"Feature",
"properties":{
"Name":"三毛門公民館（学習等供用施設）",
"Jusho":"福岡県豊前市大字三毛門914-4",
"Capacity":"－",
"la":"33.61093100000",
"ln":"131.15353000000"
},
"geometry":{
"type":"Point",
"coordinates":[
131.15353,
33.610931
]
}
},
{
"type":"Feature",
"properties":{
"Name":"山田公民館（学習等供用施設）",
"Jusho":"福岡県豊前市大字四郎丸263",
"Capacity":"－",
"la":"33.60530899910",
"ln":"131.10087100000"
},
"geometry":{
"type":"Point",
"coordinates":[
131.100871,
33.6053089991
]
}
},
{
"type":"Feature",
"properties":{
"Name":"千束公民館",
"Jusho":"福岡県豊前市大字千束167",
"Capacity":"－",
"la":"33.60160300000",
"ln":"131.12729200000"
},
"geometry":{
"type":"Point",
"coordinates":[
131.127292,
33.601603
]
}
},
{
"type":"Feature",
"properties":{
"Name":"多目的文化交流センター",
"Jusho":"福岡県豊前市大字八屋1776-2",
"Capacity":"－",
"la":"33.61462253610",
"ln":"131.12872139100"
},
"geometry":{
"type":"Point",
"coordinates":[
131.128721391,
33.6146225361
]
}
},
{
"type":"Feature",
"properties":{
"Name":"大村公民館（学習等供用施設）",
"Jusho":"福岡県豊前市大字大村1780",
"Capacity":"－",
"la":"33.60286699910",
"ln":"131.11173600000"
},
"geometry":{
"type":"Point",
"coordinates":[
131.111736,
33.6028669991
]
}
},
{
"type":"Feature",
"properties":{
"Name":"中央公民館",
"Jusho":"福岡県豊前市大字八屋1860",
"Capacity":"－",
"la":"33.61823900000",
"ln":"131.12721900000"
},
"geometry":{
"type":"Point",
"coordinates":[
131.127219,
33.618239
]
}
},
{
"type":"Feature",
"properties":{
"Name":"道の駅豊前おこしかけ",
"Jusho":"福岡県豊前市大字四郎丸1041－",
"Capacity":"－",
"la":"33.61400991920",
"ln":"131.10100575300"
},
"geometry":{
"type":"Point",
"coordinates":[
131.101005753,
33.6140099192
]
}
},
{
"type":"Feature",
"properties":{
"Name":"八屋公民館",
"Jusho":"福岡県豊前市大字八屋1381-4",
"Capacity":"－",
"la":"33.61566999910",
"ln":"131.11829700000"
},
"geometry":{
"type":"Point",
"coordinates":[
131.118297,
33.6156699991
]
}
},
{
"type":"Feature",
"properties":{
"Name":"豊前市民体育館及び武道館",
"Jusho":"福岡県豊前市大字八屋322-27",
"Capacity":"－",
"la":"33.61855399910",
"ln":"131.11120500000"
},
"geometry":{
"type":"Point",
"coordinates":[
131.111205,
33.6185539991
]
}
},
{
"type":"Feature",
"properties":{
"Name":"豊前市役所",
"Jusho":"福岡県豊前市大字吉木955",
"Capacity":"－",
"la":"33.61152400000",
"ln":"131.13027600000"
},
"geometry":{
"type":"Point",
"coordinates":[
131.130276,
33.611524
]
}
},
{
"type":"Feature",
"properties":{
"Name":"希望が丘高等学校",
"Jusho":"福岡県中間市土手ノ内3－9－",
"Capacity":"－",
"la":"33.80896700000",
"ln":"130.71469600000"
},
"geometry":{
"type":"Point",
"coordinates":[
130.714696,
33.808967
]
}
},
{
"type":"Feature",
"properties":{
"Name":"体育文化センター",
"Jusho":"福岡県中間市蓮花寺3－-5",
"Capacity":"－",
"la":"33.82677900000",
"ln":"130.71693100000"
},
"geometry":{
"type":"Point",
"coordinates":[
130.716931,
33.826779
]
}
},
{
"type":"Feature",
"properties":{
"Name":"のぞみがおか生楽館",
"Jusho":"福岡県小郡市希みが丘5-2－7",
"Capacity":"－",
"la":"33.43719000000",
"ln":"130.54566200000"
},
"geometry":{
"type":"Point",
"coordinates":[
130.545662,
33.43719
]
}
},
{
"type":"Feature",
"properties":{
"Name":"御原校区公民館",
"Jusho":"福岡県小郡市稲吉437－1",
"Capacity":"－",
"la":"33.37817400000",
"ln":"130.57257600000"
},
"geometry":{
"type":"Point",
"coordinates":[
130.572576,
33.378174
]
}
},
{
"type":"Feature",
"properties":{
"Name":"三井高等学校",
"Jusho":"福岡県小郡市松崎650",
"Capacity":"－",
"la":"33.39592400000",
"ln":"130.58077100000"
},
"geometry":{
"type":"Point",
"coordinates":[
130.580771,
33.395924
]
}
},
{
"type":"Feature",
"properties":{
"Name":"三国校区公民館",
"Jusho":"福岡県小郡市三沢4196－",
"Capacity":"－",
"la":"33.42416299910",
"ln":"130.56294700000"
},
"geometry":{
"type":"Point",
"coordinates":[
130.562947,
33.4241629991
]
}
},
{
"type":"Feature",
"properties":{
"Name":"市民館",
"Jusho":"福岡県小郡市下岩田2108-3",
"Capacity":"－",
"la":"33.38981099910",
"ln":"130.58727100000"
},
"geometry":{
"type":"Point",
"coordinates":[
130.587271,
33.3898109991
]
}
},
{
"type":"Feature",
"properties":{
"Name":"小郡交流センター（旧老人福祉センター）",
"Jusho":"福岡県小郡市寺福童859-51",
"Capacity":"－",
"la":"33.38844200000",
"ln":"130.54802300000"
},
"geometry":{
"type":"Point",
"coordinates":[
130.548023,
33.388442
]
}
},
{
"type":"Feature",
"properties":{
"Name":"小郡高等学校",
"Jusho":"福岡県小郡市三沢5128－",
"Capacity":"－",
"la":"33.43442000000",
"ln":"130.56077200000"
},
"geometry":{
"type":"Point",
"coordinates":[
130.560772,
33.43442
]
}
},
{
"type":"Feature",
"properties":{
"Name":"小郡市生涯学習センター",
"Jusho":"福岡県小郡市大板井1180－",
"Capacity":"－",
"la":"33.39715200000",
"ln":"130.56356500000"
},
"geometry":{
"type":"Point",
"coordinates":[
130.563565,
33.397152
]
}
},
{
"type":"Feature",
"properties":{
"Name":"大崎教育集会所",
"Jusho":"福岡県小郡市稲吉1338-8",
"Capacity":"－",
"la":"33.39136400000",
"ln":"130.55532200000"
},
"geometry":{
"type":"Point",
"coordinates":[
130.555322,
33.391364
]
}
},
{
"type":"Feature",
"properties":{
"Name":"東野校区公民館",
"Jusho":"福岡県小郡市三沢83－",
"Capacity":"－",
"la":"33.41421200000",
"ln":"130.55613200000"
},
"geometry":{
"type":"Point",
"coordinates":[
130.556132,
33.414212
]
}
},
{
"type":"Feature",
"properties":{
"Name":"二夕集会所",
"Jusho":"福岡県小郡市二夕1451",
"Capacity":"－",
"la":"33.38358800000",
"ln":"130.57246700000"
},
"geometry":{
"type":"Point",
"coordinates":[
130.572467,
33.383588
]
}
},
{
"type":"Feature",
"properties":{
"Name":"味坂校区公民館",
"Jusho":"福岡県小郡市下西鯵坂253－",
"Capacity":"－",
"la":"33.36600399910",
"ln":"130.55933600000"
},
"geometry":{
"type":"Point",
"coordinates":[
130.559336,
33.3660039991
]
}
},
{
"type":"Feature",
"properties":{
"Name":"立石校区公民館",
"Jusho":"福岡県小郡市干潟2056－",
"Capacity":"－",
"la":"33.41172300000",
"ln":"130.58358500000"
},
"geometry":{
"type":"Point",
"coordinates":[
130.583585,
33.411723
]
}
},
{
"type":"Feature",
"properties":{
"Name":"ちくしヶ丘公民館",
"Jusho":"福岡県筑紫野市",
"Capacity":"－",
"la":"33.45859611910",
"ln":"130.54675931900"
},
"geometry":{
"type":"Point",
"coordinates":[
130.546759319,
33.4585961191
]
}
},
{
"type":"Feature",
"properties":{
"Name":"筑紫公民館ちくし台分館",
"Jusho":"福岡県筑紫野市",
"Capacity":"－",
"la":"33.46316071180",
"ln":"130.54325929600"
},
"geometry":{
"type":"Point",
"coordinates":[
130.543259296,
33.4631607118
]
}
},
{
"type":"Feature",
"properties":{
"Name":"パピリオン葉光",
"Jusho":"福岡県筑紫野市",
"Capacity":"－",
"la":"33.51578912060",
"ln":"130.56444998600"
},
"geometry":{
"type":"Point",
"coordinates":[
130.564449986,
33.5157891206
]
}
},
{
"type":"Feature",
"properties":{
"Name":"みかさ台公民館",
"Jusho":"福岡県筑紫野市吉木2331-28",
"Capacity":"－",
"la":"33.51162792840",
"ln":"130.55198047900"
},
"geometry":{
"type":"Point",
"coordinates":[
130.551980479,
33.5116279284
]
}
},
{
"type":"Feature",
"properties":{
"Name":"むさしヶ丘団地公民館",
"Jusho":"福岡県筑紫野市",
"Capacity":"－",
"la":"33.47123326050",
"ln":"130.52550076800"
},
"geometry":{
"type":"Point",
"coordinates":[
130.525500768,
33.4712332605
]
}
},
{
"type":"Feature",
"properties":{
"Name":"旭東（旭町・東町）公民館",
"Jusho":"福岡県筑紫野市",
"Capacity":"－",
"la":"33.49293501360",
"ln":"130.52162546400"
},
"geometry":{
"type":"Point",
"coordinates":[
130.521625464,
33.4929350136
]
}
},
{
"type":"Feature",
"properties":{
"Name":"永岡公民館",
"Jusho":"福岡県筑紫野市",
"Capacity":"－",
"la":"33.47728270030",
"ln":"130.54215536200"
},
"geometry":{
"type":"Point",
"coordinates":[
130.542155362,
33.4772827003
]
}
},
{
"type":"Feature",
"properties":{
"Name":"永岡隣保館",
"Jusho":"福岡県筑紫野市永岡896－",
"Capacity":"－",
"la":"33.47500999910",
"ln":"130.53747500000"
},
"geometry":{
"type":"Point",
"coordinates":[
130.537475,
33.4750099991
]
}
},
{
"type":"Feature",
"properties":{
"Name":"岡田公民館",
"Jusho":"福岡県筑紫野市",
"Capacity":"－",
"la":"33.47403708600",
"ln":"130.55735429000"
},
"geometry":{
"type":"Point",
"coordinates":[
130.55735429,
33.474037086
]
}
},
{
"type":"Feature",
"properties":{
"Name":"岡田隣保館",
"Jusho":"福岡県筑紫野市岡田1-24-2",
"Capacity":"－",
"la":"33.47270900000",
"ln":"130.55362500000"
},
"geometry":{
"type":"Point",
"coordinates":[
130.553625,
33.472709
]
}
},
{
"type":"Feature",
"properties":{
"Name":"下阿志岐公民館",
"Jusho":"福岡県筑紫野市",
"Capacity":"－",
"la":"33.48821465540",
"ln":"130.55319889900"
},
"geometry":{
"type":"Point",
"coordinates":[
130.553198899,
33.4882146554
]
}
},
{
"type":"Feature",
"properties":{
"Name":"下見一公民館",
"Jusho":"福岡県筑紫野市",
"Capacity":"－",
"la":"33.46519500000",
"ln":"130.55764486900"
},
"geometry":{
"type":"Point",
"coordinates":[
130.557644869,
33.465195
]
}
},
{
"type":"Feature",
"properties":{
"Name":"下見隣保館",
"Jusho":"福岡県筑紫野市",
"Capacity":"－",
"la":"33.46243700090",
"ln":"130.55825400000"
},
"geometry":{
"type":"Point",
"coordinates":[
130.558254,
33.4624370009
]
}
},
{
"type":"Feature",
"properties":{
"Name":"宮の森公民館",
"Jusho":"福岡県筑紫野市",
"Capacity":"－",
"la":"33.51619859790",
"ln":"130.54189111600"
},
"geometry":{
"type":"Point",
"coordinates":[
130.541891116,
33.5161985979
]
}
},
{
"type":"Feature",
"properties":{
"Name":"宮田公民館",
"Jusho":"福岡県筑紫野市",
"Capacity":"－",
"la":"33.50158842580",
"ln":"130.52138485500"
},
"geometry":{
"type":"Point",
"coordinates":[
130.521384855,
33.5015884258
]
}
},
{
"type":"Feature",
"properties":{
"Name":"牛島公民館",
"Jusho":"福岡県筑紫野市",
"Capacity":"－",
"la":"33.48790256660",
"ln":"130.54224297900"
},
"geometry":{
"type":"Point",
"coordinates":[
130.542242979,
33.4879025666
]
}
},
{
"type":"Feature",
"properties":{
"Name":"京町教育集会所",
"Jusho":"福岡県筑紫野市",
"Capacity":"－",
"la":"33.50307199910",
"ln":"130.52226200000"
},
"geometry":{
"type":"Point",
"coordinates":[
130.522262,
33.5030719991
]
}
},
{
"type":"Feature",
"properties":{
"Name":"京町公民館",
"Jusho":"福岡県筑紫野市",
"Capacity":"－",
"la":"33.50302600000",
"ln":"130.52340800000"
},
"geometry":{
"type":"Point",
"coordinates":[
130.523408,
33.503026
]
}
},
{
"type":"Feature",
"properties":{
"Name":"勤労青少年ホーム",
"Jusho":"福岡県筑紫野市諸田169",
"Capacity":"－",
"la":"33.46851400000",
"ln":"130.54365100000"
},
"geometry":{
"type":"Point",
"coordinates":[
130.543651,
33.468514
]
}
},
{
"type":"Feature",
"properties":{
"Name":"隈公民館",
"Jusho":"福岡県筑紫野市隈177－",
"Capacity":"－",
"la":"33.45327848390",
"ln":"130.55804084100"
},
"geometry":{
"type":"Point",
"coordinates":[
130.558040841,
33.4532784839
]
}
},
{
"type":"Feature",
"properties":{
"Name":"原公民館",
"Jusho":"福岡県筑紫野市",
"Capacity":"－",
"la":"33.51614106980",
"ln":"130.54758530400"
},
"geometry":{
"type":"Point",
"coordinates":[
130.547585304,
33.5161410698
]
}
},
{
"type":"Feature",
"properties":{
"Name":"原田公民館",
"Jusho":"福岡県筑紫野市",
"Capacity":"－",
"la":"33.44961974750",
"ln":"130.54246306100"
},
"geometry":{
"type":"Point",
"coordinates":[
130.542463061,
33.4496197475
]
}
},
{
"type":"Feature",
"properties":{
"Name":"古賀公民館",
"Jusho":"福岡県筑紫野市古賀675－",
"Capacity":"－",
"la":"33.47662047530",
"ln":"130.51770876800"
},
"geometry":{
"type":"Point",
"coordinates":[
130.517708768,
33.4766204753
]
}
},
{
"type":"Feature",
"properties":{
"Name":"御笠コミュニティセンター",
"Jusho":"福岡県筑紫野市吉木2496－",
"Capacity":"－",
"la":"33.51218300000",
"ln":"130.55556600000"
},
"geometry":{
"type":"Point",
"coordinates":[
130.555566,
33.512183
]
}
},
{
"type":"Feature",
"properties":{
"Name":"光が丘公民館",
"Jusho":"福岡県筑紫野市",
"Capacity":"－",
"la":"33.45016980210",
"ln":"130.55994195700"
},
"geometry":{
"type":"Point",
"coordinates":[
130.559941957,
33.4501698021
]
}
},
{
"type":"Feature",
"properties":{
"Name":"桜台公民館",
"Jusho":"福岡県筑紫野市",
"Capacity":"－",
"la":"33.47109345620",
"ln":"130.54495502900"
},
"geometry":{
"type":"Point",
"coordinates":[
130.544955029,
33.4710934562
]
}
},
{
"type":"Feature",
"properties":{
"Name":"三地区（中央・栄町・昭和）公民館（中央・栄町・昭和共同利用施設）",
"Jusho":"福岡県筑紫野市二日市中央3-5-7",
"Capacity":"－",
"la":"33.49795844380",
"ln":"130.51673740400"
},
"geometry":{
"type":"Point",
"coordinates":[
130.516737404,
33.4979584438
]
}
},
{
"type":"Feature",
"properties":{
"Name":"山家３区公民館",
"Jusho":"福岡県筑紫野市山家3065－",
"Capacity":"－",
"la":"33.49273610710",
"ln":"130.59039517400"
},
"geometry":{
"type":"Point",
"coordinates":[
130.590395174,
33.4927361071
]
}
},
{
"type":"Feature",
"properties":{
"Name":"山家６区公民館",
"Jusho":"福岡県筑紫野市山家4758-4",
"Capacity":"－",
"la":"33.48216000000",
"ln":"130.57755400000"
},
"geometry":{
"type":"Point",
"coordinates":[
130.577554,
33.48216
]
}
},
{
"type":"Feature",
"properties":{
"Name":"山家９区公民館",
"Jusho":"福岡県筑紫野市山家5474",
"Capacity":"－",
"la":"33.47863800000",
"ln":"130.57124300000"
},
"geometry":{
"type":"Point",
"coordinates":[
130.571243,
33.478638
]
}
},
{
"type":"Feature",
"properties":{
"Name":"山家コミュニティセンター",
"Jusho":"福岡県筑紫野市山家2850－",
"Capacity":"－",
"la":"33.48695700000",
"ln":"130.58222200000"
},
"geometry":{
"type":"Point",
"coordinates":[
130.582222,
33.486957
]
}
},
{
"type":"Feature",
"properties":{
"Name":"山家中央区公民館",
"Jusho":"福岡県筑紫野市",
"Capacity":"－",
"la":"33.48488722100",
"ln":"130.57950692700"
},
"geometry":{
"type":"Point",
"coordinates":[
130.579506927,
33.484887221
]
}
},
{
"type":"Feature",
"properties":{
"Name":"山口コミュニティセンター",
"Jusho":"福岡県筑紫野市古賀196－",
"Capacity":"－",
"la":"33.47123100000",
"ln":"130.51984100000"
},
"geometry":{
"type":"Point",
"coordinates":[
130.519841,
33.471231
]
}
},
{
"type":"Feature",
"properties":{
"Name":"山口区公民館",
"Jusho":"福岡県筑紫野市",
"Capacity":"－",
"la":"33.46162800000",
"ln":"130.50317149300"
},
"geometry":{
"type":"Point",
"coordinates":[
130.503171493,
33.461628
]
}
},
{
"type":"Feature",
"properties":{
"Name":"紫ヶ丘公民館",
"Jusho":"福岡県筑紫野市",
"Capacity":"－",
"la":"33.49272355350",
"ln":"130.53006886900"
},
"geometry":{
"type":"Point",
"coordinates":[
130.530068869,
33.4927235535
]
}
},
{
"type":"Feature",
"properties":{
"Name":"紫公民館（紫共同利用施設）",
"Jusho":"福岡県筑紫野市",
"Capacity":"－",
"la":"33.49727800000",
"ln":"130.52108100000"
},
"geometry":{
"type":"Point",
"coordinates":[
130.521081,
33.497278
]
}
},
{
"type":"Feature",
"properties":{
"Name":"次田区公民館（次田共同利用施設）",
"Jusho":"福岡県筑紫野市",
"Capacity":"－",
"la":"33.49688400000",
"ln":"130.51555500000"
},
"geometry":{
"type":"Point",
"coordinates":[
130.515555,
33.496884
]
}
},
{
"type":"Feature",
"properties":{
"Name":"若江公民館",
"Jusho":"福岡県筑紫野市",
"Capacity":"－",
"la":"33.45916449570",
"ln":"130.55509694200"
},
"geometry":{
"type":"Point",
"coordinates":[
130.555096942,
33.4591644957
]
}
},
{
"type":"Feature",
"properties":{
"Name":"若葉中原公民館",
"Jusho":"福岡県筑紫野市",
"Capacity":"－",
"la":"33.48988535590",
"ln":"130.53102211600"
},
"geometry":{
"type":"Point",
"coordinates":[
130.531022116,
33.4898853559
]
}
},
{
"type":"Feature",
"properties":{
"Name":"曙町公民館",
"Jusho":"福岡県筑紫野市",
"Capacity":"－",
"la":"33.49733646570",
"ln":"130.52991214500"
},
"geometry":{
"type":"Point",
"coordinates":[
130.529912145,
33.4973364657
]
}
},
{
"type":"Feature",
"properties":{
"Name":"諸田公民館",
"Jusho":"福岡県筑紫野市",
"Capacity":"－",
"la":"33.46941773640",
"ln":"130.54735550700"
},
"geometry":{
"type":"Point",
"coordinates":[
130.547355507,
33.4694177364
]
}
},
{
"type":"Feature",
"properties":{
"Name":"松ヶ浦公民館",
"Jusho":"福岡県筑紫野市",
"Capacity":"－",
"la":"33.49750946340",
"ln":"130.52554579100"
},
"geometry":{
"type":"Point",
"coordinates":[
130.525545791,
33.4975094634
]
}
},
{
"type":"Feature",
"properties":{
"Name":"上阿志岐西公民館",
"Jusho":"福岡県筑紫野市",
"Capacity":"－",
"la":"33.50157900000",
"ln":"130.54863800000"
},
"geometry":{
"type":"Point",
"coordinates":[
130.548638,
33.501579
]
}
},
{
"type":"Feature",
"properties":{
"Name":"上阿志岐東公民館",
"Jusho":"福岡県筑紫野市",
"Capacity":"－",
"la":"33.50141100000",
"ln":"130.55656100000"
},
"geometry":{
"type":"Point",
"coordinates":[
130.556561,
33.501411
]
}
},
{
"type":"Feature",
"properties":{
"Name":"原田公民館上原田分館",
"Jusho":"福岡県筑紫野市原田2140",
"Capacity":"－",
"la":"33.44853769760",
"ln":"130.53751784700"
},
"geometry":{
"type":"Point",
"coordinates":[
130.537517847,
33.4485376976
]
}
},
{
"type":"Feature",
"properties":{
"Name":"上古賀公民館",
"Jusho":"福岡県筑紫野市",
"Capacity":"－",
"la":"33.48406900000",
"ln":"130.51983300000"
},
"geometry":{
"type":"Point",
"coordinates":[
130.519833,
33.484069
]
}
},
{
"type":"Feature",
"properties":{
"Name":"城山公民館",
"Jusho":"福岡県筑紫野市",
"Capacity":"－",
"la":"33.46465608110",
"ln":"130.53455446400"
},
"geometry":{
"type":"Point",
"coordinates":[
130.534554464,
33.4646560811
]
}
},
{
"type":"Feature",
"properties":{
"Name":"常松公民館",
"Jusho":"福岡県筑紫野市",
"Capacity":"－",
"la":"33.47273134740",
"ln":"130.54513215900"
},
"geometry":{
"type":"Point",
"coordinates":[
130.545132159,
33.4727313474
]
}
},
{
"type":"Feature",
"properties":{
"Name":"原田公民館新町分館",
"Jusho":"福岡県筑紫野市原田7－0-7",
"Capacity":"－",
"la":"33.45355776960",
"ln":"130.54133982300"
},
"geometry":{
"type":"Point",
"coordinates":[
130.541339823,
33.4535577696
]
}
},
{
"type":"Feature",
"properties":{
"Name":"針摺公民館",
"Jusho":"福岡県筑紫野市",
"Capacity":"－",
"la":"33.48468187560",
"ln":"130.53563882600"
},
"geometry":{
"type":"Point",
"coordinates":[
130.535638826,
33.4846818756
]
}
},
{
"type":"Feature",
"properties":{
"Name":"針摺東公民館",
"Jusho":"福岡県筑紫野市",
"Capacity":"－",
"la":"33.48747774390",
"ln":"130.53640905800"
},
"geometry":{
"type":"Point",
"coordinates":[
130.536409058,
33.4874777439
]
}
},
{
"type":"Feature",
"properties":{
"Name":"杉塚公民館",
"Jusho":"福岡県筑紫野市",
"Capacity":"－",
"la":"33.50007618760",
"ln":"130.50496212600"
},
"geometry":{
"type":"Point",
"coordinates":[
130.504962126,
33.5000761876
]
}
},
{
"type":"Feature",
"properties":{
"Name":"生涯学習センター",
"Jusho":"福岡県筑紫野市",
"Capacity":"－",
"la":"33.49036700000",
"ln":"130.51976400000"
},
"geometry":{
"type":"Point",
"coordinates":[
130.519764,
33.490367
]
}
},
{
"type":"Feature",
"properties":{
"Name":"西吉木公民館",
"Jusho":"福岡県筑紫野市",
"Capacity":"－",
"la":"33.51095081010",
"ln":"130.55590297700"
},
"geometry":{
"type":"Point",
"coordinates":[
130.555902977,
33.5109508101
]
}
},
{
"type":"Feature",
"properties":{
"Name":"西小田公民館",
"Jusho":"福岡県筑紫野市",
"Capacity":"－",
"la":"33.44989973210",
"ln":"130.56842105800"
},
"geometry":{
"type":"Point",
"coordinates":[
130.568421058,
33.4498997321
]
}
},
{
"type":"Feature",
"properties":{
"Name":"石崎公民館",
"Jusho":"福岡県筑紫野市",
"Capacity":"－",
"la":"33.48758813310",
"ln":"130.52857591300"
},
"geometry":{
"type":"Point",
"coordinates":[
130.528575913,
33.4875881331
]
}
},
{
"type":"Feature",
"properties":{
"Name":"総合保健福祉センター（カミーリヤ）",
"Jusho":"福岡県筑紫野市岡田3丁目11番1号",
"Capacity":"－",
"la":"33.47018400000",
"ln":"130.55100400000"
},
"geometry":{
"type":"Point",
"coordinates":[
130.551004,
33.470184
]
}
},
{
"type":"Feature",
"properties":{
"Name":"俗明院公民館",
"Jusho":"福岡県筑紫野市",
"Capacity":"－",
"la":"33.48213139640",
"ln":"130.53341097100"
},
"geometry":{
"type":"Point",
"coordinates":[
130.533410971,
33.4821313964
]
}
},
{
"type":"Feature",
"properties":{
"Name":"大坪公民館（大坪共同利用施設）",
"Jusho":"福岡県筑紫野市",
"Capacity":"－",
"la":"33.49599274660",
"ln":"130.51302094200"
},
"geometry":{
"type":"Point",
"coordinates":[
130.513020942,
33.4959927466
]
}
},
{
"type":"Feature",
"properties":{
"Name":"大門公民館（大門コミュニティセンター）",
"Jusho":"福岡県筑紫野市",
"Capacity":"－",
"la":"33.48957513340",
"ln":"130.50733400000"
},
"geometry":{
"type":"Point",
"coordinates":[
130.507334,
33.4895751334
]
}
},
{
"type":"Feature",
"properties":{
"Name":"筑紫駅前通公民館",
"Jusho":"福岡県筑紫野市",
"Capacity":"－",
"la":"33.46056564980",
"ln":"130.55801197100"
},
"geometry":{
"type":"Point",
"coordinates":[
130.558011971,
33.4605656498
]
}
},
{
"type":"Feature",
"properties":{
"Name":"筑紫公民館",
"Jusho":"福岡県筑紫野市",
"Capacity":"－",
"la":"33.46057173550",
"ln":"130.55228002900"
},
"geometry":{
"type":"Point",
"coordinates":[
130.552280029,
33.4605717355
]
}
},
{
"type":"Feature",
"properties":{
"Name":"筑紫地区公民館（筑紫出張所）",
"Jusho":"福岡県筑紫野市",
"Capacity":"－",
"la":"33.46165999910",
"ln":"130.55184500000"
},
"geometry":{
"type":"Point",
"coordinates":[
130.551845,
33.4616599991
]
}
},
{
"type":"Feature",
"properties":{
"Name":"筑紫南コミュニティセンター",
"Jusho":"福岡県筑紫野市原田4－6-6",
"Capacity":"－",
"la":"33.44971900000",
"ln":"130.54412600000"
},
"geometry":{
"type":"Point",
"coordinates":[
130.544126,
33.449719
]
}
},
{
"type":"Feature",
"properties":{
"Name":"朝倉街道団地公民館",
"Jusho":"福岡県筑紫野市",
"Capacity":"－",
"la":"33.48001186630",
"ln":"130.54068005900"
},
"geometry":{
"type":"Point",
"coordinates":[
130.540680059,
33.4800118663
]
}
},
{
"type":"Feature",
"properties":{
"Name":"鳥居区公民館（鳥居共同利用施設）",
"Jusho":"福岡県筑紫野市",
"Capacity":"－",
"la":"33.49378698370",
"ln":"130.51688863700"
},
"geometry":{
"type":"Point",
"coordinates":[
130.516888637,
33.4937869837
]
}
},
{
"type":"Feature",
"properties":{
"Name":"天山公民館",
"Jusho":"福岡県筑紫野市天山560-5",
"Capacity":"－",
"la":"33.47961317560",
"ln":"130.55733511600"
},
"geometry":{
"type":"Point",
"coordinates":[
130.557335116,
33.4796131756
]
}
},
{
"type":"Feature",
"properties":{
"Name":"天神公民館",
"Jusho":"福岡県筑紫野市",
"Capacity":"－",
"la":"33.49588983620",
"ln":"130.52035694200"
},
"geometry":{
"type":"Point",
"coordinates":[
130.520356942,
33.4958898362
]
}
},
{
"type":"Feature",
"properties":{
"Name":"天拝坂公民館",
"Jusho":"福岡県筑紫野市",
"Capacity":"－",
"la":"33.49292844660",
"ln":"130.50119650700"
},
"geometry":{
"type":"Point",
"coordinates":[
130.501196507,
33.4929284466
]
}
},
{
"type":"Feature",
"properties":{
"Name":"塔原公民館",
"Jusho":"福岡県筑紫野市",
"Capacity":"－",
"la":"33.49540300000",
"ln":"130.50555900000"
},
"geometry":{
"type":"Point",
"coordinates":[
130.505559,
33.495403
]
}
},
{
"type":"Feature",
"properties":{
"Name":"東吉木公民館",
"Jusho":"福岡県筑紫野市",
"Capacity":"－",
"la":"33.50976895440",
"ln":"130.56365627600"
},
"geometry":{
"type":"Point",
"coordinates":[
130.563656276,
33.5097689544
]
}
},
{
"type":"Feature",
"properties":{
"Name":"東新町公民館",
"Jusho":"福岡県筑紫野市",
"Capacity":"－",
"la":"33.49087526730",
"ln":"130.52630802900"
},
"geometry":{
"type":"Point",
"coordinates":[
130.526308029,
33.4908752673
]
}
},
{
"type":"Feature",
"properties":{
"Name":"湯町公民館（湯町共同利用施設）",
"Jusho":"福岡県筑紫野市",
"Capacity":"－",
"la":"33.49127389480",
"ln":"130.51547868100"
},
"geometry":{
"type":"Point",
"coordinates":[
130.515478681,
33.4912738948
]
}
},
{
"type":"Feature",
"properties":{
"Name":"二日市コミュニティセンター",
"Jusho":"福岡県筑紫野市二日市中央5-5－8",
"Capacity":"－",
"la":"33.50014700000",
"ln":"130.51537900000"
},
"geometry":{
"type":"Point",
"coordinates":[
130.515379,
33.500147
]
}
},
{
"type":"Feature",
"properties":{
"Name":"農業者トレーニングセンター",
"Jusho":"福岡県筑紫野市諸田172番地",
"Capacity":"－",
"la":"33.46856200000",
"ln":"130.54420100000"
},
"geometry":{
"type":"Point",
"coordinates":[
130.544201,
33.468562
]
}
},
{
"type":"Feature",
"properties":{
"Name":"馬市公民館",
"Jusho":"福岡県筑紫野市西小田274",
"Capacity":"－",
"la":"33.44067725080",
"ln":"130.57714947800"
},
"geometry":{
"type":"Point",
"coordinates":[
130.577149478,
33.4406772508
]
}
},
{
"type":"Feature",
"properties":{
"Name":"萩原公民館",
"Jusho":"福岡県筑紫野市",
"Capacity":"－",
"la":"33.46597569400",
"ln":"130.51920924700"
},
"geometry":{
"type":"Point",
"coordinates":[
130.519209247,
33.465975694
]
}
},
{
"type":"Feature",
"properties":{
"Name":"美しが丘南公民館",
"Jusho":"福岡県筑紫野市",
"Capacity":"－",
"la":"33.44403433490",
"ln":"130.55152988400"
},
"geometry":{
"type":"Point",
"coordinates":[
130.551529884,
33.4440343349
]
}
},
{
"type":"Feature",
"properties":{
"Name":"美しが丘北公民館",
"Jusho":"福岡県筑紫野市",
"Capacity":"－",
"la":"33.45124200000",
"ln":"130.54978600000"
},
"geometry":{
"type":"Point",
"coordinates":[
130.549786,
33.451242
]
}
},
{
"type":"Feature",
"properties":{
"Name":"武蔵公民館",
"Jusho":"福岡県筑紫野市",
"Capacity":"－",
"la":"33.48612256610",
"ln":"130.51488899600"
},
"geometry":{
"type":"Point",
"coordinates":[
130.514888996,
33.4861225661
]
}
},
{
"type":"Feature",
"properties":{
"Name":"北杉塚公民館（杉塚共同利用施設）",
"Jusho":"福岡県筑紫野市",
"Capacity":"－",
"la":"33.51001636510",
"ln":"130.50406700000"
},
"geometry":{
"type":"Point",
"coordinates":[
130.504067,
33.5100163651
]
}
},
{
"type":"Feature",
"properties":{
"Name":"本町公民館",
"Jusho":"福岡県筑紫野市",
"Capacity":"－",
"la":"33.50034964450",
"ln":"130.51587791300"
},
"geometry":{
"type":"Point",
"coordinates":[
130.515877913,
33.5003496445
]
}
},
{
"type":"Feature",
"properties":{
"Name":"柚須原公民館",
"Jusho":"福岡県筑紫野市",
"Capacity":"－",
"la":"33.53198705450",
"ln":"130.59294088400"
},
"geometry":{
"type":"Point",
"coordinates":[
130.592940884,
33.5319870545
]
}
},
{
"type":"Feature",
"properties":{
"Name":"立明寺公民館",
"Jusho":"福岡県筑紫野市立明寺432－",
"Capacity":"－",
"la":"33.47958021950",
"ln":"130.52523202900"
},
"geometry":{
"type":"Point",
"coordinates":[
130.525232029,
33.4795802195
]
}
},
{
"type":"Feature",
"properties":{
"Name":"六反公民館",
"Jusho":"福岡県筑紫野市",
"Capacity":"－",
"la":"33.49781604490",
"ln":"130.51427346400"
},
"geometry":{
"type":"Point",
"coordinates":[
130.514273464,
33.4978160449
]
}
},
{
"type":"Feature",
"properties":{
"Name":"いきいきプラザ",
"Jusho":"福岡県春日市昇町1丁目120番地",
"Capacity":"－",
"la":"33.53008199910",
"ln":"130.44884400000"
},
"geometry":{
"type":"Point",
"coordinates":[
130.448844,
33.5300819991
]
}
},
{
"type":"Feature",
"properties":{
"Name":"サン・ビオ地区公民館",
"Jusho":"福岡県春日市大和町5丁目1番地1",
"Capacity":"－",
"la":"33.54292200000",
"ln":"130.45671000000"
},
"geometry":{
"type":"Point",
"coordinates":[
130.45671,
33.542922
]
}
},
{
"type":"Feature",
"properties":{
"Name":"すくすくプラザ",
"Jusho":"福岡県春日市須玖南2丁目120番地",
"Capacity":"－",
"la":"33.53605599910",
"ln":"130.44699400000"
},
"geometry":{
"type":"Point",
"coordinates":[
130.446994,
33.5360559991
]
}
},
{
"type":"Feature",
"properties":{
"Name":"ちくし台地区公民館",
"Jusho":"福岡県春日市ちくし台3丁目92番地2",
"Capacity":"－",
"la":"33.52191299910",
"ln":"130.46277900000"
},
"geometry":{
"type":"Point",
"coordinates":[
130.462779,
33.5219129991
]
}
},
{
"type":"Feature",
"properties":{
"Name":"ナギの木苑",
"Jusho":"福岡県春日市下白水104番地13",
"Capacity":"－",
"la":"33.50563400000",
"ln":"130.45877800000"
},
"geometry":{
"type":"Point",
"coordinates":[
130.458778,
33.505634
]
}
},
{
"type":"Feature",
"properties":{
"Name":"ふれあい文化センター",
"Jusho":"福岡県春日市大谷6丁目24番地",
"Capacity":"－",
"la":"33.52752551900",
"ln":"130.45482410900"
},
"geometry":{
"type":"Point",
"coordinates":[
130.454824109,
33.527525519
]
}
},
{
"type":"Feature",
"properties":{
"Name":"岡本地区公民館",
"Jusho":"福岡県春日市岡本3丁目65番地",
"Capacity":"－",
"la":"33.53844499910",
"ln":"130.45137700000"
},
"geometry":{
"type":"Point",
"coordinates":[
130.451377,
33.5384449991
]
}
},
{
"type":"Feature",
"properties":{
"Name":"下白水南地区公民館",
"Jusho":"福岡県春日市下白水南3丁目44番地",
"Capacity":"－",
"la":"33.52524599910",
"ln":"130.44334700000"
},
"geometry":{
"type":"Point",
"coordinates":[
130.443347,
33.5252459991
]
}
},
{
"type":"Feature",
"properties":{
"Name":"下白水北地区公民館",
"Jusho":"福岡県春日市下白水北4丁目19番地",
"Capacity":"－",
"la":"33.52741200000",
"ln":"130.44294100000"
},
"geometry":{
"type":"Point",
"coordinates":[
130.442941,
33.527412
]
}
},
{
"type":"Feature",
"properties":{
"Name":"光町児童センター",
"Jusho":"福岡県春日市光町2丁目180番地",
"Capacity":"－",
"la":"33.53249300000",
"ln":"130.46327800000"
},
"geometry":{
"type":"Point",
"coordinates":[
130.463278,
33.532493
]
}
},
{
"type":"Feature",
"properties":{
"Name":"光町地区公民館",
"Jusho":"福岡県春日市光町2丁目180番地1",
"Capacity":"－",
"la":"33.53268800000",
"ln":"130.46313100000"
},
"geometry":{
"type":"Point",
"coordinates":[
130.463131,
33.532688
]
}
},
{
"type":"Feature",
"properties":{
"Name":"紅葉ヶ丘地区公民館",
"Jusho":"福岡県春日市紅葉ケ丘西4丁目1番地",
"Capacity":"－",
"la":"33.52120500000",
"ln":"130.45648200000"
},
"geometry":{
"type":"Point",
"coordinates":[
130.456482,
33.521205
]
}
},
{
"type":"Feature",
"properties":{
"Name":"桜ヶ丘地区公民館",
"Jusho":"福岡県春日市桜ケ丘7丁目1番地2",
"Capacity":"－",
"la":"33.54673000000",
"ln":"130.45092400000"
},
"geometry":{
"type":"Point",
"coordinates":[
130.450924,
33.54673
]
}
},
{
"type":"Feature",
"properties":{
"Name":"若葉台西地区公民館",
"Jusho":"福岡県春日市若葉台西3丁目4番地1",
"Capacity":"－",
"la":"33.52914899910",
"ln":"130.45857100000"
},
"geometry":{
"type":"Point",
"coordinates":[
130.458571,
33.5291489991
]
}
},
{
"type":"Feature",
"properties":{
"Name":"若葉台東地区公民館",
"Jusho":"福岡県春日市若葉台東2丁目86番地2",
"Capacity":"－",
"la":"33.52701600000",
"ln":"130.46339500000"
},
"geometry":{
"type":"Point",
"coordinates":[
130.463395,
33.527016
]
}
},
{
"type":"Feature",
"properties":{
"Name":"春日運動広場",
"Jusho":"福岡県春日市平田台5丁目1番地",
"Capacity":"－",
"la":"33.51049224810",
"ln":"130.47208246400"
},
"geometry":{
"type":"Point",
"coordinates":[
130.472082464,
33.5104922481
]
}
},
{
"type":"Feature",
"properties":{
"Name":"春日共同利用施設",
"Jusho":"福岡県春日市春日3丁目48番地",
"Capacity":"－",
"la":"33.52209435720",
"ln":"130.47300644900"
},
"geometry":{
"type":"Point",
"coordinates":[
130.473006449,
33.5220943572
]
}
},
{
"type":"Feature",
"properties":{
"Name":"春日原地区公民館",
"Jusho":"福岡県春日市春日原南4丁目37番地84",
"Capacity":"－",
"la":"33.53484299910",
"ln":"130.47224100000"
},
"geometry":{
"type":"Point",
"coordinates":[
130.472241,
33.5348429991
]
}
},
{
"type":"Feature",
"properties":{
"Name":"春日原南地区公民館",
"Jusho":"福岡県春日市春日原南町4丁目52番地2",
"Capacity":"－",
"la":"33.53322699910",
"ln":"130.47458600000"
},
"geometry":{
"type":"Point",
"coordinates":[
130.474586,
33.5332269991
]
}
},
{
"type":"Feature",
"properties":{
"Name":"春日市立市民スポーツセンター",
"Jusho":"福岡県春日市大谷6丁目28番地",
"Capacity":"－",
"la":"33.52731000000",
"ln":"130.45605100000"
},
"geometry":{
"type":"Point",
"coordinates":[
130.456051,
33.52731
]
}
},
{
"type":"Feature",
"properties":{
"Name":"春日市立西スポーツセンター",
"Jusho":"福岡県春日市、筑紫郡那珂川町中原東1丁目4番1号",
"Capacity":"－",
"la":"33.51167447020",
"ln":"130.44199191100"
},
"geometry":{
"type":"Point",
"coordinates":[
130.441991911,
33.5116744702
]
}
},
{
"type":"Feature",
"properties":{
"Name":"春日地区公民館",
"Jusho":"福岡県春日市春日1丁目111番地",
"Capacity":"－",
"la":"33.52134169440",
"ln":"130.46974785500"
},
"geometry":{
"type":"Point",
"coordinates":[
130.469747855,
33.5213416944
]
}
},
{
"type":"Feature",
"properties":{
"Name":"小倉地区公民館",
"Jusho":"福岡県春日市小倉2丁目93番地3",
"Capacity":"－",
"la":"33.53128199910",
"ln":"130.45402400000"
},
"geometry":{
"type":"Point",
"coordinates":[
130.454024,
33.5312819991
]
}
},
{
"type":"Feature",
"properties":{
"Name":"小倉東地区公民館",
"Jusho":"福岡県春日市小倉東2丁目22番地",
"Capacity":"－",
"la":"33.52995700000",
"ln":"130.45695100000"
},
"geometry":{
"type":"Point",
"coordinates":[
130.456951,
33.529957
]
}
},
{
"type":"Feature",
"properties":{
"Name":"昇町地区公民館",
"Jusho":"福岡県春日市昇町5丁目122番地",
"Capacity":"－",
"la":"33.52554000000",
"ln":"130.45017100000"
},
"geometry":{
"type":"Point",
"coordinates":[
130.450171,
33.52554
]
}
},
{
"type":"Feature",
"properties":{
"Name":"松ヶ丘地区公民館",
"Jusho":"福岡県春日市松ケ丘5丁目35番地",
"Capacity":"－",
"la":"33.50797400000",
"ln":"130.45686600000"
},
"geometry":{
"type":"Point",
"coordinates":[
130.456866,
33.507974
]
}
},
{
"type":"Feature",
"properties":{
"Name":"上白水地区公民館",
"Jusho":"福岡県春日市上白水6丁目77番地",
"Capacity":"－",
"la":"33.51935700000",
"ln":"130.44213600000"
},
"geometry":{
"type":"Point",
"coordinates":[
130.442136,
33.519357
]
}
},
{
"type":"Feature",
"properties":{
"Name":"須玖南地区公民館",
"Jusho":"福岡県春日市須玖南4丁目128番地",
"Capacity":"－",
"la":"33.53718600000",
"ln":"130.44316400000"
},
"geometry":{
"type":"Point",
"coordinates":[
130.443164,
33.537186
]
}
},
{
"type":"Feature",
"properties":{
"Name":"須玖北地区公民館",
"Jusho":"福岡県春日市須玖北5丁目151番地",
"Capacity":"－",
"la":"33.54109700000",
"ln":"130.44466300000"
},
"geometry":{
"type":"Point",
"coordinates":[
130.444663,
33.541097
]
}
},
{
"type":"Feature",
"properties":{
"Name":"千歳町地区公民館",
"Jusho":"福岡県春日市千歳町3丁目32番地1",
"Capacity":"－",
"la":"33.53435999910",
"ln":"130.46531400000"
},
"geometry":{
"type":"Point",
"coordinates":[
130.465314,
33.5343599991
]
}
},
{
"type":"Feature",
"properties":{
"Name":"泉地区公民館",
"Jusho":"福岡県春日市泉2丁目4番地",
"Capacity":"－",
"la":"33.52930900000",
"ln":"130.43793100000"
},
"geometry":{
"type":"Point",
"coordinates":[
130.437931,
33.529309
]
}
},
{
"type":"Feature",
"properties":{
"Name":"惣利地区公民館",
"Jusho":"福岡県春日市惣利3丁目133番地1",
"Capacity":"－",
"la":"33.51290000000",
"ln":"130.46516400000"
},
"geometry":{
"type":"Point",
"coordinates":[
130.465164,
33.5129
]
}
},
{
"type":"Feature",
"properties":{
"Name":"大谷地区公民館",
"Jusho":"福岡県春日市大谷4丁目7番地",
"Capacity":"－",
"la":"33.52587099910",
"ln":"130.45318200000"
},
"geometry":{
"type":"Point",
"coordinates":[
130.453182,
33.5258709991
]
}
},
{
"type":"Feature",
"properties":{
"Name":"大和町地区公民館",
"Jusho":"福岡県春日市大和町2丁目16番地2",
"Capacity":"－",
"la":"33.53705399910",
"ln":"130.46007600000"
},
"geometry":{
"type":"Point",
"coordinates":[
130.460076,
33.5370539991
]
}
},