var st={
"type":"FeatureCollection",
"features":[
{
"type":"Feature",
"properties":{
"Name":"みなと小学校",
"Jusho":"福岡県大牟田市上屋敷町2-3－",
"Capacity":"－",
"la":"33.01034900000",
"ln":"130.43087500000"
},
"geometry":{
"type":"Point",
"coordinates":[
130.430875,
33.010349
]
}
},
{
"type":"Feature",
"properties":{
"Name":"羽山台小学校",
"Jusho":"福岡県大牟田市大字草木587-3",
"Capacity":"－",
"la":"33.04990200000",
"ln":"130.46973200000"
},
"geometry":{
"type":"Point",
"coordinates":[
130.469732,
33.049902
]
}
},
{
"type":"Feature",
"properties":{
"Name":"吉野小学校",
"Jusho":"福岡県大牟田市大字白銀967－7",
"Capacity":"－",
"la":"33.07353800000",
"ln":"130.48434100000"
},
"geometry":{
"type":"Point",
"coordinates":[
130.484341,
33.073538
]
}
},
{
"type":"Feature",
"properties":{
"Name":"玉川小学校",
"Jusho":"福岡県大牟田市大字擽野2710－",
"Capacity":"－",
"la":"33.00782100000",
"ln":"130.49245200000"
},
"geometry":{
"type":"Point",
"coordinates":[
130.492452,
33.007821
]
}
},
{
"type":"Feature",
"properties":{
"Name":"銀水小学校",
"Jusho":"福岡県大牟田市大字田隈239",
"Capacity":"－",
"la":"33.05481800000",
"ln":"130.47467600000"
},
"geometry":{
"type":"Point",
"coordinates":[
130.474676,
33.054818
]
}
},
{
"type":"Feature",
"properties":{
"Name":"高取小学校",
"Jusho":"福岡県大牟田市大字歴木1807-58",
"Capacity":"－",
"la":"33.03123700000",
"ln":"130.48331600000"
},
"geometry":{
"type":"Point",
"coordinates":[
130.483316,
33.031237
]
}
},
{
"type":"Feature",
"properties":{
"Name":"笹原小学校",
"Jusho":"福岡県大牟田市笹原町3－16",
"Capacity":"－",
"la":"33.00904500000",
"ln":"130.46751200000"
},
"geometry":{
"type":"Point",
"coordinates":[
130.467512,
33.009045
]
}
},
{
"type":"Feature",
"properties":{
"Name":"三池小学校",
"Jusho":"福岡県大牟田市大字新町289－",
"Capacity":"－",
"la":"33.04604100000",
"ln":"130.48325900000"
},
"geometry":{
"type":"Point",
"coordinates":[
130.483259,
33.046041
]
}
},
{
"type":"Feature",
"properties":{
"Name":"手鎌小学校",
"Jusho":"福岡県大牟田市大字唐船395",
"Capacity":"－",
"la":"33.05901100000",
"ln":"130.44753900000"
},
"geometry":{
"type":"Point",
"coordinates":[
130.447539,
33.059011
]
}
},
{
"type":"Feature",
"properties":{
"Name":"上官小学校",
"Jusho":"福岡県大牟田市宮坂町6-3",
"Capacity":"－",
"la":"33.02640400000",
"ln":"130.45256800000"
},
"geometry":{
"type":"Point",
"coordinates":[
130.452568,
33.026404
]
}
},
{
"type":"Feature",
"properties":{
"Name":"上内小学校",
"Jusho":"福岡県大牟田市大字上内1575－",
"Capacity":"－",
"la":"33.07401000000",
"ln":"130.50431200000"
},
"geometry":{
"type":"Point",
"coordinates":[
130.504312,
33.07401
]
}
},
{
"type":"Feature",
"properties":{
"Name":"倉永小学校",
"Jusho":"福岡県大牟田市大字倉永1307",
"Capacity":"－",
"la":"33.08020400000",
"ln":"130.46092600000"
},
"geometry":{
"type":"Point",
"coordinates":[
130.460926,
33.080204
]
}
},
{
"type":"Feature",
"properties":{
"Name":"大正小学校",
"Jusho":"福岡県大牟田市大正町5-5-9",
"Capacity":"－",
"la":"33.03015300000",
"ln":"130.43976300000"
},
"geometry":{
"type":"Point",
"coordinates":[
130.439763,
33.030153
]
}
},
{
"type":"Feature",
"properties":{
"Name":"大牟田小学校",
"Jusho":"福岡県大牟田市笹林町1－-3",
"Capacity":"－",
"la":"33.02868100000",
"ln":"130.44781800000"
},
"geometry":{
"type":"Point",
"coordinates":[
130.447818,
33.028681
]
}
},
{
"type":"Feature",
"properties":{
"Name":"中友小学校",
"Jusho":"福岡県大牟田市中友町1-20",
"Capacity":"－",
"la":"33.03506900000",
"ln":"130.44156800000"
},
"geometry":{
"type":"Point",
"coordinates":[
130.441568,
33.035069
]
}
},
{
"type":"Feature",
"properties":{
"Name":"天道小学校",
"Jusho":"福岡県大牟田市天道町24",
"Capacity":"－",
"la":"33.01543300000",
"ln":"130.46370600000"
},
"geometry":{
"type":"Point",
"coordinates":[
130.463706,
33.015433
]
}
},
{
"type":"Feature",
"properties":{
"Name":"天領小学校",
"Jusho":"福岡県大牟田市",
"Capacity":"－",
"la":"33.01676500000",
"ln":"130.43443000000"
},
"geometry":{
"type":"Point",
"coordinates":[
130.43443,
33.016765
]
}
},
{
"type":"Feature",
"properties":{
"Name":"白川小学校",
"Jusho":"福岡県大牟田市中白川町1－83",
"Capacity":"－",
"la":"33.04412400000",
"ln":"130.45973300000"
},
"geometry":{
"type":"Point",
"coordinates":[
130.459733,
33.044124
]
}
},
{
"type":"Feature",
"properties":{
"Name":"平原小学校",
"Jusho":"福岡県大牟田市平原町333",
"Capacity":"－",
"la":"33.03929200000",
"ln":"130.46459400000"
},
"geometry":{
"type":"Point",
"coordinates":[
130.464594,
33.039292
]
}
},
{
"type":"Feature",
"properties":{
"Name":"明治小学校",
"Jusho":"福岡県大牟田市明治町2-21－",
"Capacity":"－",
"la":"33.04123500000",
"ln":"130.44579000000"
},
"geometry":{
"type":"Point",
"coordinates":[
130.44579,
33.041235
]
}
},
{
"type":"Feature",
"properties":{
"Name":"駛馬南小学校",
"Jusho":"福岡県大牟田市沖田町236－",
"Capacity":"－",
"la":"33.00818300000",
"ln":"130.44901300000"
},
"geometry":{
"type":"Point",
"coordinates":[
130.449013,
33.008183
]
}
},
{
"type":"Feature",
"properties":{
"Name":"駛馬北小学校",
"Jusho":"福岡県大牟田市馬場町17",
"Capacity":"－",
"la":"33.01482200000",
"ln":"130.44981800000"
},
"geometry":{
"type":"Point",
"coordinates":[
130.449818,
33.014822
]
}
},
{
"type":"Feature",
"properties":{
"Name":"安武小学校",
"Jusho":"福岡県久留米市安武町武島776－",
"Capacity":"220",
"la":"33.29247000000",
"ln":"130.47638100000"
},
"geometry":{
"type":"Point",
"coordinates":[
130.476381,
33.29247
]
}
},
{
"type":"Feature",
"properties":{
"Name":"下田小学校",
"Jusho":"福岡県久留米市城島町下田251",
"Capacity":"130",
"la":"33.27801700000",
"ln":"130.43380900000"
},
"geometry":{
"type":"Point",
"coordinates":[
130.433809,
33.278017
]
}
},
{
"type":"Feature",
"properties":{
"Name":"宮ノ陣小学校",
"Jusho":"福岡県久留米市宮ノ陣町大杜393",
"Capacity":"380",
"la":"33.33556900000",
"ln":"130.54719300000"
},
"geometry":{
"type":"Point",
"coordinates":[
130.547193,
33.335569
]
}
},
{
"type":"Feature",
"properties":{
"Name":"弓削小学校",
"Jusho":"福岡県久留米市北野町高良1801",
"Capacity":"130",
"la":"33.33166100000",
"ln":"130.57061100000"
},
"geometry":{
"type":"Point",
"coordinates":[
130.570611,
33.331661
]
}
},
{
"type":"Feature",
"properties":{
"Name":"京町小学校",
"Jusho":"福岡県久留米市京町256",
"Capacity":"280",
"la":"33.32023600000",
"ln":"130.49789000000"
},
"geometry":{
"type":"Point",
"coordinates":[
130.49789,
33.320236
]
}
},
{
"type":"Feature",
"properties":{
"Name":"金丸小学校",
"Jusho":"福岡県久留米市原古賀町28-2",
"Capacity":"300",
"la":"33.30918100000",
"ln":"130.51205600000"
},
"geometry":{
"type":"Point",
"coordinates":[
130.512056,
33.309181
]
}
},
{
"type":"Feature",
"properties":{
"Name":"金島小学校",
"Jusho":"福岡県久留米市北野町八重亀164",
"Capacity":"140",
"la":"33.35379500000",
"ln":"130.62246200000"
},
"geometry":{
"type":"Point",
"coordinates":[
130.622462,
33.353795
]
}
},
{
"type":"Feature",
"properties":{
"Name":"犬塚小学校",
"Jusho":"福岡県久留米市三潴町玉満1871",
"Capacity":"280",
"la":"33.24881100000",
"ln":"130.46217500000"
},
"geometry":{
"type":"Point",
"coordinates":[
130.462175,
33.248811
]
}
},
{
"type":"Feature",
"properties":{
"Name":"御井小学校",
"Jusho":"福岡県久留米市御井町599-2",
"Capacity":"370",
"la":"33.30679300000",
"ln":"130.55485800000"
},
"geometry":{
"type":"Point",
"coordinates":[
130.554858,
33.306793
]
}
},
{
"type":"Feature",
"properties":{
"Name":"江上小学校",
"Jusho":"福岡県久留米市城島町江上331",
"Capacity":"210",
"la":"33.23544400000",
"ln":"130.42765600000"
},
"geometry":{
"type":"Point",
"coordinates":[
130.427656,
33.235444
]
}
},
{
"type":"Feature",
"properties":{
"Name":"荒木小学校",
"Jusho":"福岡県久留米市荒木町荒木1500",
"Capacity":"480",
"la":"33.26985200000",
"ln":"130.49953000000"
},
"geometry":{
"type":"Point",
"coordinates":[
130.49953,
33.269852
]
}
},
{
"type":"Feature",
"properties":{
"Name":"高良内小学校",
"Jusho":"福岡県久留米市高良内町523－",
"Capacity":"470",
"la":"33.29290600000",
"ln":"130.56124700000"
},
"geometry":{
"type":"Point",
"coordinates":[
130.561247,
33.292906
]
}
},
{
"type":"Feature",
"properties":{
"Name":"合川小学校",
"Jusho":"福岡県久留米市合川町471－",
"Capacity":"360",
"la":"33.31724846500",
"ln":"130.54345636900"
},
"geometry":{
"type":"Point",
"coordinates":[
130.543456369,
33.317248465
]
}
},
{
"type":"Feature",
"properties":{
"Name":"三潴小学校",
"Jusho":"福岡県久留米市三潴町高三潴492",
"Capacity":"330",
"la":"33.26209100000",
"ln":"130.46246800000"
},
"geometry":{
"type":"Point",
"coordinates":[
130.462468,
33.262091
]
}
},
{
"type":"Feature",
"properties":{
"Name":"山川小学校",
"Jusho":"福岡県久留米市山川追分2丁目10-2",
"Capacity":"360",
"la":"33.31329300000",
"ln":"130.56849600000"
},
"geometry":{
"type":"Point",
"coordinates":[
130.568496,
33.313293
]
}
},
{
"type":"Feature",
"properties":{
"Name":"山本小学校",
"Jusho":"福岡県久留米市山本町耳納90",
"Capacity":"340",
"la":"33.30901600000",
"ln":"130.59693800000"
},
"geometry":{
"type":"Point",
"coordinates":[
130.596938,
33.309016
]
}
},
{
"type":"Feature",
"properties":{
"Name":"篠山小学校",
"Jusho":"福岡県久留米市篠山町270－",
"Capacity":"460",
"la":"33.32304100000",
"ln":"130.50783400000"
},
"geometry":{
"type":"Point",
"coordinates":[
130.507834,
33.323041
]
}
},
{
"type":"Feature",
"properties":{
"Name":"柴刈小学校",
"Jusho":"福岡県久留米市田主丸町八幡830",
"Capacity":"150",
"la":"33.35948100000",
"ln":"130.65649300000"
},
"geometry":{
"type":"Point",
"coordinates":[
130.656493,
33.359481
]
}
},
{
"type":"Feature",
"properties":{
"Name":"小森野小学校",
"Jusho":"福岡県久留米市小森野5丁目21-23",
"Capacity":"260",
"la":"33.33899500000",
"ln":"130.51803000000"
},
"geometry":{
"type":"Point",
"coordinates":[
130.51803,
33.338995
]
}
},
{
"type":"Feature",
"properties":{
"Name":"上津小学校",
"Jusho":"福岡県久留米市上津町1923-3－",
"Capacity":"360",
"la":"33.27974000000",
"ln":"130.53441600000"
},
"geometry":{
"type":"Point",
"coordinates":[
130.534416,
33.27974
]
}
},
{
"type":"Feature",
"properties":{
"Name":"城島小学校",
"Jusho":"福岡県久留米市城島町城島321",
"Capacity":"240",
"la":"33.25718600000",
"ln":"130.42736300000"
},
"geometry":{
"type":"Point",
"coordinates":[
130.427363,
33.257186
]
}
},
{
"type":"Feature",
"properties":{
"Name":"水縄小学校",
"Jusho":"福岡県久留米市田主丸町石垣889",
"Capacity":"170",
"la":"33.32801800000",
"ln":"130.70160700000"
},
"geometry":{
"type":"Point",
"coordinates":[
130.701607,
33.328018
]
}
},
{
"type":"Feature",
"properties":{
"Name":"水分小学校",
"Jusho":"福岡県久留米市田主丸町常盤1118－",
"Capacity":"140",
"la":"33.34841500000",
"ln":"130.69262300000"
},
"geometry":{
"type":"Point",
"coordinates":[
130.692623,
33.348415
]
}
},
{
"type":"Feature",
"properties":{
"Name":"西国分小学校",
"Jusho":"福岡県久留米市諏訪野町1972－",
"Capacity":"470",
"la":"33.30309900000",
"ln":"130.52638800000"
},
"geometry":{
"type":"Point",
"coordinates":[
130.526388,
33.303099
]
}
},
{
"type":"Feature",
"properties":{
"Name":"西牟田小学校",
"Jusho":"福岡県久留米市三潴町西牟田4407",
"Capacity":"270",
"la":"33.24304000000",
"ln":"130.48580600000"
},
"geometry":{
"type":"Point",
"coordinates":[
130.485806,
33.24304
]
}
},
{
"type":"Feature",
"properties":{
"Name":"青峰小学校",
"Jusho":"福岡県久留米市青峰2丁目7－",
"Capacity":"360",
"la":"33.28421200000",
"ln":"130.56283000000"
},
"geometry":{
"type":"Point",
"coordinates":[
130.56283,
33.284212
]
}
},
{
"type":"Feature",
"properties":{
"Name":"青木小学校",
"Jusho":"福岡県久留米市城島町上青木825",
"Capacity":"210",
"la":"33.24060800000",
"ln":"130.40656200000"
},
"geometry":{
"type":"Point",
"coordinates":[
130.406562,
33.240608
]
}
},
{
"type":"Feature",
"properties":{
"Name":"川会小学校",
"Jusho":"福岡県久留米市田主丸町以真恵274－",
"Capacity":"150",
"la":"33.34216500000",
"ln":"130.66157100000"
},
"geometry":{
"type":"Point",
"coordinates":[
130.661571,
33.342165
]
}
},
{
"type":"Feature",
"properties":{
"Name":"船越小学校",
"Jusho":"福岡県久留米市田主丸町船越190",
"Capacity":"260",
"la":"33.35036264360",
"ln":"130.71723736300"
},
"geometry":{
"type":"Point",
"coordinates":[
130.717237363,
33.3503626436
]
}
},
{
"type":"Feature",
"properties":{
"Name":"善導寺小学校",
"Jusho":"福岡県久留米市善導寺町与田450",
"Capacity":"250",
"la":"33.32643100000",
"ln":"130.60318700000"
},
"geometry":{
"type":"Point",
"coordinates":[
130.603187,
33.326431
]
}
},
{
"type":"Feature",
"properties":{
"Name":"草野小学校",
"Jusho":"福岡県久留米市草野町矢作496－",
"Capacity":"340",
"la":"33.31708000000",
"ln":"130.63047000000"
},
"geometry":{
"type":"Point",
"coordinates":[
130.63047,
33.31708
]
}
},
{
"type":"Feature",
"properties":{
"Name":"荘島小学校",
"Jusho":"福岡県久留米市荘島町19-4",
"Capacity":"270",
"la":"33.31420800000",
"ln":"130.50697300000"
},
"geometry":{
"type":"Point",
"coordinates":[
130.506973,
33.314208
]
}
},
{
"type":"Feature",
"properties":{
"Name":"大橋小学校",
"Jusho":"福岡県久留米市大橋町合楽1081",
"Capacity":"340",
"la":"33.33837500000",
"ln":"130.63535100000"
},
"geometry":{
"type":"Point",
"coordinates":[
130.635351,
33.338375
]
}
},
{
"type":"Feature",
"properties":{
"Name":"大城小学校",
"Jusho":"福岡県久留米市北野町大城128",
"Capacity":"250",
"la":"33.34693800000",
"ln":"130.60757100000"
},
"geometry":{
"type":"Point",
"coordinates":[
130.607571,
33.346938
]
}
},
{
"type":"Feature",
"properties":{
"Name":"大善寺小学校",
"Jusho":"福岡県久留米市大善寺町夜明1268",
"Capacity":"360",
"la":"33.27521100000",
"ln":"130.46964400000"
},
"geometry":{
"type":"Point",
"coordinates":[
130.469644,
33.275211
]
}
},
{
"type":"Feature",
"properties":{
"Name":"竹野小学校",
"Jusho":"福岡県久留米市田主丸町竹野1823－",
"Capacity":"140",
"la":"33.32198500000",
"ln":"130.65458900000"
},
"geometry":{
"type":"Point",
"coordinates":[
130.654589,
33.321985
]
}
},
{
"type":"Feature",
"properties":{
"Name":"長門石小学校",
"Jusho":"福岡県久留米市長門石3丁目9－2",
"Capacity":"360",
"la":"33.32779000000",
"ln":"130.48680900000"
},
"geometry":{
"type":"Point",
"coordinates":[
130.486809,
33.32779
]
}
},
{
"type":"Feature",
"properties":{
"Name":"鳥飼小学校",
"Jusho":"福岡県久留米市梅満町977",
"Capacity":"800",
"la":"33.30720900000",
"ln":"130.50211200000"
},
"geometry":{
"type":"Point",
"coordinates":[
130.502112,
33.307209
]
}
},
{
"type":"Feature",
"properties":{
"Name":"津福小学校",
"Jusho":"福岡県久留米市津福今町472-31",
"Capacity":"360",
"la":"33.28929400000",
"ln":"130.50211200000"
},
"geometry":{
"type":"Point",
"coordinates":[
130.502112,
33.289294
]
}
},
{
"type":"Feature",
"properties":{
"Name":"田主丸小学校",
"Jusho":"福岡県久留米市田主丸町田主丸318",
"Capacity":"220",
"la":"33.34585500000",
"ln":"130.69696800000"
},
"geometry":{
"type":"Point",
"coordinates":[
130.696968,
33.345855
]
}
},
{
"type":"Feature",
"properties":{
"Name":"東国分小学校",
"Jusho":"福岡県久留米市国分町444－",
"Capacity":"470",
"la":"33.29943300000",
"ln":"130.53994300000"
},
"geometry":{
"type":"Point",
"coordinates":[
130.539943,
33.299433
]
}
},
{
"type":"Feature",
"properties":{
"Name":"南薫小学校",
"Jusho":"福岡県久留米市南薫西町1951－",
"Capacity":"270",
"la":"33.31790300000",
"ln":"130.52349900000"
},
"geometry":{
"type":"Point",
"coordinates":[
130.523499,
33.317903
]
}
},
{
"type":"Feature",
"properties":{
"Name":"南小学校",
"Jusho":"福岡県久留米市南2丁目16－",
"Capacity":"290",
"la":"33.29616000000",
"ln":"130.52427700000"
},
"geometry":{
"type":"Point",
"coordinates":[
130.524277,
33.29616
]
}
},
{
"type":"Feature",
"properties":{
"Name":"日吉小学校",
"Jusho":"福岡県久留米市日吉町77－",
"Capacity":"200",
"la":"33.31479200000",
"ln":"130.51536100000"
},
"geometry":{
"type":"Point",
"coordinates":[
130.515361,
33.314792
]
}
},
{
"type":"Feature",
"properties":{
"Name":"浮島小学校",
"Jusho":"福岡県久留米市城島町浮島234－",
"Capacity":"140",
"la":"33.25375700000",
"ln":"130.39665300000"
},
"geometry":{
"type":"Point",
"coordinates":[
130.396653,
33.253757
]
}
},
{
"type":"Feature",
"properties":{
"Name":"北野小学校",
"Jusho":"福岡県久留米市北野町中520－",
"Capacity":"570",
"la":"33.34997600000",
"ln":"130.58481900000"
},
"geometry":{
"type":"Point",
"coordinates":[
130.584819,
33.349976
]
}
},
{
"type":"Feature",
"properties":{
"Name":"下境小学校（屋内運動場）",
"Jusho":"福岡県直方市下境1820番地",
"Capacity":"387",
"la":"33.72842100000",
"ln":"130.73977900000"
},
"geometry":{
"type":"Point",
"coordinates":[
130.739779,
33.728421
]
}
},
{
"type":"Feature",
"properties":{
"Name":"感田小学校（屋内運動場）",
"Jusho":"福岡県直方市感田1160番地",
"Capacity":"413",
"la":"33.76044500000",
"ln":"130.73513900000"
},
"geometry":{
"type":"Point",
"coordinates":[
130.735139,
33.760445
]
}
},
{
"type":"Feature",
"properties":{
"Name":"上頓野小学校（屋内運動場）",
"Jusho":"福岡県直方市上頓野2510番地",
"Capacity":"348",
"la":"33.76039000000",
"ln":"130.76302600000"
},
"geometry":{
"type":"Point",
"coordinates":[
130.763026,
33.76039
]
}
},
{
"type":"Feature",
"properties":{
"Name":"植木小学校",
"Jusho":"福岡県直方市植木3207番地",
"Capacity":"345",
"la":"33.77599900000",
"ln":"130.71436300000"
},
"geometry":{
"type":"Point",
"coordinates":[
130.714363,
33.775999
]
}
},
{
"type":"Feature",
"properties":{
"Name":"新入小学校（屋内運動場）",
"Jusho":"福岡県直方市上新入2081番地",
"Capacity":"345",
"la":"33.75352900000",
"ln":"130.70969700000"
},
"geometry":{
"type":"Point",
"coordinates":[
130.709697,
33.753529
]
}
},
{
"type":"Feature",
"properties":{
"Name":"中泉小学校（屋内運動場）",
"Jusho":"福岡県直方市中泉848番地1の3",
"Capacity":"341",
"la":"33.71856100000",
"ln":"130.74019600000"
},
"geometry":{
"type":"Point",
"coordinates":[
130.740196,
33.718561
]
}
},
{
"type":"Feature",
"properties":{
"Name":"直方西小学校（屋内運動場）",
"Jusho":"福岡県直方市直方666番地",
"Capacity":"345",
"la":"33.74128100000",
"ln":"130.72116900000"
},
"geometry":{
"type":"Point",
"coordinates":[
130.721169,
33.741281
]
}
},
{
"type":"Feature",
"properties":{
"Name":"直方東小学校（屋内運動場）",
"Jusho":"福岡県直方市頓野2095番地1",
"Capacity":"351",
"la":"33.74841900000",
"ln":"130.74719400000"
},
"geometry":{
"type":"Point",
"coordinates":[
130.747194,
33.748419
]
}
},
{
"type":"Feature",
"properties":{
"Name":"直方南小学校（屋内運動場）",
"Jusho":"福岡県直方市直方新町3丁目3番55号",
"Capacity":"345",
"la":"33.73608700000",
"ln":"130.72547500000"
},
"geometry":{
"type":"Point",
"coordinates":[
130.725475,
33.736087
]
}
},
{
"type":"Feature",
"properties":{
"Name":"直方北小学校（屋内運動場）",
"Jusho":"福岡県直方市日吉町7番1号",
"Capacity":"417",
"la":"33.75225200000",
"ln":"130.72811200000"
},
"geometry":{
"type":"Point",
"coordinates":[
130.728112,
33.752252
]
}
},
{
"type":"Feature",
"properties":{
"Name":"福地小学校（屋内運動場）",
"Jusho":"福岡県直方市永満寺2427番地",
"Capacity":"282",
"la":"33.72911600000",
"ln":"130.76147100000"
},
"geometry":{
"type":"Point",
"coordinates":[
130.761471,
33.729116
]
}
},
{
"type":"Feature",
"properties":{
"Name":"伊岐須小学校",
"Jusho":"福岡県飯塚市伊岐須843",
"Capacity":"10330",
"la":"33.65489900000",
"ln":"130.65975700000"
},
"geometry":{
"type":"Point",
"coordinates":[
130.659757,
33.654899
]
}
},
{
"type":"Feature",
"properties":{
"Name":"頴田小学校",
"Jusho":"福岡県飯塚市勢田860",
"Capacity":"5360",
"la":"33.68453700000",
"ln":"130.72625300000"
},
"geometry":{
"type":"Point",
"coordinates":[
130.726253,
33.684537
]
}
},
{
"type":"Feature",
"properties":{
"Name":"楽市小学校",
"Jusho":"福岡県飯塚市楽市163－",
"Capacity":"5820",
"la":"33.61515400000",
"ln":"130.67892400000"
},
"geometry":{
"type":"Point",
"coordinates":[
130.678924,
33.615154
]
}
},
{
"type":"Feature",
"properties":{
"Name":"菰田小学校",
"Jusho":"福岡県飯塚市菰田東2－9-5",
"Capacity":"5540",
"la":"33.63123700000",
"ln":"130.69286700000"
},
"geometry":{
"type":"Point",
"coordinates":[
130.692867,
33.631237
]
}
},
{
"type":"Feature",
"properties":{
"Name":"幸袋小学校",
"Jusho":"福岡県飯塚市中815",
"Capacity":"6000",
"la":"33.66576000000",
"ln":"130.68125500000"
},
"geometry":{
"type":"Point",
"coordinates":[
130.681255,
33.66576
]
}
},
{
"type":"Feature",
"properties":{
"Name":"高田小学校",
"Jusho":"福岡県飯塚市高田701",
"Capacity":"4020",
"la":"33.60657100000",
"ln":"130.64009500000"
},
"geometry":{
"type":"Point",
"coordinates":[
130.640095,
33.606571
]
}
},
{
"type":"Feature",
"properties":{
"Name":"若菜小学校",
"Jusho":"福岡県飯塚市小正249-2",
"Capacity":"4750",
"la":"33.62723600000",
"ln":"130.66667500000"
},
"geometry":{
"type":"Point",
"coordinates":[
130.666675,
33.627236
]
}
},
{
"type":"Feature",
"properties":{
"Name":"潤野小学校",
"Jusho":"福岡県飯塚市潤野320",
"Capacity":"4180",
"la":"33.62945800000",
"ln":"130.65575900000"
},
"geometry":{
"type":"Point",
"coordinates":[
130.655759,
33.629458
]
}
},
{
"type":"Feature",
"properties":{
"Name":"庄内小学校",
"Jusho":"福岡県飯塚市有安1-22",
"Capacity":"5330",
"la":"33.63948600000",
"ln":"130.73405900000"
},
"geometry":{
"type":"Point",
"coordinates":[
130.734059,
33.639486
]
}
},
{
"type":"Feature",
"properties":{
"Name":"上穂波小学校",
"Jusho":"福岡県飯塚市筑穂元吉403",
"Capacity":"3520",
"la":"33.57044100000",
"ln":"130.64237700000"
},
"geometry":{
"type":"Point",
"coordinates":[
130.642377,
33.570441
]
}
},
{
"type":"Feature",
"properties":{
"Name":"大分小学校",
"Jusho":"福岡県飯塚市大分1985－",
"Capacity":"6480",
"la":"33.58868400000",
"ln":"130.62304100000"
},
"geometry":{
"type":"Point",
"coordinates":[
130.623041,
33.588684
]
}
},
{
"type":"Feature",
"properties":{
"Name":"内野小学校",
"Jusho":"福岡県飯塚市内野3537－",
"Capacity":"2450",
"la":"33.53913300000",
"ln":"130.63865200000"
},
"geometry":{
"type":"Point",
"coordinates":[
130.638652,
33.539133
]
}
},
{
"type":"Feature",
"properties":{
"Name":"八木山小学校",
"Jusho":"福岡県飯塚市八木山693－",
"Capacity":"2430",
"la":"33.63012300000",
"ln":"130.61256900000"
},
"geometry":{
"type":"Point",
"coordinates":[
130.612569,
33.630123
]
}
},
{
"type":"Feature",
"properties":{
"Name":"飯塚小学校",
"Jusho":"福岡県飯塚市西徳前2-6",
"Capacity":"3970",
"la":"33.63829200000",
"ln":"130.68158900000"
},
"geometry":{
"type":"Point",
"coordinates":[
130.681589,
33.638292
]
}
},
{
"type":"Feature",
"properties":{
"Name":"飯塚東小学校",
"Jusho":"福岡県飯塚市下三緒54",
"Capacity":"5640",
"la":"33.63218100000",
"ln":"130.70703300000"
},
"geometry":{
"type":"Point",
"coordinates":[
130.707033,
33.632181
]
}
},
{
"type":"Feature",
"properties":{
"Name":"平恒小学校",
"Jusho":"福岡県飯塚市平恒1021",
"Capacity":"4510",
"la":"33.61119300000",
"ln":"130.68456100000"
},
"geometry":{
"type":"Point",
"coordinates":[
130.684561,
33.611193
]
}
},
{
"type":"Feature",
"properties":{
"Name":"片島小学校",
"Jusho":"福岡県飯塚市片島3-8-5",
"Capacity":"4110",
"la":"33.64815300000",
"ln":"130.68117200000"
},
"geometry":{
"type":"Point",
"coordinates":[
130.681172,
33.648153
]
}
},
{
"type":"Feature",
"properties":{
"Name":"椋本小学校",
"Jusho":"福岡県飯塚市椋本16-2",
"Capacity":"4610",
"la":"33.60821000000",
"ln":"130.66553700000"
},
"geometry":{
"type":"Point",
"coordinates":[
130.665537,
33.60821
]
}
},
{
"type":"Feature",
"properties":{
"Name":"目尾小学校",
"Jusho":"福岡県飯塚市目尾1020",
"Capacity":"3370",
"la":"33.67498100000",
"ln":"130.70442100000"
},
"geometry":{
"type":"Point",
"coordinates":[
130.704421,
33.674981
]
}
},
{
"type":"Feature",
"properties":{
"Name":"立岩小学校",
"Jusho":"福岡県飯塚市立岩1176－",
"Capacity":"5320",
"la":"33.65138100000",
"ln":"130.69412800000"
},
"geometry":{
"type":"Point",
"coordinates":[
130.694128,
33.651381
]
}
},
{
"type":"Feature",
"properties":{
"Name":"蓮台寺小学校",
"Jusho":"福岡県飯塚市蓮台寺75",
"Capacity":"7550",
"la":"33.64487200000",
"ln":"130.63728900000"
},
"geometry":{
"type":"Point",
"coordinates":[
130.637289,
33.644872
]
}
},
{
"type":"Feature",
"properties":{
"Name":"鯰田小学校",
"Jusho":"福岡県飯塚市鯰田1263",
"Capacity":"3070",
"la":"33.66920400000",
"ln":"130.70586600000"
},
"geometry":{
"type":"Point",
"coordinates":[
130.705866,
33.669204
]
}
},
{
"type":"Feature",
"properties":{
"Name":"伊田小学校",
"Jusho":"福岡県田川市伊田4390番地",
"Capacity":"－",
"la":"33.64962500000",
"ln":"130.81569000000"
},
"geometry":{
"type":"Point",
"coordinates":[
130.81569,
33.649625
]
}
},
{
"type":"Feature",
"properties":{
"Name":"弓削田小学校",
"Jusho":"福岡県田川市弓削田499番地",
"Capacity":"－",
"la":"33.63712600000",
"ln":"130.78488800000"
},
"geometry":{
"type":"Point",
"coordinates":[
130.784888,
33.637126
]
}
},
{
"type":"Feature",
"properties":{
"Name":"金川小学校",
"Jusho":"福岡県田川市糒1771番地",
"Capacity":"－",
"la":"33.66445700000",
"ln":"130.80988500000"
},
"geometry":{
"type":"Point",
"coordinates":[
130.809885,
33.664457
]
}
},
{
"type":"Feature",
"properties":{
"Name":"後藤寺小学校",
"Jusho":"福岡県田川市宮尾町1番9号",
"Capacity":"－",
"la":"33.63226600000",
"ln":"130.79744300000"
},
"geometry":{
"type":"Point",
"coordinates":[
130.797443,
33.632266
]
}
},
{
"type":"Feature",
"properties":{
"Name":"大浦小学校",
"Jusho":"福岡県田川市奈良1616番地",
"Capacity":"－",
"la":"33.62585000000",
"ln":"130.80527600000"
},
"geometry":{
"type":"Point",
"coordinates":[
130.805276,
33.62585
]
}
},
{
"type":"Feature",
"properties":{
"Name":"大藪小学校",
"Jusho":"福岡県田川市川宮1645番地の2",
"Capacity":"－",
"la":"33.64501400000",
"ln":"130.79949800000"
},
"geometry":{
"type":"Point",
"coordinates":[
130.799498,
33.645014
]
}
},
{
"type":"Feature",
"properties":{
"Name":"猪位金小学校",
"Jusho":"福岡県田川市猪国2559番地",
"Capacity":"－",
"la":"33.59874200000",
"ln":"130.79338800000"
},
"geometry":{
"type":"Point",
"coordinates":[
130.793388,
33.598742
]
}
},
{
"type":"Feature",
"properties":{
"Name":"鎮西小学校",
"Jusho":"福岡県田川市伊田1946番地の1",
"Capacity":"－",
"la":"33.63873800000",
"ln":"130.82513500000"
},
"geometry":{
"type":"Point",
"coordinates":[
130.825135,
33.638738
]
}
},
{
"type":"Feature",
"properties":{
"Name":"田川小学校",
"Jusho":"福岡県田川市栄町4番23号",
"Capacity":"－",
"la":"33.64051500000",
"ln":"130.81013600000"
},
"geometry":{
"type":"Point",
"coordinates":[
130.810136,
33.640515
]
}
},
{
"type":"Feature",
"properties":{
"Name":"蒲池小学校体育館",
"Jusho":"福岡県柳川市金納455",
"Capacity":"－",
"la":"33.18739008040",
"ln":"130.41731367800"
},
"geometry":{
"type":"Point",
"coordinates":[
130.417313678,
33.1873900804
]
}
},
{
"type":"Feature",
"properties":{
"Name":"皿垣小学校体育館",
"Jusho":"福岡県柳川市大和町栄1542",
"Capacity":"－",
"la":"33.12402545610",
"ln":"130.42247605800"
},
"geometry":{
"type":"Point",
"coordinates":[
130.422476058,
33.1240254561
]
}
},
{
"type":"Feature",
"properties":{
"Name":"昭代第一小学校体育館",
"Jusho":"福岡県柳川市田脇810",
"Capacity":"－",
"la":"33.17164785430",
"ln":"130.37869743800"
},
"geometry":{
"type":"Point",
"coordinates":[
130.378697438,
33.1716478543
]
}
},
{
"type":"Feature",
"properties":{
"Name":"昭代第二小学校体育館",
"Jusho":"福岡県柳川市西浜武1490",
"Capacity":"－",
"la":"33.16733306080",
"ln":"130.38321842300"
},
"geometry":{
"type":"Point",
"coordinates":[
130.383218423,
33.1673330608
]
}
},
{
"type":"Feature",
"properties":{
"Name":"城内小学校体育館",
"Jusho":"福岡県柳川市本町84",
"Capacity":"－",
"la":"33.16177293480",
"ln":"130.40567275600"
},
"geometry":{
"type":"Point",
"coordinates":[
130.405672756,
33.1617729348
]
}
},
{
"type":"Feature",
"properties":{
"Name":"垂見小学校体育館",
"Jusho":"福岡県柳川市三橋町垂見1610",
"Capacity":"－",
"la":"33.15534814450",
"ln":"130.44322576500"
},
"geometry":{
"type":"Point",
"coordinates":[
130.443225765,
33.1553481445
]
}
},
{
"type":"Feature",
"properties":{
"Name":"大和小学校体育館",
"Jusho":"福岡県柳川市大和町栄563",
"Capacity":"－",
"la":"33.13360104120",
"ln":"130.42036040300"
},
"geometry":{
"type":"Point",
"coordinates":[
130.420360403,
33.1336010412
]
}
},
{
"type":"Feature",
"properties":{
"Name":"中山小学校体育館",
"Jusho":"福岡県柳川市三橋町中山352",
"Capacity":"－",
"la":"33.16930640110",
"ln":"130.47052362100"
},
"geometry":{
"type":"Point",
"coordinates":[
130.470523621,
33.1693064011
]
}
},
{
"type":"Feature",
"properties":{
"Name":"中島小学校体育館",
"Jusho":"福岡県柳川市大和町中島68",
"Capacity":"－",
"la":"33.12268595980",
"ln":"130.43302545000"
},
"geometry":{
"type":"Point",
"coordinates":[
130.43302545,
33.1226859598
]
}
},
{
"type":"Feature",
"properties":{
"Name":"東宮永小学校体育館",
"Jusho":"福岡県柳川市下宮永町374",
"Capacity":"－",
"la":"33.14317141800",
"ln":"130.40576434600"
},
"geometry":{
"type":"Point",
"coordinates":[
130.405764346,
33.143171418
]
}
},
{
"type":"Feature",
"properties":{
"Name":"藤吉小学校体育館",
"Jusho":"福岡県柳川市三橋町藤吉502",
"Capacity":"－",
"la":"33.16413063370",
"ln":"130.41530701400"
},
"geometry":{
"type":"Point",
"coordinates":[
130.415307014,
33.1641306337
]
}
},
{
"type":"Feature",
"properties":{
"Name":"二ツ河小学校体育館",
"Jusho":"福岡県柳川市三橋町百町735－",
"Capacity":"－",
"la":"33.17633395920",
"ln":"130.44158769800"
},
"geometry":{
"type":"Point",
"coordinates":[
130.441587698,
33.1763339592
]
}
},
{
"type":"Feature",
"properties":{
"Name":"豊原小学校体育館",
"Jusho":"福岡県柳川市大和町豊原125",
"Capacity":"－",
"la":"33.14615526760",
"ln":"130.42790987000"
},
"geometry":{
"type":"Point",
"coordinates":[
130.42790987,
33.1461552676
]
}
},
{
"type":"Feature",
"properties":{
"Name":"矢ヶ部小学校体育館",
"Jusho":"福岡県柳川市三橋町柳河460－",
"Capacity":"－",
"la":"33.17388124270",
"ln":"130.41130112800"
},
"geometry":{
"type":"Point",
"coordinates":[
130.411301128,
33.1738812427
]
}
},
{
"type":"Feature",
"properties":{
"Name":"矢留小学校体育館",
"Jusho":"福岡県柳川市矢留本町21",
"Capacity":"－",
"la":"33.15672199910",
"ln":"130.39381800000"
},
"geometry":{
"type":"Point",
"coordinates":[
130.393818,
33.1567219991
]
}
},
{
"type":"Feature",
"properties":{
"Name":"柳河小学校体育館",
"Jusho":"福岡県柳川市恵美須町28",
"Capacity":"－",
"la":"33.16900017720",
"ln":"130.40952524200"
},
"geometry":{
"type":"Point",
"coordinates":[
130.409525242,
33.1690001772
]
}
},
{
"type":"Feature",
"properties":{
"Name":"有明小学校体育館",
"Jusho":"福岡県柳川市大和町皿垣開600",
"Capacity":"－",
"la":"33.11754609160",
"ln":"130.41975804100"
},
"geometry":{
"type":"Point",
"coordinates":[
130.419758041,
33.1175460916
]
}
},
{
"type":"Feature",
"properties":{
"Name":"両開小学校体育館",
"Jusho":"福岡県柳川市有明町1750",
"Capacity":"－",
"la":"33.13035784850",
"ln":"130.39298842000"
},
"geometry":{
"type":"Point",
"coordinates":[
130.39298842,
33.1303578485
]
}
},
{
"type":"Feature",
"properties":{
"Name":"六合小学校体育館",
"Jusho":"福岡県柳川市大和町六合1661－",
"Capacity":"－",
"la":"33.13537097040",
"ln":"130.44353278500"
},
"geometry":{
"type":"Point",
"coordinates":[
130.443532785,
33.1353709704
]
}
},
{
"type":"Feature",
"properties":{
"Name":"こぐま福祉会研修所（旧尾久保小学校）",
"Jusho":"福岡県八女市上陽町下横山2184番地",
"Capacity":"－",
"la":"33.27165121230",
"ln":"130.64554100200"
},
"geometry":{
"type":"Point",
"coordinates":[
130.645541002,
33.2716512123
]
}
},
{
"type":"Feature",
"properties":{
"Name":"岡山小学校屋内運動場",
"Jusho":"福岡県八女市鵜池302番地",
"Capacity":"－",
"la":"33.21043074300",
"ln":"130.52864100000"
},
"geometry":{
"type":"Point",
"coordinates":[
130.528641,
33.210430743
]
}
},
{
"type":"Feature",
"properties":{
"Name":"笠原小学校屋内運動場",
"Jusho":"福岡県八女市黒木町笠原4341番地1",
"Capacity":"－",
"la":"33.22276048400",
"ln":"130.70450219300"
},
"geometry":{
"type":"Point",
"coordinates":[
130.704502193,
33.222760484
]
}
},
{
"type":"Feature",
"properties":{
"Name":"旧下辺春小学校屋内運動場",
"Jusho":"福岡県八女市立花町下辺春1312番地",
"Capacity":"－",
"la":"33.17258600000",
"ln":"130.61160800000"
},
"geometry":{
"type":"Point",
"coordinates":[
130.611608,
33.172586
]
}
},
{
"type":"Feature",
"properties":{
"Name":"旧上辺春小学校屋内運動場",
"Jusho":"福岡県八女市立花町上辺春1080番地",
"Capacity":"－",
"la":"33.13404215230",
"ln":"130.61593847600"
},
"geometry":{
"type":"Point",
"coordinates":[
130.615938476,
33.1340421523
]
}
},
{
"type":"Feature",
"properties":{
"Name":"旧田代小学校講堂",
"Jusho":"福岡県八女市黒木町田代1327番地1",
"Capacity":"－",
"la":"33.15711600000",
"ln":"130.65043800000"
},
"geometry":{
"type":"Point",
"coordinates":[
130.650438,
33.157116
]
}
},
{
"type":"Feature",
"properties":{
"Name":"旧渡内小学校屋内運動場",
"Jusho":"福岡県八女市黒木町木屋383番地",
"Capacity":"－",
"la":"33.19923250810",
"ln":"130.66127342000"
},
"geometry":{
"type":"Point",
"coordinates":[
130.66127342,
33.1992325081
]
}
},
{
"type":"Feature",
"properties":{
"Name":"旧白木小学校屋内運動場",
"Jusho":"福岡県八女市立花町白木1545番地1",
"Capacity":"－",
"la":"33.14933799910",
"ln":"130.56275100000"
},
"geometry":{
"type":"Point",
"coordinates":[
130.562751,
33.1493379991
]
}
},
{
"type":"Feature",
"properties":{
"Name":"黒木小学校屋内運動場",
"Jusho":"福岡県八女市黒木町桑原26番地",
"Capacity":"－",
"la":"33.21276797990",
"ln":"130.66422532100"
},
"geometry":{
"type":"Point",
"coordinates":[
130.664225321,
33.2127679799
]
}
},
{
"type":"Feature",
"properties":{
"Name":"黒木西小学校屋内運動場",
"Jusho":"福岡県八女市黒木町本分38番地1",
"Capacity":"－",
"la":"33.20609218400",
"ln":"130.64943933400"
},
"geometry":{
"type":"Point",
"coordinates":[
130.649439334,
33.206092184
]
}
},
{
"type":"Feature",
"properties":{
"Name":"三河小学校屋内運動場",
"Jusho":"福岡県八女市酒井田486番地1",
"Capacity":"－",
"la":"33.19526675080",
"ln":"130.55727700000"
},
"geometry":{
"type":"Point",
"coordinates":[
130.557277,
33.1952667508
]
}
},
{
"type":"Feature",
"properties":{
"Name":"上妻小学校屋内運動場",
"Jusho":"福岡県八女市津江73番地",
"Capacity":"－",
"la":"33.21557423560",
"ln":"130.57866925100"
},
"geometry":{
"type":"Point",
"coordinates":[
130.578669251,
33.2155742356
]
}
},
{
"type":"Feature",
"properties":{
"Name":"上陽ほくぜい学園小学校",
"Jusho":"福岡県八女市上陽町北川内508番地1",
"Capacity":"－",
"la":"33.23731399910",
"ln":"130.64458200000"
},
"geometry":{
"type":"Point",
"coordinates":[
130.644582,
33.2373139991
]
}
},
{
"type":"Feature",
"properties":{
"Name":"星野小学校屋内運動場",
"Jusho":"福岡県八女市星野村12059番地1",
"Capacity":"－",
"la":"33.24919487670",
"ln":"130.76530335700"
},
"geometry":{
"type":"Point",
"coordinates":[
130.765303357,
33.2491948767
]
}
},
{
"type":"Feature",
"properties":{
"Name":"川崎小学校屋内運動場",
"Jusho":"福岡県八女市山内769番地",
"Capacity":"－",
"la":"33.22066495270",
"ln":"130.61400643500"
},
"geometry":{
"type":"Point",
"coordinates":[
130.614006435,
33.2206649527
]
}
},
{
"type":"Feature",
"properties":{
"Name":"大淵小学校屋内運動場",
"Jusho":"福岡県八女市黒木町大淵3998番地",
"Capacity":"－",
"la":"33.17972599910",
"ln":"130.72187300000"
},
"geometry":{
"type":"Point",
"coordinates":[
130.721873,
33.1797259991
]
}
},
{
"type":"Feature",
"properties":{
"Name":"筑南小学校屋内運動場",
"Jusho":"福岡県八女市立花町北山2840番地1",
"Capacity":"－",
"la":"33.18116949730",
"ln":"130.56240203400"
},
"geometry":{
"type":"Point",
"coordinates":[
130.562402034,
33.1811694973
]
}
},
{
"type":"Feature",
"properties":{
"Name":"忠見小学校屋内運動場",
"Jusho":"福岡県八女市忠見980番地",
"Capacity":"－",
"la":"33.22502074010",
"ln":"130.59326040600"
},
"geometry":{
"type":"Point",
"coordinates":[
130.593260406,
33.2250207401
]
}
},
{
"type":"Feature",
"properties":{
"Name":"長峰小学校屋内運動場",
"Jusho":"福岡県八女市吉田654番地1",
"Capacity":"－",
"la":"33.22575492750",
"ln":"130.56031188900"
},
"geometry":{
"type":"Point",
"coordinates":[
130.560311889,
33.2257549275
]
}
},
{
"type":"Feature",
"properties":{
"Name":"八幡小学校屋内運動場",
"Jusho":"福岡県八女市新庄385番地",
"Capacity":"－",
"la":"33.19481319000",
"ln":"130.53936748100"
},
"geometry":{
"type":"Point",
"coordinates":[
130.539367481,
33.19481319
]
}
},
{
"type":"Feature",
"properties":{
"Name":"福島小学校屋内運動場",
"Jusho":"福岡県八女市本町657番地",
"Capacity":"－",
"la":"33.21191400000",
"ln":"130.55913800000"
},
"geometry":{
"type":"Point",
"coordinates":[
130.559138,
33.211914
]
}
},
{
"type":"Feature",
"properties":{
"Name":"木屋小学校屋内運動場",
"Jusho":"福岡県八女市黒木町木屋2422番地",
"Capacity":"－",
"la":"33.21011856640",
"ln":"130.69860906100"
},
"geometry":{
"type":"Point",
"coordinates":[
130.698609061,
33.2101185664
]
}
},
{
"type":"Feature",
"properties":{
"Name":"矢部小学校屋内運動場",
"Jusho":"福岡県八女市矢部村北矢部10516番地1",
"Capacity":"－",
"la":"33.14986899910",
"ln":"130.81906500000"
},
"geometry":{
"type":"Point",
"coordinates":[
130.819065,
33.1498689991
]
}
},
{
"type":"Feature",
"properties":{
"Name":"羽犬塚小学校",
"Jusho":"福岡県筑後市大字羽犬塚232番地",
"Capacity":"－",
"la":"33.21657900000",
"ln":"130.49989300000"
},
"geometry":{
"type":"Point",
"coordinates":[
130.499893,
33.216579
]
}
},
{
"type":"Feature",
"properties":{
"Name":"下妻小学校",
"Jusho":"福岡県筑後市大字下妻1317番地",
"Capacity":"－",
"la":"33.18186100000",
"ln":"130.47483900000"
},
"geometry":{
"type":"Point",
"coordinates":[
130.474839,
33.181861
]
}
},
{
"type":"Feature",
"properties":{
"Name":"古川小学校",
"Jusho":"福岡県筑後市大字久恵1007番地",
"Capacity":"－",
"la":"33.18741600000",
"ln":"130.51669800000"
},
"geometry":{
"type":"Point",
"coordinates":[
130.516698,
33.187416
]
}
},
{
"type":"Feature",
"properties":{
"Name":"古島小学校",
"Jusho":"福岡県筑後市大字古島233番地",
"Capacity":"－",
"la":"33.19644200000",
"ln":"130.46986700000"
},
"geometry":{
"type":"Point",
"coordinates":[
130.469867,
33.196442
]
}
},
{
"type":"Feature",
"properties":{
"Name":"松原小学校",
"Jusho":"福岡県筑後市大字熊野766番地",
"Capacity":"－",
"la":"33.22741100000",
"ln":"130.48764300000"
},
"geometry":{
"type":"Point",
"coordinates":[
130.487643,
33.227411
]
}
},
{
"type":"Feature",
"properties":{
"Name":"水洗小学校",
"Jusho":"福岡県筑後市大字志13番地",
"Capacity":"－",
"la":"33.18547200000",
"ln":"130.50053200000"
},
"geometry":{
"type":"Point",
"coordinates":[
130.500532,
33.185472
]
}
},
{
"type":"Feature",
"properties":{
"Name":"筑後小学校",
"Jusho":"福岡県筑後市大字長浜1285番地",
"Capacity":"－",
"la":"33.20669200000",
"ln":"130.50833700000"
},
"geometry":{
"type":"Point",
"coordinates":[
130.508337,
33.206692
]
}
},
{
"type":"Feature",
"properties":{
"Name":"筑後北小学校",
"Jusho":"福岡県筑後市大字西牟田6044番地",
"Capacity":"－",
"la":"33.24268800000",
"ln":"130.50664100000"
},
"geometry":{
"type":"Point",
"coordinates":[
130.506641,
33.242688
]
}
},
{
"type":"Feature",
"properties":{
"Name":"二川小学校",
"Jusho":"福岡県筑後市大字若菜433番地",
"Capacity":"－",
"la":"33.21316300000",
"ln":"130.47511600000"
},
"geometry":{
"type":"Point",
"coordinates":[
130.475116,
33.213163
]
}
},
{
"type":"Feature",
"properties":{
"Name":"水田小学校",
"Jusho":"福岡県筑後市大字下北島172番地",
"Capacity":"－",
"la":"33.19905300000",
"ln":"130.48931000000"
},
"geometry":{
"type":"Point",
"coordinates":[
130.48931,
33.199053
]
}
},
{
"type":"Feature",
"properties":{
"Name":"西牟田小学校",
"Jusho":"福岡県筑後市大字西牟田1802番地",
"Capacity":"－",
"la":"33.23952100000",
"ln":"130.48033800000"
},
"geometry":{
"type":"Point",
"coordinates":[
130.480338,
33.239521
]
}
},
{
"type":"Feature",
"properties":{
"Name":"宮前小学校",
"Jusho":"福岡県大川市向島845",
"Capacity":"4789",
"la":"33.21432700000",
"ln":"130.38459600000"
},
"geometry":{
"type":"Point",
"coordinates":[
130.384596,
33.214327
]
}
},
{
"type":"Feature",
"properties":{
"Name":"三又小学校",
"Jusho":"福岡県大川市中古賀198",
"Capacity":"2694",
"la":"33.22990800000",
"ln":"130.38903900000"
},
"geometry":{
"type":"Point",
"coordinates":[
130.389039,
33.229908
]
}
},
{
"type":"Feature",
"properties":{
"Name":"川口小学校",
"Jusho":"福岡県大川市一木481",
"Capacity":"4762",
"la":"33.19210600000",
"ln":"130.36529300000"
},
"geometry":{
"type":"Point",
"coordinates":[
130.365293,
33.192106
]
}
},
{
"type":"Feature",
"properties":{
"Name":"大川小学校",
"Jusho":"福岡県大川市向島1850",
"Capacity":"5799",
"la":"33.20999400000",
"ln":"130.37340300000"
},
"geometry":{
"type":"Point",
"coordinates":[
130.373403,
33.209994
]
}
},
{
"type":"Feature",
"properties":{
"Name":"大野島小学校",
"Jusho":"福岡県大川市大野島2673",
"Capacity":"3161",
"la":"33.19641100000",
"ln":"130.35343400000"
},
"geometry":{
"type":"Point",
"coordinates":[
130.353434,
33.196411
]
}
},
{
"type":"Feature",
"properties":{
"Name":"田口小学校",
"Jusho":"福岡県大川市三丸2061",
"Capacity":"6134",
"la":"33.19466200000",
"ln":"130.38795700000"
},
"geometry":{
"type":"Point",
"coordinates":[
130.387957,
33.194662
]
}
},
{
"type":"Feature",
"properties":{
"Name":"道海島小学校",
"Jusho":"福岡県大川市道海島91－",
"Capacity":"4252",
"la":"33.24082247870",
"ln":"130.38080473800"
},
"geometry":{
"type":"Point",
"coordinates":[
130.380804738,
33.2408224787
]
}
},
{
"type":"Feature",
"properties":{
"Name":"木室小学校",
"Jusho":"福岡県大川市中木室496",
"Capacity":"5352",
"la":"33.21183500000",
"ln":"130.40553800000"
},
"geometry":{
"type":"Point",
"coordinates":[
130.405538,
33.211835
]
}
},
{
"type":"Feature",
"properties":{
"Name":"延永小学校",
"Jusho":"福岡県行橋市大字上津熊125番地",
"Capacity":"－",
"la":"33.72761900000",
"ln":"130.95042800000"
},
"geometry":{
"type":"Point",
"coordinates":[
130.950428,
33.727619
]
}
},
{
"type":"Feature",
"properties":{
"Name":"行橋小学校",
"Jusho":"福岡県行橋市大橋二丁目17番1号",
"Capacity":"－",
"la":"33.73364700000",
"ln":"130.97875900000"
},
"geometry":{
"type":"Point",
"coordinates":[
130.978759,
33.733647
]
}
},
{
"type":"Feature",
"properties":{
"Name":"行橋南小学校",
"Jusho":"福岡県行橋市南大橋二丁目5番1号",
"Capacity":"－",
"la":"33.72495300000",
"ln":"130.98398100000"
},
"geometry":{
"type":"Point",
"coordinates":[
130.983981,
33.724953
]
}
},
{
"type":"Feature",
"properties":{
"Name":"行橋北小学校",
"Jusho":"福岡県行橋市行事六丁目20番1号",
"Capacity":"－",
"la":"33.73972900000",
"ln":"130.97053700000"
},
"geometry":{
"type":"Point",
"coordinates":[
130.970537,
33.739729
]
}
},
{
"type":"Feature",
"properties":{
"Name":"今元小学校",
"Jusho":"福岡県行橋市大字元永687番地",
"Capacity":"－",
"la":"33.72403700000",
"ln":"131.00514600000"
},
"geometry":{
"type":"Point",
"coordinates":[
131.005146,
33.724037
]
}
},
{
"type":"Feature",
"properties":{
"Name":"今川小学校",
"Jusho":"福岡県行橋市大字宝山857番地",
"Capacity":"－",
"la":"33.70190000000",
"ln":"130.95534500000"
},
"geometry":{
"type":"Point",
"coordinates":[
130.955345,
33.7019
]
}
},
{
"type":"Feature",
"properties":{
"Name":"泉小学校",
"Jusho":"福岡県行橋市泉中央四丁目1番1号",
"Capacity":"－",
"la":"33.70895500000",
"ln":"130.97756500000"
},
"geometry":{
"type":"Point",
"coordinates":[
130.977565,
33.708955
]
}
},
{
"type":"Feature",
"properties":{
"Name":"仲津小学校",
"Jusho":"福岡県行橋市大字道場寺1439番地",
"Capacity":"－",
"la":"33.69626300000",
"ln":"131.01414500000"
},
"geometry":{
"type":"Point",
"coordinates":[
131.014145,
33.696263
]
}
},
{
"type":"Feature",
"properties":{
"Name":"椿市小学校",
"Jusho":"福岡県行橋市大字長尾530番地",
"Capacity":"－",
"la":"33.73614600000",
"ln":"130.92115200000"
},
"geometry":{
"type":"Point",
"coordinates":[
130.921152,
33.736146
]
}
},
{
"type":"Feature",
"properties":{
"Name":"蓑島小学校",
"Jusho":"福岡県行橋市大字蓑島841番地1",
"Capacity":"－",
"la":"33.74562000000",
"ln":"131.01256100000"
},
"geometry":{
"type":"Point",
"coordinates":[
131.012561,
33.74562
]
}
},
{
"type":"Feature",
"properties":{
"Name":"宇島小学校",
"Jusho":"福岡県豊前市大字赤熊750",
"Capacity":"－",
"la":"33.62010700000",
"ln":"131.13541400000"
},
"geometry":{
"type":"Point",
"coordinates":[
131.135414,
33.620107
]
}
},
{
"type":"Feature",
"properties":{
"Name":"横武小学校",
"Jusho":"福岡県豊前市大字薬師寺221－",
"Capacity":"－",
"la":"33.57677700000",
"ln":"131.11791600000"
},
"geometry":{
"type":"Point",
"coordinates":[
131.117916,
33.576777
]
}
},
{
"type":"Feature",
"properties":{
"Name":"角田小学校",
"Jusho":"福岡県豊前市大字中村943－",
"Capacity":"－",
"la":"33.62366100000",
"ln":"131.08558500000"
},
"geometry":{
"type":"Point",
"coordinates":[
131.085585,
33.623661
]
}
},
{
"type":"Feature",
"properties":{
"Name":"旧畑小学校",
"Jusho":"福岡県豊前市大字畑1526－",
"Capacity":"－",
"la":"33.59347698660",
"ln":"131.06385263500"
},
"geometry":{
"type":"Point",
"coordinates":[
131.063852635,
33.5934769866
]
}
},
{
"type":"Feature",
"properties":{
"Name":"合岩小学校",
"Jusho":"福岡県豊前市大字下河内81-9",
"Capacity":"－",
"la":"33.56002700000",
"ln":"131.08905800000"
},
"geometry":{
"type":"Point",
"coordinates":[
131.089058,
33.560027
]
}
},
{
"type":"Feature",
"properties":{
"Name":"黒土小学校",
"Jusho":"福岡県豊前市大字久路土1191－",
"Capacity":"－",
"la":"33.59294200000",
"ln":"131.13560900000"
},
"geometry":{
"type":"Point",
"coordinates":[
131.135609,
33.592942
]
}
},
{
"type":"Feature",
"properties":{
"Name":"三毛門小学校",
"Jusho":"福岡県豊前市大字三毛門976－",
"Capacity":"－",
"la":"33.60994100000",
"ln":"131.15255200000"
},
"geometry":{
"type":"Point",
"coordinates":[
131.152552,
33.609941
]
}
},
{
"type":"Feature",
"properties":{
"Name":"山田小学校",
"Jusho":"福岡県豊前市大字四郎丸417-2",
"Capacity":"－",
"la":"33.60850033530",
"ln":"131.10150973700"
},
"geometry":{
"type":"Point",
"coordinates":[
131.101509737,
33.6085003353
]
}
},
{
"type":"Feature",
"properties":{
"Name":"千束小学校",
"Jusho":"福岡県豊前市大字千束75",
"Capacity":"－",
"la":"33.59910800000",
"ln":"131.12708100000"
},
"geometry":{
"type":"Point",
"coordinates":[
131.127081,
33.599108
]
}
},
{
"type":"Feature",
"properties":{
"Name":"大村小学校",
"Jusho":"福岡県豊前市大字大村1524",
"Capacity":"－",
"la":"33.60249700000",
"ln":"131.11163800000"
},
"geometry":{
"type":"Point",
"coordinates":[
131.111638,
33.602497
]
}
},
{
"type":"Feature",
"properties":{
"Name":"八屋小学校",
"Jusho":"福岡県豊前市大字八屋2232－",
"Capacity":"－",
"la":"33.61819000000",
"ln":"131.12327600000"
},
"geometry":{
"type":"Point",
"coordinates":[
131.123276,
33.61819
]
}
},
{
"type":"Feature",
"properties":{
"Name":"中間西小学校",
"Jusho":"福岡県中間市弥生2－－",
"Capacity":"－",
"la":"33.81160600000",
"ln":"130.72377800000"
},
"geometry":{
"type":"Point",
"coordinates":[
130.723778,
33.811606
]
}
},
{
"type":"Feature",
"properties":{
"Name":"中間東小学校",
"Jusho":"福岡県中間市中尾4-2－",
"Capacity":"－",
"la":"33.81607700000",
"ln":"130.71777900000"
},
"geometry":{
"type":"Point",
"coordinates":[
130.717779,
33.816077
]
}
},
{
"type":"Feature",
"properties":{
"Name":"中間南小学校",
"Jusho":"福岡県中間市通谷5－4－",
"Capacity":"－",
"la":"33.81491100000",
"ln":"130.73949900000"
},
"geometry":{
"type":"Point",
"coordinates":[
130.739499,
33.814911
]
}
},
{
"type":"Feature",
"properties":{
"Name":"中間北小学校",
"Jusho":"福岡県中間市岩瀬3-2－",
"Capacity":"－",
"la":"33.83235000000",
"ln":"130.71502200000"
},
"geometry":{
"type":"Point",
"coordinates":[
130.715022,
33.83235
]
}
},
{
"type":"Feature",
"properties":{
"Name":"のぞみが丘小学校",
"Jusho":"福岡県小郡市希みが丘5-2－7",
"Capacity":"－",
"la":"33.43724900000",
"ln":"130.54561100000"
},
"geometry":{
"type":"Point",
"coordinates":[
130.545611,
33.437249
]
}
},
{
"type":"Feature",
"properties":{
"Name":"御原小学校",
"Jusho":"福岡県小郡市二夕316",
"Capacity":"－",
"la":"33.37845300000",
"ln":"130.56930000000"
},
"geometry":{
"type":"Point",
"coordinates":[
130.5693,
33.378453
]
}
},
{
"type":"Feature",
"properties":{
"Name":"三国小学校",
"Jusho":"福岡県小郡市力武1012",
"Capacity":"－",
"la":"33.42383800000",
"ln":"130.56482700000"
},
"geometry":{
"type":"Point",
"coordinates":[
130.564827,
33.423838
]
}
},
{
"type":"Feature",
"properties":{
"Name":"小郡小学校",
"Jusho":"福岡県小郡市小板井288",
"Capacity":"－",
"la":"33.39328500000",
"ln":"130.55149700000"
},
"geometry":{
"type":"Point",
"coordinates":[
130.551497,
33.393285
]
}
},
{
"type":"Feature",
"properties":{
"Name":"大原小学校",
"Jusho":"福岡県小郡市大保1394",
"Capacity":"－",
"la":"33.40786700000",
"ln":"130.55913400000"
},
"geometry":{
"type":"Point",
"coordinates":[
130.559134,
33.407867
]
}
},
{
"type":"Feature",
"properties":{
"Name":"東野小学校",
"Jusho":"福岡県小郡市小郡2409-4",
"Capacity":"－",
"la":"33.40964500000",
"ln":"130.54980200000"
},
"geometry":{
"type":"Point",
"coordinates":[
130.549802,
33.409645
]
}
},
{
"type":"Feature",
"properties":{
"Name":"味坂小学校",
"Jusho":"福岡県小郡市八坂456－",
"Capacity":"－",
"la":"33.36670500000",
"ln":"130.55980200000"
},
"geometry":{
"type":"Point",
"coordinates":[
130.559802,
33.366705
]
}
},
{
"type":"Feature",
"properties":{
"Name":"立石小学校",
"Jusho":"福岡県小郡市吹上968-2",
"Capacity":"－",
"la":"33.41278300000",
"ln":"130.58593700000"
},
"geometry":{
"type":"Point",
"coordinates":[
130.585937,
33.412783
]
}
},
{
"type":"Feature",
"properties":{
"Name":"阿志岐小学校",
"Jusho":"福岡県筑紫野市大字阿志岐2350",
"Capacity":"－",
"la":"33.49969200000",
"ln":"130.55063200000"
},
"geometry":{
"type":"Point",
"coordinates":[
130.550632,
33.499692
]
}
},
{
"type":"Feature",
"properties":{
"Name":"吉木小学校",
"Jusho":"福岡県筑紫野市大字吉木2526-2",
"Capacity":"－",
"la":"33.51380100000",
"ln":"130.55657600000"
},
"geometry":{
"type":"Point",
"coordinates":[
130.556576,
33.513801
]
}
},
{
"type":"Feature",
"properties":{
"Name":"原田小学校",
"Jusho":"福岡県筑紫野市美しが丘南2－0-5",
"Capacity":"－",
"la":"33.44528000000",
"ln":"130.54621700000"
},
"geometry":{
"type":"Point",
"coordinates":[
130.546217,
33.44528
]
}
},
{
"type":"Feature",
"properties":{
"Name":"山家小学校",
"Jusho":"福岡県筑紫野市山家4341",
"Capacity":"－",
"la":"33.48552700000",
"ln":"130.57951900000"
},
"geometry":{
"type":"Point",
"coordinates":[
130.579519,
33.485527
]
}
},
{
"type":"Feature",
"properties":{
"Name":"山口小学校",
"Jusho":"福岡県筑紫野市大字萩原850－",
"Capacity":"－",
"la":"33.46808400000",
"ln":"130.51655200000"
},
"geometry":{
"type":"Point",
"coordinates":[
130.516552,
33.468084
]
}
},
{
"type":"Feature",
"properties":{
"Name":"筑紫小学校",
"Jusho":"福岡県筑紫野市大字筑紫531",
"Capacity":"－",
"la":"33.46364000000",
"ln":"130.54941100000"
},
"geometry":{
"type":"Point",
"coordinates":[
130.549411,
33.46364
]
}
},
{
"type":"Feature",
"properties":{
"Name":"筑紫東小学校",
"Jusho":"福岡県筑紫野市光が丘2-3－",
"Capacity":"－",
"la":"33.45408500000",
"ln":"130.55530000000"
},
"geometry":{
"type":"Point",
"coordinates":[
130.5553,
33.454085
]
}
},
{
"type":"Feature",
"properties":{
"Name":"天拝小学校",
"Jusho":"福岡県筑紫野市天拝坂6－－",
"Capacity":"－",
"la":"33.49470900000",
"ln":"130.50254600000"
},
"geometry":{
"type":"Point",
"coordinates":[
130.502546,
33.494709
]
}
},
{
"type":"Feature",
"properties":{
"Name":"二日市小学校",
"Jusho":"福岡県筑紫野市二日市西2-2－",
"Capacity":"－",
"la":"33.49418900000",
"ln":"130.51582700000"
},
"geometry":{
"type":"Point",
"coordinates":[
130.515827,
33.494189
]
}
},
{
"type":"Feature",
"properties":{
"Name":"二日市東小学校",
"Jusho":"福岡県筑紫野市紫7-4－",
"Capacity":"－",
"la":"33.49154100000",
"ln":"130.52539700000"
},
"geometry":{
"type":"Point",
"coordinates":[
130.525397,
33.491541
]
}
},
{
"type":"Feature",
"properties":{
"Name":"二日市北小学校",
"Jusho":"福岡県筑紫野市二日市北8-2－",
"Capacity":"－",
"la":"33.49731300000",
"ln":"130.52881400000"
},
"geometry":{
"type":"Point",
"coordinates":[
130.528814,
33.497313
]
}
},
{
"type":"Feature",
"properties":{
"Name":"春日原小学校",
"Jusho":"福岡県春日市春日原南町4丁目37番地1",
"Capacity":"－",
"la":"33.53354800000",
"ln":"130.47269400000"
},
"geometry":{
"type":"Point",
"coordinates":[
130.472694,
33.533548
]
}
},
{
"type":"Feature",
"properties":{
"Name":"春日小学校",
"Jusho":"福岡県春日市昇町1丁目142番地",
"Capacity":"－",
"la":"33.52929800000",
"ln":"130.44850200000"
},
"geometry":{
"type":"Point",
"coordinates":[
130.448502,
33.529298
]
}
},
{
"type":"Feature",
"properties":{
"Name":"春日西小学校",
"Jusho":"福岡県春日市下白水南4丁目134",
"Capacity":"－",
"la":"33.52283000000",
"ln":"130.44332300000"
},
"geometry":{
"type":"Point",
"coordinates":[
130.443323,
33.52283
]
}
},
{
"type":"Feature",
"properties":{
"Name":"春日東小学校",
"Jusho":"福岡県春日市若葉台東1丁目51番地",
"Capacity":"－",
"la":"33.52829900000",
"ln":"130.46305500000"
},
"geometry":{
"type":"Point",
"coordinates":[
130.463055,
33.528299
]
}
},
{
"type":"Feature",
"properties":{
"Name":"春日南小学校",
"Jusho":"福岡県春日市春日8丁目100番地",
"Capacity":"－",
"la":"33.51841100000",
"ln":"130.46527700000"
},
"geometry":{
"type":"Point",
"coordinates":[
130.465277,
33.518411
]
}
},
{
"type":"Feature",
"properties":{
"Name":"春日北小学校",
"Jusho":"福岡県春日市岡本1丁目35番地",
"Capacity":"－",
"la":"33.54138000000",
"ln":"130.44808600000"
},
"geometry":{
"type":"Point",
"coordinates":[
130.448086,
33.54138
]
}
},
{
"type":"Feature",
"properties":{
"Name":"春日野小学校",
"Jusho":"福岡県春日市春日公園4丁目1番地1",
"Capacity":"－",
"la":"33.52435500000",
"ln":"130.47241600000"
},
"geometry":{
"type":"Point",
"coordinates":[
130.472416,
33.524355
]
}
},
{
"type":"Feature",
"properties":{
"Name":"須玖小学校",
"Jusho":"福岡県春日市須玖南2丁目71番地",
"Capacity":"－",
"la":"33.53676900000",
"ln":"130.44644700000"
},
"geometry":{
"type":"Point",
"coordinates":[
130.446447,
33.536769
]
}
},
{
"type":"Feature",
"properties":{
"Name":"大谷小学校",
"Jusho":"福岡県春日市大谷4丁目1番地",
"Capacity":"－",
"la":"33.52702100000",
"ln":"130.45291800000"
},
"geometry":{
"type":"Point",
"coordinates":[
130.452918,
33.527021
]
}
},
{
"type":"Feature",
"properties":{
"Name":"天神山小学校",
"Jusho":"福岡県春日市天神山6丁目39番地",
"Capacity":"－",
"la":"33.51497500000",
"ln":"130.44840100000"
},
"geometry":{
"type":"Point",
"coordinates":[
130.448401,
33.514975
]
}
},
{
"type":"Feature",
"properties":{
"Name":"日の出小学校",
"Jusho":"福岡県春日市日の出町3丁目1番地10",
"Capacity":"－",
"la":"33.54387800000",
"ln":"130.45557900000"
},
"geometry":{
"type":"Point",
"coordinates":[
130.455579,
33.543878
]
}
},
{
"type":"Feature",
"properties":{
"Name":"白水小学校",
"Jusho":"福岡県春日市白水ヶ丘1丁目100番地",
"Capacity":"－",
"la":"33.51555126470",
"ln":"130.44489747800"
},
"geometry":{
"type":"Point",
"coordinates":[
130.444897478,
33.5155512647
]
}
},
{
"type":"Feature",
"properties":{
"Name":"下大利小学校",
"Jusho":"福岡県大野城市東大利4-8－",
"Capacity":"－",
"la":"33.52879900000",
"ln":"130.49158100000"
},
"geometry":{
"type":"Point",
"coordinates":[
130.491581,
33.528799
]
}
},
{
"type":"Feature",
"properties":{
"Name":"月の浦小学校",
"Jusho":"福岡県大野城市月の浦3-22－",
"Capacity":"－",
"la":"33.49865700000",
"ln":"130.45987400000"
},
"geometry":{
"type":"Point",
"coordinates":[
130.459874,
33.498657
]
}
},
{
"type":"Feature",
"properties":{
"Name":"御笠の森小学校",
"Jusho":"福岡県大野城市御笠川1-7－",
"Capacity":"－",
"la":"33.55099100000",
"ln":"130.47719400000"
},
"geometry":{
"type":"Point",
"coordinates":[
130.477194,
33.550991
]
}
},
{
"type":"Feature",
"properties":{
"Name":"大城小学校",
"Jusho":"福岡県大野城市大城3-29－",
"Capacity":"－",
"la":"33.53660400000",
"ln":"130.49755300000"
},
"geometry":{
"type":"Point",
"coordinates":[
130.497553,
33.536604
]
}
},
{
"type":"Feature",
"properties":{
"Name":"大野小学校",
"Jusho":"福岡県大野城市瓦田3-2－",
"Capacity":"－",
"la":"33.53338200000",
"ln":"130.48155400000"
},
"geometry":{
"type":"Point",
"coordinates":[
130.481554,
33.533382
]
}
},
{
"type":"Feature",
"properties":{
"Name":"大野東小学校",
"Jusho":"福岡県大野城市乙金1－8－",
"Capacity":"－",
"la":"33.54463100000",
"ln":"130.48966400000"
},
"geometry":{
"type":"Point",
"coordinates":[
130.489664,
33.544631
]
}
},
{
"type":"Feature",
"properties":{
"Name":"大野南小学校",
"Jusho":"福岡県大野城市南ケ丘4－8－",
"Capacity":"－",
"la":"33.50146800000",
"ln":"130.47916500000"
},
"geometry":{
"type":"Point",
"coordinates":[
130.479165,
33.501468
]
}
},
{
"type":"Feature",
"properties":{
"Name":"大野北小学校",
"Jusho":"福岡県大野城市山田4－7－",
"Capacity":"－",
"la":"33.54515800000",
"ln":"130.47566600000"
},
"geometry":{
"type":"Point",
"coordinates":[
130.475666,
33.545158
]
}
},
{
"type":"Feature",
"properties":{
"Name":"大利小学校",
"Jusho":"福岡県大野城市上大利1-7－",
"Capacity":"－",
"la":"33.52077200000",
"ln":"130.48113700000"
},
"geometry":{
"type":"Point",
"coordinates":[
130.481137,
33.520772
]
}
},
{
"type":"Feature",
"properties":{
"Name":"平野小学校",
"Jusho":"福岡県大野城市横峰2-4－",
"Capacity":"－",
"la":"33.50521800000",
"ln":"130.47408200000"
},
"geometry":{
"type":"Point",
"coordinates":[
130.474082,
33.505218
]
}
},
{
"type":"Feature",
"properties":{
"Name":"河東小学校",
"Jusho":"福岡県宗像市稲元638",
"Capacity":"140",
"la":"33.81332500000",
"ln":"130.55837400000"
},
"geometry":{
"type":"Point",
"coordinates":[
130.558374,
33.813325
]
}
},
{
"type":"Feature",
"properties":{
"Name":"河東西小学校",
"Jusho":"福岡県宗像市樟陽台1丁目15-7",
"Capacity":"180",
"la":"33.82523000000",
"ln":"130.53710700000"
},
"geometry":{
"type":"Point",
"coordinates":[
130.537107,
33.82523
]
}
},
{
"type":"Feature",
"properties":{
"Name":"吉武小学校",
"Jusho":"福岡県宗像市武丸644",
"Capacity":"140",
"la":"33.80163300000",
"ln":"130.61401000000"
},
"geometry":{
"type":"Point",
"coordinates":[
130.61401,
33.801633
]
}
},
{
"type":"Feature",
"properties":{
"Name":"玄海小学校",
"Jusho":"福岡県宗像市牟田尻1610",
"Capacity":"100",
"la":"33.84176300000",
"ln":"130.50337000000"
},
"geometry":{
"type":"Point",
"coordinates":[
130.50337,
33.841763
]
}
},
{
"type":"Feature",
"properties":{
"Name":"玄海東小学校",
"Jusho":"福岡県宗像市田野1382",
"Capacity":"100",
"la":"33.86454100000",
"ln":"130.52607100000"
},
"geometry":{
"type":"Point",
"coordinates":[
130.526071,
33.864541
]
}
},
{
"type":"Feature",
"properties":{
"Name":"自由ヶ丘小学校",
"Jusho":"福岡県宗像市自由ヶ丘918-6",
"Capacity":"130",
"la":"33.79302900000",
"ln":"130.58158700000"
},
"geometry":{
"type":"Point",
"coordinates":[
130.581587,
33.793029
]
}
},
{
"type":"Feature",
"properties":{
"Name":"自由ヶ丘南小学校",
"Jusho":"福岡県宗像市朝町1124-2",
"Capacity":"170",
"la":"33.78010700000",
"ln":"130.58137400000"
},
"geometry":{
"type":"Point",
"coordinates":[
130.581374,
33.780107
]
}
},
{
"type":"Feature",
"properties":{
"Name":"赤間小学校",
"Jusho":"福岡県宗像市赤間1丁目4－",
"Capacity":"170",
"la":"33.80005900000",
"ln":"130.58168500000"
},
"geometry":{
"type":"Point",
"coordinates":[
130.581685,
33.800059
]
}
},
{
"type":"Feature",
"properties":{
"Name":"赤間西小学校",
"Jusho":"福岡県宗像市土穴633-2",
"Capacity":"140",
"la":"33.81829700000",
"ln":"130.57079100000"
},
"geometry":{
"type":"Point",
"coordinates":[
130.570791,
33.818297
]
}
},
{
"type":"Feature",
"properties":{
"Name":"大島小学校",
"Jusho":"福岡県宗像市大島1163－",
"Capacity":"80",
"la":"33.90230831700",
"ln":"130.43256149500"
},
"geometry":{
"type":"Point",
"coordinates":[
130.432561495,
33.902308317
]
}
},
{
"type":"Feature",
"properties":{
"Name":"地島小学校",
"Jusho":"福岡県宗像市地島428",
"Capacity":"60",
"la":"33.90026400000",
"ln":"130.50039000000"
},
"geometry":{
"type":"Point",
"coordinates":[
130.50039,
33.900264
]
}
},
{
"type":"Feature",
"properties":{
"Name":"東郷小学校",
"Jusho":"福岡県宗像市田熊3丁目4－",
"Capacity":"140",
"la":"33.79888700000",
"ln":"130.53251800000"
},
"geometry":{
"type":"Point",
"coordinates":[
130.532518,
33.798887
]
}
},
{
"type":"Feature",
"properties":{
"Name":"南郷小学校",
"Jusho":"福岡県宗像市原町2110－",
"Capacity":"140",
"la":"33.78410600000",
"ln":"130.55998600000"
},
"geometry":{
"type":"Point",
"coordinates":[
130.559986,
33.784106
]
}
},
{
"type":"Feature",
"properties":{
"Name":"日の里西小学校",
"Jusho":"福岡県宗像市日の里8丁目20",
"Capacity":"130",
"la":"33.78860500000",
"ln":"130.52968300000"
},
"geometry":{
"type":"Point",
"coordinates":[
130.529683,
33.788605
]
}
},
{
"type":"Feature",
"properties":{
"Name":"日の里東小学校",
"Jusho":"福岡県宗像市日の里4丁目21",
"Capacity":"130",
"la":"33.79379900000",
"ln":"130.53918200000"
},
"geometry":{
"type":"Point",
"coordinates":[
130.539182,
33.793799
]
}
},
{
"type":"Feature",
"properties":{
"Name":"国分小学校",
"Jusho":"福岡県太宰府市国分2－0－",
"Capacity":"－",
"la":"33.52399500000",
"ln":"130.50402400000"
},
"geometry":{
"type":"Point",
"coordinates":[
130.504024,
33.523995
]
}
},
{
"type":"Feature",
"properties":{
"Name":"水城小学校",
"Jusho":"福岡県太宰府市観世音寺3－3－",
"Capacity":"－",
"la":"33.51424500000",
"ln":"130.50813500000"
},
"geometry":{
"type":"Point",
"coordinates":[
130.508135,
33.514245
]
}
},
{
"type":"Feature",
"properties":{
"Name":"水城西小学校",
"Jusho":"福岡県太宰府市向佐野90",
"Capacity":"－",
"la":"33.51074600000",
"ln":"130.50071900000"
},
"geometry":{
"type":"Point",
"coordinates":[
130.500719,
33.510746
]
}
},
{
"type":"Feature",
"properties":{
"Name":"太宰府小学校",
"Jusho":"福岡県太宰府市連歌屋1-2－",
"Capacity":"－",
"la":"33.52096700000",
"ln":"130.52977300000"
},
"geometry":{
"type":"Point",
"coordinates":[
130.529773,
33.520967
]
}
},
{
"type":"Feature",
"properties":{
"Name":"太宰府西小学校",
"Jusho":"福岡県太宰府市大佐野4-6-30",
"Capacity":"－",
"la":"33.50433000000",
"ln":"130.49327500000"
},
"geometry":{
"type":"Point",
"coordinates":[
130.493275,
33.50433
]
}
},
{
"type":"Feature",
"properties":{
"Name":"太宰府東小学校",
"Jusho":"福岡県太宰府市青山3-4－",
"Capacity":"－",
"la":"33.50805200000",
"ln":"130.53852200000"
},
"geometry":{
"type":"Point",
"coordinates":[
130.538522,
33.508052
]
}
},
{
"type":"Feature",
"properties":{
"Name":"太宰府南小学校",
"Jusho":"福岡県太宰府市高雄2-3855",
"Capacity":"－",
"la":"33.50146900000",
"ln":"130.53927200000"
},
"geometry":{
"type":"Point",
"coordinates":[
130.539272,
33.501469
]
}
},
{
"type":"Feature",
"properties":{
"Name":"花見小学校",
"Jusho":"福岡県古賀市花見東4-2－",
"Capacity":"－",
"la":"33.74894200000",
"ln":"130.47024500000"
},
"geometry":{
"type":"Point",
"coordinates":[
130.470245,
33.748942
]
}
},
{
"type":"Feature",
"properties":{
"Name":"花鶴小学校",
"Jusho":"福岡県古賀市花鶴丘1-21",
"Capacity":"－",
"la":"33.72544500000",
"ln":"130.46796700000"
},
"geometry":{
"type":"Point",
"coordinates":[
130.467967,
33.725445
]
}
},
{
"type":"Feature",
"properties":{
"Name":"古賀西小学校",
"Jusho":"福岡県古賀市天神7-4－",
"Capacity":"－",
"la":"33.73619300000",
"ln":"130.46121800000"
},
"geometry":{
"type":"Point",
"coordinates":[
130.461218,
33.736193
]
}
},
{
"type":"Feature",
"properties":{
"Name":"古賀東小学校",
"Jusho":"福岡県古賀市新久保2－－",
"Capacity":"－",
"la":"33.73561200000",
"ln":"130.47905800000"
},
"geometry":{
"type":"Point",
"coordinates":[
130.479058,
33.735612
]
}
},
{
"type":"Feature",
"properties":{
"Name":"小野小学校",
"Jusho":"福岡県古賀市米多比1390-2",
"Capacity":"－",
"la":"33.72667300000",
"ln":"130.51264900000"
},
"geometry":{
"type":"Point",
"coordinates":[
130.512649,
33.726673
]
}
},
{
"type":"Feature",
"properties":{
"Name":"青柳小学校",
"Jusho":"福岡県古賀市青柳860－",
"Capacity":"－",
"la":"33.71209000000",
"ln":"130.47930200000"
},
"geometry":{
"type":"Point",
"coordinates":[
130.479302,
33.71209
]
}
},
{
"type":"Feature",
"properties":{
"Name":"千鳥小学校",
"Jusho":"福岡県古賀市千鳥4－－",
"Capacity":"－",
"la":"33.74616400000",
"ln":"130.47732800000"
},
"geometry":{
"type":"Point",
"coordinates":[
130.477328,
33.746164
]
}
},
{
"type":"Feature",
"properties":{
"Name":"舞の里小学校",
"Jusho":"福岡県古賀市舞の里4-21－",
"Capacity":"－",
"la":"33.74420500000",
"ln":"130.49175200000"
},
"geometry":{
"type":"Point",
"coordinates":[
130.491752,
33.744205
]
}
},
{
"type":"Feature",
"properties":{
"Name":"勝浦小学校",
"Jusho":"福岡県福津市勝浦2255",
"Capacity":"2650",
"la":"33.82729400000",
"ln":"130.48724200000"
},
"geometry":{
"type":"Point",
"coordinates":[
130.487242,
33.827294
]
}
},
{
"type":"Feature",
"properties":{
"Name":"上西郷小学校",
"Jusho":"福岡県福津市内殿591-4",
"Capacity":"2860",
"la":"33.75601000000",
"ln":"130.51762800000"
},
"geometry":{
"type":"Point",
"coordinates":[
130.517628,
33.75601
]
}
},
{
"type":"Feature",
"properties":{
"Name":"神興小学校",
"Jusho":"福岡県福津市東福間6丁目4－",
"Capacity":"5640",
"la":"33.77871700000",
"ln":"130.51210200000"
},
"geometry":{
"type":"Point",
"coordinates":[
130.512102,
33.778717
]
}
},
{
"type":"Feature",
"properties":{
"Name":"神興東小学校",
"Jusho":"福岡県福津市津丸950",
"Capacity":"4490",
"la":"33.77013400000",
"ln":"130.51549000000"
},
"geometry":{
"type":"Point",
"coordinates":[
130.51549,
33.770134
]
}
},
{
"type":"Feature",
"properties":{
"Name":"津屋崎小学校",
"Jusho":"福岡県福津市在自1605",
"Capacity":"6210",
"la":"33.79202000000",
"ln":"130.46930000000"
},
"geometry":{
"type":"Point",
"coordinates":[
130.4693,
33.79202
]
}
},
{
"type":"Feature",
"properties":{
"Name":"福間小学校",
"Jusho":"福岡県福津市西福間2丁目4－",
"Capacity":"5040",
"la":"33.76603400000",
"ln":"130.47783700000"
},
"geometry":{
"type":"Point",
"coordinates":[
130.477837,
33.766034
]
}
},
{
"type":"Feature",
"properties":{
"Name":"福間南小学校",
"Jusho":"福岡県福津市67",
"Capacity":"5330",
"la":"33.75894100000",
"ln":"130.48827100000"
},
"geometry":{
"type":"Point",
"coordinates":[
130.488271,
33.758941
]
}
},
{
"type":"Feature",
"properties":{
"Name":"吉井小学校",
"Jusho":"福岡県うきは市吉井町1088",
"Capacity":"600",
"la":"33.34537900000",
"ln":"130.76185500000"
},
"geometry":{
"type":"Point",
"coordinates":[
130.761855,
33.345379
]
}
},
{
"type":"Feature",
"properties":{
"Name":"御幸小学校",
"Jusho":"福岡県うきは市朝田412",
"Capacity":"700",
"la":"33.33214300000",
"ln":"130.79012600000"
},
"geometry":{
"type":"Point",
"coordinates":[
130.790126,
33.332143
]
}
},
{
"type":"Feature",
"properties":{
"Name":"江南小学校",
"Jusho":"福岡県うきは市八和田774－",
"Capacity":"500",
"la":"33.35345100000",
"ln":"130.74437600000"
},
"geometry":{
"type":"Point",
"coordinates":[
130.744376,
33.353451
]
}
},
{
"type":"Feature",
"properties":{
"Name":"山春小学校",
"Jusho":"福岡県うきは市山北783-6",
"Capacity":"500",
"la":"33.33700500000",
"ln":"130.82762300000"
},
"geometry":{
"type":"Point",
"coordinates":[
130.827623,
33.337005
]
}
},
{
"type":"Feature",
"properties":{
"Name":"小塩小学校",
"Jusho":"福岡県うきは市小塩2605－",
"Capacity":"400",
"la":"33.31105300000",
"ln":"130.84285600000"
},
"geometry":{
"type":"Point",
"coordinates":[
130.842856,
33.311053
]
}
},
{
"type":"Feature",
"properties":{
"Name":"千年小学校",
"Jusho":"福岡県うきは市千年263－",
"Capacity":"600",
"la":"33.34794000000",
"ln":"130.77015600000"
},
"geometry":{
"type":"Point",
"coordinates":[
130.770156,
33.34794
]
}
},
{
"type":"Feature",
"properties":{
"Name":"大石小学校",
"Jusho":"福岡県うきは市古川468-3",
"Capacity":"500",
"la":"33.35531900000",
"ln":"130.80926500000"
},
"geometry":{
"type":"Point",
"coordinates":[
130.809265,
33.355319
]
}
},
{
"type":"Feature",
"properties":{
"Name":"姫治小学校",
"Jusho":"福岡県うきは市新川3934",
"Capacity":"400",
"la":"33.28848400000",
"ln":"130.81785900000"
},
"geometry":{
"type":"Point",
"coordinates":[
130.817859,
33.288484
]
}
},
{
"type":"Feature",
"properties":{
"Name":"福富小学校",
"Jusho":"福岡県うきは市福益666－",
"Capacity":"500",
"la":"33.33301000000",
"ln":"130.75370200000"
},
"geometry":{
"type":"Point",
"coordinates":[
130.753702,
33.33301
]
}
},
{
"type":"Feature",
"properties":{
"Name":"妹川小学校",
"Jusho":"福岡県うきは市妹川2285-2",
"Capacity":"400",
"la":"33.31235300000",
"ln":"130.77059600000"
},
"geometry":{
"type":"Point",
"coordinates":[
130.770596,
33.312353
]
}
},
{
"type":"Feature",
"properties":{
"Name":"笠松小学校",
"Jusho":"福岡県宮若市下有木837",
"Capacity":"300",
"la":"33.75313799910",
"ln":"130.63075900000"
},
"geometry":{
"type":"Point",
"coordinates":[
130.630759,
33.7531379991
]
}
},
{
"type":"Feature",
"properties":{
"Name":"吉川小学校",
"Jusho":"福岡県宮若市脇田394－",
"Capacity":"200",
"la":"33.69803300000",
"ln":"130.59120800000"
},
"geometry":{
"type":"Point",
"coordinates":[
130.591208,
33.698033
]
}
},
{
"type":"Feature",
"properties":{
"Name":"宮田小学校",
"Jusho":"福岡県宮若市磯光1888-6",
"Capacity":"300",
"la":"33.70806100000",
"ln":"130.67622900000"
},
"geometry":{
"type":"Point",
"coordinates":[
130.676229,
33.708061
]
}
},
{
"type":"Feature",
"properties":{
"Name":"宮田東小学校",
"Jusho":"福岡県宮若市磯光573",
"Capacity":"200",
"la":"33.72031000000",
"ln":"130.68906100000"
},
"geometry":{
"type":"Point",
"coordinates":[
130.689061,
33.72031
]
}
},
{
"type":"Feature",
"properties":{
"Name":"宮田南小学校",
"Jusho":"福岡県宮若市宮田3461",
"Capacity":"500",
"la":"33.72198800000",
"ln":"130.65843800000"
},
"geometry":{
"type":"Point",
"coordinates":[
130.658438,
33.721988
]
}
},
{
"type":"Feature",
"properties":{
"Name":"宮田北小学校",
"Jusho":"福岡県宮若市龍徳1464",
"Capacity":"300",
"la":"33.73247500000",
"ln":"130.68722700000"
},
"geometry":{
"type":"Point",
"coordinates":[
130.687227,
33.732475
]
}
},
{
"type":"Feature",
"properties":{
"Name":"旧若宮南小学校",
"Jusho":"福岡県宮若市三ヶ畑420",
"Capacity":"100",
"la":"33.66420300000",
"ln":"130.60487400000"
},
"geometry":{
"type":"Point",
"coordinates":[
130.604874,
33.664203
]
}
},
{
"type":"Feature",
"properties":{
"Name":"山口小学校",
"Jusho":"福岡県宮若市山口2580",
"Capacity":"200",
"la":"33.75483200000",
"ln":"130.58804000000"
},
"geometry":{
"type":"Point",
"coordinates":[
130.58804,
33.754832
]
}
},
{
"type":"Feature",
"properties":{
"Name":"若宮小学校",
"Jusho":"福岡県宮若市福丸304－",
"Capacity":"200",
"la":"33.73205600000",
"ln":"130.62455300000"
},
"geometry":{
"type":"Point",
"coordinates":[
130.624553,
33.732056
]
}
},
{
"type":"Feature",
"properties":{
"Name":"若宮西小学校",
"Jusho":"福岡県宮若市宮永11－",
"Capacity":"200",
"la":"33.72816900000",
"ln":"130.59631700000"
},
"geometry":{
"type":"Point",
"coordinates":[
130.596317,
33.728169
]
}
},
{
"type":"Feature",
"properties":{
"Name":"碓井小学校",
"Jusho":"福岡県嘉麻市上臼井868",
"Capacity":"450",
"la":"33.55779899910",
"ln":"130.70700700000"
},
"geometry":{
"type":"Point",
"coordinates":[
130.707007,
33.5577989991
]
}
},
{
"type":"Feature",
"properties":{
"Name":"熊ケ畑小学校",
"Jusho":"福岡県嘉麻市熊ケ畑2128",
"Capacity":"110",
"la":"33.54069200000",
"ln":"130.78336400000"
},
"geometry":{
"type":"Point",
"coordinates":[
130.783364,
33.540692
]
}
},
{
"type":"Feature",
"properties":{
"Name":"上山田小学校",
"Jusho":"福岡県嘉麻市上山田502-36",
"Capacity":"510",
"la":"33.56055100000",
"ln":"130.76966900000"
},
"geometry":{
"type":"Point",
"coordinates":[
130.769669,
33.560551
]
}
},
{
"type":"Feature",
"properties":{
"Name":"下山田小学校",
"Jusho":"福岡県嘉麻市下山田341",
"Capacity":"470",
"la":"33.57529900000",
"ln":"130.75325300000"
},
"geometry":{
"type":"Point",
"coordinates":[
130.753253,
33.575299
]
}
},
{
"type":"Feature",
"properties":{
"Name":"稲築西小学校",
"Jusho":"福岡県嘉麻市口春615",
"Capacity":"440",
"la":"33.60340600000",
"ln":"130.71658800000"
},
"geometry":{
"type":"Point",
"coordinates":[
130.716588,
33.603406
]
}
},
{
"type":"Feature",
"properties":{
"Name":"稲築東小学校",
"Jusho":"福岡県嘉麻市平1429－",
"Capacity":"480",
"la":"33.60076800000",
"ln":"130.73928000000"
},
"geometry":{
"type":"Point",
"coordinates":[
130.73928,
33.600768
]
}
},
{
"type":"Feature",
"properties":{
"Name":"牛隈小学校",
"Jusho":"福岡県嘉麻市牛隈2470-8",
"Capacity":"320",
"la":"33.57204800000",
"ln":"130.72494900000"
},
"geometry":{
"type":"Point",
"coordinates":[
130.724949,
33.572048
]
}
},
{
"type":"Feature",
"properties":{
"Name":"大隈小学校",
"Jusho":"福岡県嘉麻市大隈町731",
"Capacity":"650",
"la":"33.54969800000",
"ln":"130.74354200000"
},
"geometry":{
"type":"Point",
"coordinates":[
130.743542,
33.549698
]
}
},
{
"type":"Feature",
"properties":{
"Name":"千手小学校",
"Jusho":"福岡県嘉麻市千手1253－",
"Capacity":"320",
"la":"33.52680200000",
"ln":"130.71373000000"
},
"geometry":{
"type":"Point",
"coordinates":[
130.71373,
33.526802
]
}
},
{
"type":"Feature",
"properties":{
"Name":"泉河内小学校",
"Jusho":"福岡県嘉麻市泉河内617",
"Capacity":"320",
"la":"33.53827300000",
"ln":"130.67951000000"
},
"geometry":{
"type":"Point",
"coordinates":[
130.67951,
33.538273
]
}
},
{
"type":"Feature",
"properties":{
"Name":"足白小学校",
"Jusho":"福岡県嘉麻市馬見587",
"Capacity":"320",
"la":"33.52274800000",
"ln":"130.75114400000"
},
"geometry":{
"type":"Point",
"coordinates":[
130.751144,
33.522748
]
}
},
{
"type":"Feature",
"properties":{
"Name":"宮野小学校",
"Jusho":"福岡県嘉麻市宮吉533",
"Capacity":"310",
"la":"33.52158200000",
"ln":"130.77097600000"
},
"geometry":{
"type":"Point",
"coordinates":[
130.770976,
33.521582
]
}
},
{
"type":"Feature",
"properties":{
"Name":"甘木小学校",
"Jusho":"福岡県朝倉市甘木1945",
"Capacity":"410",
"la":"33.42497000000",
"ln":"130.65717600000"
},
"geometry":{
"type":"Point",
"coordinates":[
130.657176,
33.42497
]
}
},
{
"type":"Feature",
"properties":{
"Name":"久喜宮小学校",
"Jusho":"福岡県朝倉市杷木久喜宮865－",
"Capacity":"110",
"la":"33.35991900000",
"ln":"130.79954800000"
},
"geometry":{
"type":"Point",
"coordinates":[
130.799548,
33.359919
]
}
},
{
"type":"Feature",
"properties":{
"Name":"志波小学校",
"Jusho":"福岡県朝倉市杷木志波4669－",
"Capacity":"280",
"la":"33.36799000000",
"ln":"130.77953000000"
},
"geometry":{
"type":"Point",
"coordinates":[
130.77953,
33.36799
]
}
},
{
"type":"Feature",
"properties":{
"Name":"秋月小学校",
"Jusho":"福岡県朝倉市長谷山50",
"Capacity":"270",
"la":"33.46353000000",
"ln":"130.68717800000"
},
"geometry":{
"type":"Point",
"coordinates":[
130.687178,
33.46353
]
}
},
{
"type":"Feature",
"properties":{
"Name":"松末小学校",
"Jusho":"福岡県朝倉市杷木星丸1175",
"Capacity":"180",
"la":"33.38200900000",
"ln":"130.84016900000"
},
"geometry":{
"type":"Point",
"coordinates":[
130.840169,
33.382009
]
}
},
{
"type":"Feature",
"properties":{
"Name":"大福小学校",
"Jusho":"福岡県朝倉市大庭3594",
"Capacity":"340",
"la":"33.38059400000",
"ln":"130.70589900000"
},
"geometry":{
"type":"Point",
"coordinates":[
130.705899,
33.380594
]
}
},
{
"type":"Feature",
"properties":{
"Name":"朝倉東小学校",
"Jusho":"福岡県朝倉市須川2680",
"Capacity":"240",
"la":"33.38540200000",
"ln":"130.73675900000"
},
"geometry":{
"type":"Point",
"coordinates":[
130.736759,
33.385402
]
}
},
{
"type":"Feature",
"properties":{
"Name":"杷木小学校",
"Jusho":"福岡県朝倉市杷木林田330－",
"Capacity":"230",
"la":"33.36065700000",
"ln":"130.81873600000"
},
"geometry":{
"type":"Point",
"coordinates":[
130.818736,
33.360657
]
}
},
{
"type":"Feature",
"properties":{
"Name":"立石小学校",
"Jusho":"福岡県朝倉市頓田380－",
"Capacity":"360",
"la":"33.41299200000",
"ln":"130.66806300000"
},
"geometry":{
"type":"Point",
"coordinates":[
130.668063,
33.412992
]
}
},
{
"type":"Feature",
"properties":{
"Name":"下庄小学校体育館",
"Jusho":"福岡県みやま市大字下庄1373",
"Capacity":"－",
"la":"33.15860902380",
"ln":"130.47542915400"
},
"geometry":{
"type":"Point",
"coordinates":[
130.475429154,
33.1586090238
]
}
},
{
"type":"Feature",
"properties":{
"Name":"開小学校体育館",
"Jusho":"福岡県みやま市大字黒崎開582",
"Capacity":"－",
"la":"33.09310507300",
"ln":"130.44325791500"
},
"geometry":{
"type":"Point",
"coordinates":[
130.443257915,
33.093105073
]
}
},
{
"type":"Feature",
"properties":{
"Name":"岩田小学校体育館",
"Jusho":"福岡県みやま市大字原1041",
"Capacity":"－",
"la":"33.11193546790",
"ln":"130.47466080600"
},
"geometry":{
"type":"Point",
"coordinates":[
130.474660806,
33.1119354679
]
}
},
{
"type":"Feature",
"properties":{
"Name":"江浦小学校体育館",
"Jusho":"福岡県みやま市大字江浦611",
"Capacity":"－",
"la":"33.11022366330",
"ln":"130.44748903900"
},
"geometry":{
"type":"Point",
"coordinates":[
130.447489039,
33.1102236633
]
}
},
{
"type":"Feature",
"properties":{
"Name":"山川東部小学校体育館",
"Jusho":"福岡県みやま市大字尾野1943－",
"Capacity":"－",
"la":"33.13199725370",
"ln":"130.51213155300"
},
"geometry":{
"type":"Point",
"coordinates":[
130.512131553,
33.1319972537
]
}
},
{
"type":"Feature",
"properties":{
"Name":"山川南部小学校体育館",
"Jusho":"福岡県みやま市大字重冨121",
"Capacity":"－",
"la":"33.10760978440",
"ln":"130.52958869800"
},
"geometry":{
"type":"Point",
"coordinates":[
130.529588698,
33.1076097844
]
}
},
{
"type":"Feature",
"properties":{
"Name":"上庄小学校",
"Jusho":"福岡県みやま市大字上庄61",
"Capacity":"190",
"la":"33.15986300000",
"ln":"130.46581200000"
},
"geometry":{
"type":"Point",
"coordinates":[
130.465812,
33.159863
]
}
},
{
"type":"Feature",
"properties":{
"Name":"水上小学校体育館",
"Jusho":"福岡県みやま市大字長田3228-2",
"Capacity":"－",
"la":"33.17639000000",
"ln":"130.51469800000"
},
"geometry":{
"type":"Point",
"coordinates":[
130.514698,
33.17639
]
}
},
{
"type":"Feature",
"properties":{
"Name":"清水小学校体育館",
"Jusho":"福岡県みやま市大草1596－",
"Capacity":"－",
"la":"33.15350391790",
"ln":"130.50623281600"
},
"geometry":{
"type":"Point",
"coordinates":[
130.506232816,
33.1535039179
]
}
},
{
"type":"Feature",
"properties":{
"Name":"大江小学校体育館",
"Jusho":"福岡県みやま市大字大江1726",
"Capacity":"－",
"la":"33.14563332430",
"ln":"130.48492535900"
},
"geometry":{
"type":"Point",
"coordinates":[
130.484925359,
33.1456333243
]
}
},
{
"type":"Feature",
"properties":{
"Name":"竹海小学校体育館",
"Jusho":"福岡県みやま市大字海津966",
"Capacity":"－",
"la":"33.12090123470",
"ln":"130.48925497600"
},
"geometry":{
"type":"Point",
"coordinates":[
130.489254976,
33.1209012347
]
}
},
{
"type":"Feature",
"properties":{
"Name":"南小学校体育館",
"Jusho":"福岡県みやま市大字太神801",
"Capacity":"－",
"la":"33.13547075700",
"ln":"130.46725700000"
},
"geometry":{
"type":"Point",
"coordinates":[
130.467257,
33.135470757
]
}
},
{
"type":"Feature",
"properties":{
"Name":"二川小学校体育館",
"Jusho":"福岡県みやま市大字下楠田1443",
"Capacity":"－",
"la":"33.09623784550",
"ln":"130.46411900000"
},
"geometry":{
"type":"Point",
"coordinates":[
130.464119,
33.0962378455
]
}
},
{
"type":"Feature",
"properties":{
"Name":"飯江小学校体育館",
"Jusho":"福岡県みやま市大字舞鶴257－",
"Capacity":"－",
"la":"33.11950388300",
"ln":"130.51890950400"
},
"geometry":{
"type":"Point",
"coordinates":[
130.518909504,
33.119503883
]
}
},
{
"type":"Feature",
"properties":{
"Name":"本郷小学校体育館",
"Jusho":"福岡県みやま市大字本郷1314",
"Capacity":"－",
"la":"33.16877769080",
"ln":"130.48612553700"
},
"geometry":{
"type":"Point",
"coordinates":[
130.486125537,
33.1687776908
]
}
},
{
"type":"Feature",
"properties":{
"Name":"一貴山小学校",
"Jusho":"福岡県糸島市二丈石崎152番地",
"Capacity":"－",
"la":"33.51820900000",
"ln":"130.16280300000"
},
"geometry":{
"type":"Point",
"coordinates":[
130.162803,
33.518209
]
}
},
{
"type":"Feature",
"properties":{
"Name":"引津小学校",
"Jusho":"福岡県糸島市志摩御床2165番地2",
"Capacity":"－",
"la":"33.56736900000",
"ln":"130.13841500000"
},
"geometry":{
"type":"Point",
"coordinates":[
130.138415,
33.567369
]
}
},
{
"type":"Feature",
"properties":{
"Name":"加布里小学校",
"Jusho":"福岡県糸島市神在1112番地",
"Capacity":"－",
"la":"33.54361100000",
"ln":"130.17361800000"
},
"geometry":{
"type":"Point",
"coordinates":[
130.173618,
33.543611
]
}
},
{
"type":"Feature",
"properties":{
"Name":"可也小学校",
"Jusho":"福岡県糸島市志摩初198番地",
"Capacity":"－",
"la":"33.58336900000",
"ln":"130.18038300000"
},
"geometry":{
"type":"Point",
"coordinates":[
130.180383,
33.583369
]
}
},
{
"type":"Feature",
"properties":{
"Name":"桜野小学校",
"Jusho":"福岡県糸島市志摩桜井5921番地",
"Capacity":"－",
"la":"33.61933700000",
"ln":"130.17841000000"
},
"geometry":{
"type":"Point",
"coordinates":[
130.17841,
33.619337
]
}
},
{
"type":"Feature",
"properties":{
"Name":"深江小学校",
"Jusho":"福岡県糸島市二丈深江999番地",
"Capacity":"－",
"la":"33.51479300000",
"ln":"130.13638900000"
},
"geometry":{
"type":"Point",
"coordinates":[
130.136389,
33.514793
]
}
},
{
"type":"Feature",
"properties":{
"Name":"前原小学校",
"Jusho":"福岡県糸島市前原東二丁目2番6号",
"Capacity":"－",
"la":"33.56175200000",
"ln":"130.20335100000"
},
"geometry":{
"type":"Point",
"coordinates":[
130.203351,
33.561752
]
}
},
{
"type":"Feature",
"properties":{
"Name":"前原南小学校",
"Jusho":"福岡県糸島市前原南一丁目17番1号",
"Capacity":"－",
"la":"33.55589400000",
"ln":"130.20647600000"
},
"geometry":{
"type":"Point",
"coordinates":[
130.206476,
33.555894
]
}
},
{
"type":"Feature",
"properties":{
"Name":"東風小学校",
"Jusho":"福岡県糸島市潤四丁目10番1号",
"Capacity":"－",
"la":"33.56767200000",
"ln":"130.21718300000"
},
"geometry":{
"type":"Point",
"coordinates":[
130.217183,
33.567672
]
}
},
{
"type":"Feature",
"properties":{
"Name":"南風小学校",
"Jusho":"福岡県糸島市南風台八丁目10番1号",
"Capacity":"－",
"la":"33.54599900000",
"ln":"130.19427100000"
},
"geometry":{
"type":"Point",
"coordinates":[
130.194271,
33.545999
]
}
},
{
"type":"Feature",
"properties":{
"Name":"波多江小学校",
"Jusho":"福岡県糸島市波多江駅北四丁目12番1号",
"Capacity":"－",
"la":"33.56576100000",
"ln":"130.23012900000"
},
"geometry":{
"type":"Point",
"coordinates":[
130.230129,
33.565761
]
}
},
{
"type":"Feature",
"properties":{
"Name":"姫島小学校",
"Jusho":"福岡県糸島市志摩姫島976番地",
"Capacity":"－",
"la":"33.56863393010",
"ln":"130.04622600000"
},
"geometry":{
"type":"Point",
"coordinates":[
130.046226,
33.5686339301
]
}
},
{
"type":"Feature",
"properties":{
"Name":"福吉小学校",
"Jusho":"福岡県糸島市二丈吉井4118番地",
"Capacity":"－",
"la":"33.50270900000",
"ln":"130.07850700000"
},
"geometry":{
"type":"Point",
"coordinates":[
130.078507,
33.502709
]
}
},
{
"type":"Feature",
"properties":{
"Name":"雷山小学校",
"Jusho":"福岡県糸島市蔵持810番地1",
"Capacity":"－",
"la":"33.53698700000",
"ln":"130.21915800000"
},
"geometry":{
"type":"Point",
"coordinates":[
130.219158,
33.536987
]
}
},
{
"type":"Feature",
"properties":{
"Name":"怡土小学校",
"Jusho":"福岡県糸島市高祖814番地",
"Capacity":"－",
"la":"33.53698800000",
"ln":"130.25001600000"
},
"geometry":{
"type":"Point",
"coordinates":[
130.250016,
33.536988
]
}
},
{
"type":"Feature",
"properties":{
"Name":"安徳小学校",
"Jusho":"福岡県筑紫郡那珂川町松木2－34",
"Capacity":"－",
"la":"33.51002100000",
"ln":"130.43286400000"
},
"geometry":{
"type":"Point",
"coordinates":[
130.432864,
33.510021
]
}
},
{
"type":"Feature",
"properties":{
"Name":"安徳南小学校",
"Jusho":"福岡県筑紫郡那珂川町上梶原1－－",
"Capacity":"－",
"la":"33.49577300000",
"ln":"130.43433600000"
},
"geometry":{
"type":"Point",
"coordinates":[
130.434336,
33.495773
]
}
},
{
"type":"Feature",
"properties":{
"Name":"安徳北小学校",
"Jusho":"福岡県筑紫郡那珂川町五郎丸1－1",
"Capacity":"－",
"la":"33.51421500000",
"ln":"130.42914300000"
},
"geometry":{
"type":"Point",
"coordinates":[
130.429143,
33.514215
]
}
},
{
"type":"Feature",
"properties":{
"Name":"岩戸小学校",
"Jusho":"福岡県筑紫郡那珂川町西隈2-6-43",
"Capacity":"－",
"la":"33.49805000000",
"ln":"130.42069900000"
},
"geometry":{
"type":"Point",
"coordinates":[
130.420699,
33.49805
]
}
},
{
"type":"Feature",
"properties":{
"Name":"岩戸北小学校",
"Jusho":"福岡県筑紫郡那珂川町恵子1－－",
"Capacity":"－",
"la":"33.51577100000",
"ln":"130.41883800000"
},
"geometry":{
"type":"Point",
"coordinates":[
130.418838,
33.515771
]
}
},
{
"type":"Feature",
"properties":{
"Name":"南畑小学校（多目的教室）",
"Jusho":"福岡県筑紫郡那珂川町埋金530－",
"Capacity":"－",
"la":"33.46593300000",
"ln":"130.42755300000"
},
"geometry":{
"type":"Point",
"coordinates":[
130.427553,
33.465933
]
}
},
{
"type":"Feature",
"properties":{
"Name":"片縄小学校",
"Jusho":"福岡県筑紫郡那珂川町片縄1－5－",
"Capacity":"－",
"la":"33.52018200000",
"ln":"130.41915600000"
},
"geometry":{
"type":"Point",
"coordinates":[
130.419156,
33.520182
]
}
},
{
"type":"Feature",
"properties":{
"Name":"篠栗小学校",
"Jusho":"福岡県糟屋郡篠栗町篠栗5026",
"Capacity":"－",
"la":"33.62167800000",
"ln":"130.53335300000"
},
"geometry":{
"type":"Point",
"coordinates":[
130.533353,
33.621678
]
}
},
{
"type":"Feature",
"properties":{
"Name":"勢門小学校",
"Jusho":"福岡県糟屋郡篠栗町尾仲671",
"Capacity":"－",
"la":"33.61965000000",
"ln":"130.51268800000"
},
"geometry":{
"type":"Point",
"coordinates":[
130.512688,
33.61965
]
}
},
{
"type":"Feature",
"properties":{
"Name":"北勢門小学校",
"Jusho":"福岡県糟屋郡篠栗町津波黒497",
"Capacity":"－",
"la":"33.63067700000",
"ln":"130.51182700000"
},
"geometry":{
"type":"Point",
"coordinates":[
130.511827,
33.630677
]
}
},
{
"type":"Feature",
"properties":{
"Name":"志免西小学校",
"Jusho":"福岡県糟屋郡志免町別府2丁目4－",
"Capacity":"－",
"la":"33.60154000000",
"ln":"130.46227700000"
},
"geometry":{
"type":"Point",
"coordinates":[
130.462277,
33.60154
]
}
},
{
"type":"Feature",
"properties":{
"Name":"志免中央小学校",
"Jusho":"福岡県糟屋郡志免町志免中央1丁目8－",
"Capacity":"－",
"la":"33.59057500000",
"ln":"130.48111200000"
},
"geometry":{
"type":"Point",
"coordinates":[
130.481112,
33.590575
]
}
},
{
"type":"Feature",
"properties":{
"Name":"志免東小学校",
"Jusho":"福岡県糟屋郡志免町志免東1丁目1－",
"Capacity":"－",
"la":"33.58254600000",
"ln":"130.48628700000"
},
"geometry":{
"type":"Point",
"coordinates":[
130.486287,
33.582546
]
}
},
{
"type":"Feature",
"properties":{
"Name":"志免南小学校",
"Jusho":"福岡県糟屋郡志免町大字吉原556",
"Capacity":"－",
"la":"33.57304400000",
"ln":"130.48533100000"
},
"geometry":{
"type":"Point",
"coordinates":[
130.485331,
33.573044
]
}
},
{
"type":"Feature",
"properties":{
"Name":"町立須恵第一小学校",
"Jusho":"福岡県糟屋郡須恵町大字上須恵962-2",
"Capacity":"－",
"la":"33.58558400000",
"ln":"130.51631400000"
},
"geometry":{
"type":"Point",
"coordinates":[
130.516314,
33.585584
]
}
},
{
"type":"Feature",
"properties":{
"Name":"町立須恵第三小学校",
"Jusho":"福岡県糟屋郡須恵町大字旅石84－0",
"Capacity":"－",
"la":"33.58334800000",
"ln":"130.49799700000"
},
"geometry":{
"type":"Point",
"coordinates":[
130.497997,
33.583348
]
}
},
{
"type":"Feature",
"properties":{
"Name":"町立須恵第二小学校",
"Jusho":"福岡県糟屋郡須恵町大字植木260-5",
"Capacity":"－",
"la":"33.59915200000",
"ln":"130.49813500000"
},
"geometry":{
"type":"Point",
"coordinates":[
130.498135,
33.599152
]
}
},
{
"type":"Feature",
"properties":{
"Name":"新宮小学校",
"Jusho":"福岡県糟屋郡新宮町下府三丁目12－",
"Capacity":"－",
"la":"33.70888900000",
"ln":"130.44044100000"
},
"geometry":{
"type":"Point",
"coordinates":[
130.440441,
33.708889
]
}
},
{
"type":"Feature",
"properties":{
"Name":"新宮東小学校",
"Jusho":"福岡県糟屋郡新宮町大字上府1151－",
"Capacity":"－",
"la":"33.70536200000",
"ln":"130.45135700000"
},
"geometry":{
"type":"Point",
"coordinates":[
130.451357,
33.705362
]
}
},
{
"type":"Feature",
"properties":{
"Name":"相島小学校・相島埋立地",
"Jusho":"福岡県糟屋郡新宮町大字相島296－",
"Capacity":"－",
"la":"33.76138200000",
"ln":"130.36900300000"
},
"geometry":{
"type":"Point",
"coordinates":[
130.369003,
33.761382
]
}
},
{
"type":"Feature",
"properties":{
"Name":"立花小学校",
"Jusho":"福岡県糟屋郡新宮町大字立花口1072-3",
"Capacity":"－",
"la":"33.68986400000",
"ln":"130.46782900000"
},
"geometry":{
"type":"Point",
"coordinates":[
130.467829,
33.689864
]
}
},
{
"type":"Feature",
"properties":{
"Name":"久原小学校",
"Jusho":"福岡県糟屋郡久山町大字久原3479",
"Capacity":"－",
"la":"33.64639800000",
"ln":"130.50313200000"
},
"geometry":{
"type":"Point",
"coordinates":[
130.503132,
33.646398
]
}
},
{
"type":"Feature",
"properties":{
"Name":"山田小学校",
"Jusho":"福岡県糟屋郡久山町大字山田210",
"Capacity":"－",
"la":"33.66114600000",
"ln":"130.49863200000"
},
"geometry":{
"type":"Point",
"coordinates":[
130.498632,
33.661146
]
}
},
{
"type":"Feature",
"properties":{
"Name":"大川小学校",
"Jusho":"福岡県糟屋郡粕屋町戸原10",
"Capacity":"－",
"la":"33.62495400000",
"ln":"130.47460800000"
},
"geometry":{
"type":"Point",
"coordinates":[
130.474608,
33.624954
]
}
},
{
"type":"Feature",
"properties":{
"Name":"仲原小学校",
"Jusho":"福岡県糟屋郡粕屋町仲原1367",
"Capacity":"－",
"la":"33.60590100000",
"ln":"130.47210900000"
},
"geometry":{
"type":"Point",
"coordinates":[
130.472109,
33.605901
]
}
},
{
"type":"Feature",
"properties":{
"Name":"粕屋西小学校",
"Jusho":"福岡県糟屋郡粕屋町仲原2445",
"Capacity":"－",
"la":"33.61312200000",
"ln":"130.45800000000"
},
"geometry":{
"type":"Point",
"coordinates":[
130.458,
33.613122
]
}
},
{
"type":"Feature",
"properties":{
"Name":"粕屋中央小学校",
"Jusho":"福岡県糟屋郡粕屋町仲原155",
"Capacity":"－",
"la":"33.61551100000",
"ln":"130.47508100000"
},
"geometry":{
"type":"Point",
"coordinates":[
130.475081,
33.615511
]
}
},
{
"type":"Feature",
"properties":{
"Name":"町立芦屋小学校",
"Jusho":"福岡県遠賀郡芦屋町白浜町3786",
"Capacity":"1915",
"la":"33.89078900000",
"ln":"130.65942100000"
},
"geometry":{
"type":"Point",
"coordinates":[
130.659421,
33.890789
]
}
},
{
"type":"Feature",
"properties":{
"Name":"町立芦屋東小学校",
"Jusho":"福岡県遠賀郡芦屋町浜口町5-55",
"Capacity":"1580",
"la":"33.88509600000",
"ln":"130.67158600000"
},
"geometry":{
"type":"Point",
"coordinates":[
130.671586,
33.885096
]
}
},
{
"type":"Feature",
"properties":{
"Name":"町立山鹿小学校",
"Jusho":"福岡県遠賀郡芦屋町山鹿2853",
"Capacity":"1098",
"la":"33.90153800000",
"ln":"130.66753100000"
},
"geometry":{
"type":"Point",
"coordinates":[
130.667531,
33.901538
]
}
},
{
"type":"Feature",
"properties":{
"Name":"えぶり小学校（体育館）",
"Jusho":"福岡県遠賀郡水巻町えぶり二丁目3－",
"Capacity":"3830",
"la":"33.86023800000",
"ln":"130.68491900000"
},
"geometry":{
"type":"Point",
"coordinates":[
130.684919,
33.860238
]
}
},
{
"type":"Feature",
"properties":{
"Name":"伊佐座小学校（体育館）",
"Jusho":"福岡県遠賀郡水巻町伊佐座三丁目4－",
"Capacity":"5470",
"la":"33.84228280570",
"ln":"130.69347844400"
},
"geometry":{
"type":"Point",
"coordinates":[
130.693478444,
33.8422828057
]
}
},
{
"type":"Feature",
"properties":{
"Name":"吉田小学校（体育館）",
"Jusho":"福岡県遠賀郡水巻町吉田東三丁目5－",
"Capacity":"6600",
"la":"33.84884323520",
"ln":"130.70670016000"
},
"geometry":{
"type":"Point",
"coordinates":[
130.70670016,
33.8488432352
]
}
},
{
"type":"Feature",
"properties":{
"Name":"頃末小学校（体育館）",
"Jusho":"福岡県遠賀郡水巻町頃末北四丁目13－",
"Capacity":"3370",
"la":"33.85813207840",
"ln":"130.69942037100"
},
"geometry":{
"type":"Point",
"coordinates":[
130.699420371,
33.8581320784
]
}
},
{
"type":"Feature",
"properties":{
"Name":"猪熊小学校（体育館）",
"Jusho":"福岡県遠賀郡水巻町猪熊三丁目4－",
"Capacity":"6130",
"la":"33.87308653540",
"ln":"130.68778489300"
},
"geometry":{
"type":"Point",
"coordinates":[
130.687784893,
33.8730865354
]
}
},
{
"type":"Feature",
"properties":{
"Name":"海老津小学校",
"Jusho":"福岡県遠賀郡岡垣町",
"Capacity":"－",
"la":"33.84171200000",
"ln":"130.61612100000"
},
"geometry":{
"type":"Point",
"coordinates":[
130.616121,
33.841712
]
}
},
{
"type":"Feature",
"properties":{
"Name":"吉木小学校",
"Jusho":"福岡県遠賀郡岡垣町",
"Capacity":"－",
"la":"33.85651500000",
"ln":"130.60351000000"
},
"geometry":{
"type":"Point",
"coordinates":[
130.60351,
33.856515
]
}
},
{
"type":"Feature",
"properties":{
"Name":"戸切小学校",
"Jusho":"福岡県遠賀郡岡垣町",
"Capacity":"－",
"la":"33.83985100000",
"ln":"130.63503600000"
},
"geometry":{
"type":"Point",
"coordinates":[
130.635036,
33.839851
]
}
},
{
"type":"Feature",
"properties":{
"Name":"山田小学校",
"Jusho":"福岡県遠賀郡岡垣町",
"Capacity":"－",
"la":"33.84823200000",
"ln":"130.62855500000"
},
"geometry":{
"type":"Point",
"coordinates":[
130.628555,
33.848232
]
}
},
{
"type":"Feature",
"properties":{
"Name":"内浦小学校",
"Jusho":"福岡県遠賀郡岡垣町",
"Capacity":"－",
"la":"33.87634500000",
"ln":"130.57381700000"
},
"geometry":{
"type":"Point",
"coordinates":[
130.573817,
33.876345
]
}
},
{
"type":"Feature",
"properties":{
"Name":"広渡小学校",
"Jusho":"福岡県遠賀郡遠賀町",
"Capacity":"1042",
"la":"33.85512700000",
"ln":"130.67355900000"
},
"geometry":{
"type":"Point",
"coordinates":[
130.673559,
33.855127
]
}
},
{
"type":"Feature",
"properties":{
"Name":"浅木小学校",
"Jusho":"福岡県遠賀郡遠賀町",
"Capacity":"1212",
"la":"33.83443200000",
"ln":"130.66673500000"
},
"geometry":{
"type":"Point",
"coordinates":[
130.666735,
33.834432
]
}
},
{
"type":"Feature",
"properties":{
"Name":"島門小学校",
"Jusho":"福岡県遠賀郡遠賀町",
"Capacity":"1373",
"la":"33.85959900000",
"ln":"130.66597600000"
},
"geometry":{
"type":"Point",
"coordinates":[
130.665976,
33.859599
]
}
},
{
"type":"Feature",
"properties":{
"Name":"小竹西小学校",
"Jusho":"福岡県鞍手郡小竹町",
"Capacity":"－",
"la":"33.69317400000",
"ln":"130.68814500000"
},
"geometry":{
"type":"Point",
"coordinates":[
130.688145,
33.693174
]
}
},
{
"type":"Feature",
"properties":{
"Name":"小竹南小学校",
"Jusho":"福岡県鞍手郡小竹町",
"Capacity":"－",
"la":"33.69003600000",
"ln":"130.71033800000"
},
"geometry":{
"type":"Point",
"coordinates":[
130.710338,
33.690036
]
}
},
{
"type":"Feature",
"properties":{
"Name":"小竹北小学校",
"Jusho":"福岡県鞍手郡小竹町",
"Capacity":"－",
"la":"33.71614400000",
"ln":"130.71261500000"
},
"geometry":{
"type":"Point",
"coordinates":[
130.712615,
33.716144
]
}
},
{
"type":"Feature",
"properties":{
"Name":"剣南小学校",
"Jusho":"福岡県鞍手郡鞍手町大字中山2213番地1",
"Capacity":"750",
"la":"33.78791300000",
"ln":"130.69197600000"
},
"geometry":{
"type":"Point",
"coordinates":[
130.691976,
33.787913
]
}
},
{
"type":"Feature",
"properties":{
"Name":"剣北小学校",
"Jusho":"福岡県鞍手郡鞍手町大字中山3266番地",
"Capacity":"750",
"la":"33.79082900000",
"ln":"130.67869900000"
},
"geometry":{
"type":"Point",
"coordinates":[
130.678699,
33.790829
]
}
},
{
"type":"Feature",
"properties":{
"Name":"古月小学校",
"Jusho":"福岡県鞍手郡鞍手町大字木月1149番地",
"Capacity":"750",
"la":"33.81199300000",
"ln":"130.67442100000"
},
"geometry":{
"type":"Point",
"coordinates":[
130.674421,
33.811993
]
}
},
{
"type":"Feature",
"properties":{
"Name":"室木小学校",
"Jusho":"福岡県鞍手郡鞍手町大字室木1290番地",
"Capacity":"750",
"la":"33.75947200000",
"ln":"130.66286800000"
},
"geometry":{
"type":"Point",
"coordinates":[
130.662868,
33.759472
]
}
},
{
"type":"Feature",
"properties":{
"Name":"新延小学校",
"Jusho":"福岡県鞍手郡鞍手町大字新延1511番地",
"Capacity":"750",
"la":"33.79069000000",
"ln":"130.65906200000"
},
"geometry":{
"type":"Point",
"coordinates":[
130.659062,
33.79069
]
}
},
{
"type":"Feature",
"properties":{
"Name":"西川小学校",
"Jusho":"福岡県鞍手郡鞍手町大字新北1081番地",
"Capacity":"750",
"la":"33.77091500000",
"ln":"130.67070000000"
},
"geometry":{
"type":"Point",
"coordinates":[
130.6707,
33.770915
]
}
},
{
"type":"Feature",
"properties":{
"Name":"桂川小学校",
"Jusho":"福岡県嘉穂郡桂川町土居552",
"Capacity":"－",
"la":"33.58040700000",
"ln":"130.67542600000"
},
"geometry":{
"type":"Point",
"coordinates":[
130.675426,
33.580407
]
}
},
{
"type":"Feature",
"properties":{
"Name":"桂川東小学校",
"Jusho":"福岡県嘉穂郡桂川町土師28－",
"Capacity":"－",
"la":"33.57624200000",
"ln":"130.69873000000"
},
"geometry":{
"type":"Point",
"coordinates":[
130.69873,
33.576242
]
}
},
{
"type":"Feature",
"properties":{
"Name":"三並小学校体育館",
"Jusho":"福岡県朝倉郡筑前町三並1354番地",
"Capacity":"－",
"la":"33.47243539110",
"ln":"130.61613982300"
},
"geometry":{
"type":"Point",
"coordinates":[
130.616139823,
33.4724353911
]
}
},
{
"type":"Feature",
"properties":{
"Name":"三輪小学校体育館",
"Jusho":"福岡県朝倉郡筑前町新町400番地",
"Capacity":"－",
"la":"33.43515917290",
"ln":"130.63689776100"
},
"geometry":{
"type":"Point",
"coordinates":[
130.636897761,
33.4351591729
]
}
},
{
"type":"Feature",
"properties":{
"Name":"中牟田小学校体育館",
"Jusho":"福岡県朝倉郡筑前町中牟田145番地",
"Capacity":"－",
"la":"33.46786100000",
"ln":"130.58257500000"
},
"geometry":{
"type":"Point",
"coordinates":[
130.582575,
33.467861
]
}
},
{
"type":"Feature",
"properties":{
"Name":"東小田小学校体育館",
"Jusho":"福岡県朝倉郡筑前町東小田436番地1",
"Capacity":"－",
"la":"33.44646840410",
"ln":"130.59175301000"
},
"geometry":{
"type":"Point",
"coordinates":[
130.59175301,
33.4464684041
]
}
},
{
"type":"Feature",
"properties":{
"Name":"菊池小学校",
"Jusho":"福岡県三井郡大刀洗町大字山隈1344-3",
"Capacity":"－",
"la":"33.40745100000",
"ln":"130.60340800000"
},
"geometry":{
"type":"Point",
"coordinates":[
130.603408,
33.407451
]
}
},
{
"type":"Feature",
"properties":{
"Name":"大堰小学校",
"Jusho":"福岡県三井郡大刀洗町大字守部465",
"Capacity":"－",
"la":"33.36795600000",
"ln":"130.63610100000"
},
"geometry":{
"type":"Point",
"coordinates":[
130.636101,
33.367956
]
}
},
{
"type":"Feature",
"properties":{
"Name":"大刀洗小学校",
"Jusho":"福岡県三井郡大刀洗町大字上高橋755－",
"Capacity":"－",
"la":"33.37548200000",
"ln":"130.60065900000"
},
"geometry":{
"type":"Point",
"coordinates":[
130.600659,
33.375482
]
}
},
{
"type":"Feature",
"properties":{
"Name":"本郷小学校",
"Jusho":"福岡県三井郡大刀洗町大字本郷4669－",
"Capacity":"－",
"la":"33.38531500000",
"ln":"130.62443500000"
},
"geometry":{
"type":"Point",
"coordinates":[
130.624435,
33.385315
]
}
},
{
"type":"Feature",
"properties":{
"Name":"大莞小学校体育館",
"Jusho":"福岡県三潴郡大木町",
"Capacity":"300",
"la":"33.19324353700",
"ln":"130.44251384700"
},
"geometry":{
"type":"Point",
"coordinates":[
130.442513847,
33.193243537
]
}
},
{
"type":"Feature",
"properties":{
"Name":"大溝小学校体育館",
"Jusho":"福岡県三潴郡大木町",
"Capacity":"250",
"la":"33.22783893730",
"ln":"130.44014002600"
},
"geometry":{
"type":"Point",
"coordinates":[
130.440140026,
33.2278389373
]
}
},
{
"type":"Feature",
"properties":{
"Name":"木佐木小学校体育館",
"Jusho":"福岡県三潴郡大木町",
"Capacity":"250",
"la":"33.21137031320",
"ln":"130.44215732800"
},
"geometry":{
"type":"Point",
"coordinates":[
130.442157328,
33.2113703132
]
}
},
{
"type":"Feature",
"properties":{
"Name":"下広川小学校",
"Jusho":"福岡県八女郡広川町大字広川1426-3",
"Capacity":"1100",
"la":"33.24429900000",
"ln":"130.52364000000"
},
"geometry":{
"type":"Point",
"coordinates":[
130.52364,
33.244299
]
}
},
{
"type":"Feature",
"properties":{
"Name":"上広川小学校",
"Jusho":"福岡県八女郡広川町大字水原959－",
"Capacity":"1200",
"la":"33.24377300000",
"ln":"130.57794100000"
},
"geometry":{
"type":"Point",
"coordinates":[
130.577941,
33.243773
]
}
},
{
"type":"Feature",
"properties":{
"Name":"中広川小学校",
"Jusho":"福岡県八女郡広川町大字新代1705",
"Capacity":"1500",
"la":"33.24413300000",
"ln":"130.55302700000"
},
"geometry":{
"type":"Point",
"coordinates":[
130.553027,
33.244133
]
}
},
{
"type":"Feature",
"properties":{
"Name":"旧英彦山小学校",
"Jusho":"福岡県田川郡添田町",
"Capacity":"－",
"la":"33.48412012430",
"ln":"130.90547097800"
},
"geometry":{
"type":"Point",
"coordinates":[
130.905470978,
33.4841201243
]
}
},
{
"type":"Feature",
"properties":{
"Name":"真木小学校",
"Jusho":"福岡県田川郡添田町",
"Capacity":"－",
"la":"33.58529900000",
"ln":"130.83902400000"
},
"geometry":{
"type":"Point",
"coordinates":[
130.839024,
33.585299
]
}
},
{
"type":"Feature",
"properties":{
"Name":"中元寺小学校",
"Jusho":"福岡県田川郡添田町",
"Capacity":"－",
"la":"33.54758200000",
"ln":"130.84569200000"
},
"geometry":{
"type":"Point",
"coordinates":[
130.845692,
33.547582
]
}
},
{
"type":"Feature",
"properties":{
"Name":"津野小学校",
"Jusho":"福岡県田川郡添田町",
"Capacity":"－",
"la":"33.53799385040",
"ln":"130.90170299000"
},
"geometry":{
"type":"Point",
"coordinates":[
130.90170299,
33.5379938504
]
}
},
{
"type":"Feature",
"properties":{
"Name":"添田小学校",
"Jusho":"福岡県田川郡添田町",
"Capacity":"－",
"la":"33.56816300000",
"ln":"130.85869000000"
},
"geometry":{
"type":"Point",
"coordinates":[
130.85869,
33.568163
]
}
},
{
"type":"Feature",
"properties":{
"Name":"落合小学校",
"Jusho":"福岡県田川郡添田町",
"Capacity":"－",
"la":"33.50775200000",
"ln":"130.86316300000"
},
"geometry":{
"type":"Point",
"coordinates":[
130.863163,
33.507752
]
}
},
{
"type":"Feature",
"properties":{
"Name":"安宅交流センター（旧安宅小学校グラウンド）",
"Jusho":"福岡県田川郡川崎町",
"Capacity":"－",
"la":"33.54865999910",
"ln":"130.82312400000"
},
"geometry":{
"type":"Point",
"coordinates":[
130.823124,
33.5486599991
]
}
},
{
"type":"Feature",
"properties":{
"Name":"真崎小学校（真崎小学校グラウンド）",
"Jusho":"福岡県田川郡川崎町",
"Capacity":"－",
"la":"33.56942984510",
"ln":"130.81672075100"
},
"geometry":{
"type":"Point",
"coordinates":[
130.816720751,
33.5694298451
]
}
},
{
"type":"Feature",
"properties":{
"Name":"川崎小学校（川崎小学校グラウンド）",
"Jusho":"福岡県田川郡川崎町",
"Capacity":"－",
"la":"33.60171053900",
"ln":"130.81351689900"
},
"geometry":{
"type":"Point",
"coordinates":[
130.813516899,
33.601710539
]
}
},
{
"type":"Feature",
"properties":{
"Name":"川崎東小学校（川崎東小学校グラウンド）",
"Jusho":"福岡県田川郡川崎町",
"Capacity":"－",
"la":"33.59775315800",
"ln":"130.82735800000"
},
"geometry":{
"type":"Point",
"coordinates":[
130.827358,
33.597753158
]
}
},
{
"type":"Feature",
"properties":{
"Name":"大峰ふれあいセンター（旧大峰小学校グランド）",
"Jusho":"福岡県田川郡川崎町",
"Capacity":"－",
"la":"33.59193799910",
"ln":"130.83510500000"
},
"geometry":{
"type":"Point",
"coordinates":[
130.835105,
33.5919379991
]
}
},
{
"type":"Feature",
"properties":{
"Name":"池尻小学校（池尻小学校グラウンド）",
"Jusho":"福岡県田川郡川崎町",
"Capacity":"－",
"la":"33.61604037970",
"ln":"130.80476747500"
},
"geometry":{
"type":"Point",
"coordinates":[
130.804767475,
33.6160403797
]
}
},
{
"type":"Feature",
"properties":{
"Name":"今任小学校",
"Jusho":"福岡県田川郡大任町今任原3518",
"Capacity":"500",
"la":"33.64309900000",
"ln":"130.84668900000"
},
"geometry":{
"type":"Point",
"coordinates":[
130.846689,
33.643099
]
}
},
{
"type":"Feature",
"properties":{
"Name":"大任小学校",
"Jusho":"福岡県田川郡大任町大行事3040",
"Capacity":"800",
"la":"33.60990800000",
"ln":"130.85616100000"
},
"geometry":{
"type":"Point",
"coordinates":[
130.856161,
33.609908
]
}
},
{
"type":"Feature",
"properties":{
"Name":"伊方小学校",
"Jusho":"福岡県田川郡福智町伊方3922番地",
"Capacity":"－",
"la":"33.68120700000",
"ln":"130.79482900000"
},
"geometry":{
"type":"Point",
"coordinates":[
130.794829,
33.681207
]
}
},
{
"type":"Feature",
"properties":{
"Name":"伊方小学校グラウンド",
"Jusho":"福岡県田川郡福智町伊方3922番地",
"Capacity":"－",
"la":"33.68083863120",
"ln":"130.79577080400"
},
"geometry":{
"type":"Point",
"coordinates":[
130.795770804,
33.6808386312
]
}
},
{
"type":"Feature",
"properties":{
"Name":"市場小学校",
"Jusho":"福岡県田川郡福智町市場334番地",
"Capacity":"－",
"la":"33.70498000000",
"ln":"130.76594400000"
},
"geometry":{
"type":"Point",
"coordinates":[
130.765944,
33.70498
]
}
},
{
"type":"Feature",
"properties":{
"Name":"上野小学校",
"Jusho":"福岡県田川郡福智町上野2622番地",
"Capacity":"－",
"la":"33.71300700000",
"ln":"130.77563700000"
},
"geometry":{
"type":"Point",
"coordinates":[
130.775637,
33.713007
]
}
},
{
"type":"Feature",
"properties":{
"Name":"弁城小学校",
"Jusho":"福岡県田川郡福智町弁城1936番地",
"Capacity":"－",
"la":"33.70023200000",
"ln":"130.78833000000"
},
"geometry":{
"type":"Point",
"coordinates":[
130.78833,
33.700232
]
}
},
{
"type":"Feature",
"properties":{
"Name":"苅田小学校／体育館",
"Jusho":"福岡県京都郡苅田町神田町2-9－2",
"Capacity":"－",
"la":"33.79028000000",
"ln":"130.97914600000"
},
"geometry":{
"type":"Point",
"coordinates":[
130.979146,
33.79028
]
}
},
{
"type":"Feature",
"properties":{
"Name":"南原小学校／体育館",
"Jusho":"福岡県京都郡苅田町富久町1-4-9",
"Capacity":"－",
"la":"33.77307400000",
"ln":"130.98087000000"
},
"geometry":{
"type":"Point",
"coordinates":[
130.98087,
33.773074
]
}
},
{
"type":"Feature",
"properties":{
"Name":"馬場小学校／体育館",
"Jusho":"福岡県京都郡苅田町大字馬場558",
"Capacity":"－",
"la":"33.78050300000",
"ln":"130.97681300000"
},
"geometry":{
"type":"Point",
"coordinates":[
130.976813,
33.780503
]
}
},
{
"type":"Feature",
"properties":{
"Name":"白川小学校／体育館",
"Jusho":"福岡県京都郡苅田町大字稲光357",
"Capacity":"－",
"la":"33.75089400000",
"ln":"130.93701100000"
},
"geometry":{
"type":"Point",
"coordinates":[
130.937011,
33.750894
]
}
},
{
"type":"Feature",
"properties":{
"Name":"片島小学校／体育館",
"Jusho":"福岡県京都郡苅田町大字上片島1504",
"Capacity":"－",
"la":"33.74300700000",
"ln":"130.95601000000"
},
"geometry":{
"type":"Point",
"coordinates":[
130.95601,
33.743007
]
}
},
{
"type":"Feature",
"properties":{
"Name":"与原小学校／体育館",
"Jusho":"福岡県京都郡苅田町与原3-7-5",
"Capacity":"－",
"la":"33.75376100000",
"ln":"130.97930900000"
},
"geometry":{
"type":"Point",
"coordinates":[
130.979309,
33.753761
]
}
},
{
"type":"Feature",
"properties":{
"Name":"犀川小学校",
"Jusho":"福岡県京都郡みやこ町犀川本庄620",
"Capacity":"355",
"la":"33.64752200000",
"ln":"130.94079000000"
},
"geometry":{
"type":"Point",
"coordinates":[
130.94079,
33.647522
]
}
},
{
"type":"Feature",
"properties":{
"Name":"上高屋小学校",
"Jusho":"福岡県京都郡みやこ町犀川上高屋1706",
"Capacity":"81",
"la":"33.62790600000",
"ln":"130.94708800000"
},
"geometry":{
"type":"Point",
"coordinates":[
130.947088,
33.627906
]
}
},
{
"type":"Feature",
"properties":{
"Name":"節丸小学校",
"Jusho":"福岡県京都郡みやこ町節丸728－",
"Capacity":"137",
"la":"33.65234000000",
"ln":"130.97784700000"
},
"geometry":{
"type":"Point",
"coordinates":[
130.977847,
33.65234
]
}
},
{
"type":"Feature",
"properties":{
"Name":"吉富小学校",
"Jusho":"福岡県築上郡吉富町大字広津665－",
"Capacity":"－",
"la":"33.60433100000",
"ln":"131.17271700000"
},
"geometry":{
"type":"Point",
"coordinates":[
131.172717,
33.604331
]
}
},
{
"type":"Feature",
"properties":{
"Name":"旧原井小学校広場",
"Jusho":"福岡県築上郡上毛町大字原井764番地",
"Capacity":"－",
"la":"33.52313974330",
"ln":"131.16419234400"
},
"geometry":{
"type":"Point",
"coordinates":[
131.164192344,
33.5231397433
]
}
},
{
"type":"Feature",
"properties":{
"Name":"西吉富小学校運動場",
"Jusho":"福岡県築上郡上毛町大字緒方598番地1",
"Capacity":"－",
"la":"33.57923375590",
"ln":"131.14330849900"
},
"geometry":{
"type":"Point",
"coordinates":[
131.143308499,
33.5792337559
]
}
},
{
"type":"Feature",
"properties":{
"Name":"唐原小学校運動場",
"Jusho":"福岡県築上郡上毛町大字上唐原1265番地1",
"Capacity":"－",
"la":"33.55547239080",
"ln":"131.18822725800"
},
"geometry":{
"type":"Point",
"coordinates":[
131.188227258,
33.5554723908
]
}
},
{
"type":"Feature",
"properties":{
"Name":"南吉富小学校講堂",
"Jusho":"福岡県築上郡上毛町大字垂水1397番地",
"Capacity":"－",
"la":"33.58027231140",
"ln":"131.16544916200"
},
"geometry":{
"type":"Point",
"coordinates":[
131.165449162,
33.5802723114
]
}
},
{
"type":"Feature",
"properties":{
"Name":"葛城小学校",
"Jusho":"福岡県築上郡築上町大字水原77",
"Capacity":"－",
"la":"33.64538000000",
"ln":"131.03697800000"
},
"geometry":{
"type":"Point",
"coordinates":[
131.036978,
33.64538
]
}
},
{
"type":"Feature",
"properties":{
"Name":"旧小山田小学校",
"Jusho":"福岡県築上郡築上町大字小山田2327",
"Capacity":"－",
"la":"33.64619952890",
"ln":"131.02051009700"
},
"geometry":{
"type":"Point",
"coordinates":[
131.020510097,
33.6461995289
]
}
},
{
"type":"Feature",
"properties":{
"Name":"小原小学校",
"Jusho":"福岡県築上郡築上町大字小原17",
"Capacity":"－",
"la":"33.62168700000",
"ln":"131.04347800000"
},
"geometry":{
"type":"Point",
"coordinates":[
131.043478,
33.621687
]
}
},
{
"type":"Feature",
"properties":{
"Name":"西角田小学校",
"Jusho":"福岡県築上郡築上町大字上ノ河内933",
"Capacity":"－",
"la":"33.63063200000",
"ln":"131.07711300000"
},
"geometry":{
"type":"Point",
"coordinates":[
131.077113,
33.630632
]
}
},
{
"type":"Feature",
"properties":{
"Name":"築城小学校",
"Jusho":"福岡県築上郡築上町大字上別府305",
"Capacity":"－",
"la":"33.66862700000",
"ln":"131.02939500000"
},
"geometry":{
"type":"Point",
"coordinates":[
131.029395,
33.668627
]
}
},
{
"type":"Feature",
"properties":{
"Name":"椎田小学校",
"Jusho":"福岡県築上郡築上町大字湊150",
"Capacity":"－",
"la":"33.65243500000",
"ln":"131.06219800000"
},
"geometry":{
"type":"Point",
"coordinates":[
131.062198,
33.652435
]
}
},
{
"type":"Feature",
"properties":{
"Name":"八津田小学校",
"Jusho":"福岡県築上郡築上町大字宇留津322",
"Capacity":"－",
"la":"33.67723800000",
"ln":"131.05150400000"
},
"geometry":{
"type":"Point",
"coordinates":[
131.051504,
33.677238
]
}
},
{
"type":"Feature",
"properties":{
"Name":"井野小学校（体育館）",
"Jusho":"福岡県糟屋郡宇美町大字井野419-9",
"Capacity":"－",
"la":"33.56770500000",
"ln":"130.49688200000"
},
"geometry":{
"type":"Point",
"coordinates":[
130.496882,
33.567705
]
}
},
{
"type":"Feature",
"properties":{
"Name":"宇美小学校（体育館）",
"Jusho":"福岡県糟屋郡宇美町宇美3丁目9－",
"Capacity":"－",
"la":"33.56839900000",
"ln":"130.50655000000"
},