var st={
"type":"FeatureCollection",
"features":[
{
"type":"Feature",
"properties":{
"Name":"栄小学校",
"Jusho":"埼玉県さいたま市西区大字飯田811",
"Capacity":"－",
"la":"35.90703800000",
"ln":"139.58274600000"
},
"geometry":{
"type":"Point",
"coordinates":[
139.582746,
35.907038
]
}
},
{
"type":"Feature",
"properties":{
"Name":"宮前小学校",
"Jusho":"埼玉県さいたま市西区宮前町341",
"Capacity":"－",
"la":"35.92303600000",
"ln":"139.59521700000"
},
"geometry":{
"type":"Point",
"coordinates":[
139.595217,
35.923036
]
}
},
{
"type":"Feature",
"properties":{
"Name":"指扇小学校",
"Jusho":"埼玉県さいたま市西区大字指扇4226",
"Capacity":"－",
"la":"35.92281300000",
"ln":"139.57313600000"
},
"geometry":{
"type":"Point",
"coordinates":[
139.573136,
35.922813
]
}
},
{
"type":"Feature",
"properties":{
"Name":"指扇北小学校",
"Jusho":"埼玉県さいたま市西区大字中釘1506－",
"Capacity":"－",
"la":"35.93356100000",
"ln":"139.57208000000"
},
"geometry":{
"type":"Point",
"coordinates":[
139.57208,
35.933561
]
}
},
{
"type":"Feature",
"properties":{
"Name":"植水小学校",
"Jusho":"埼玉県さいたま市西区大字中野林225－",
"Capacity":"－",
"la":"35.89434600000",
"ln":"139.59491300000"
},
"geometry":{
"type":"Point",
"coordinates":[
139.594913,
35.894346
]
}
},
{
"type":"Feature",
"properties":{
"Name":"大宮西小学校",
"Jusho":"埼玉県さいたま市西区三橋5－359",
"Capacity":"－",
"la":"35.90415000000",
"ln":"139.59071800000"
},
"geometry":{
"type":"Point",
"coordinates":[
139.590718,
35.90415
]
}
},
{
"type":"Feature",
"properties":{
"Name":"馬宮西小学校",
"Jusho":"埼玉県さいたま市西区大字飯田新田189-2",
"Capacity":"－",
"la":"35.88609600000",
"ln":"139.55955500000"
},
"geometry":{
"type":"Point",
"coordinates":[
139.559555,
35.886096
]
}
},
{
"type":"Feature",
"properties":{
"Name":"馬宮東小学校",
"Jusho":"埼玉県さいたま市西区大字西遊馬189－",
"Capacity":"－",
"la":"35.90390000000",
"ln":"139.57163600000"
},
"geometry":{
"type":"Point",
"coordinates":[
139.571636,
35.9039
]
}
},
{
"type":"Feature",
"properties":{
"Name":"つばさ小学校",
"Jusho":"埼玉県さいたま市北区宮原町3-902-4",
"Capacity":"－",
"la":"35.93348800000",
"ln":"139.61045800000"
},
"geometry":{
"type":"Point",
"coordinates":[
139.610458,
35.933488
]
}
},
{
"type":"Feature",
"properties":{
"Name":"宮原小学校",
"Jusho":"埼玉県さいたま市北区宮原町4－02-6",
"Capacity":"－",
"la":"35.94911400000",
"ln":"139.60632700000"
},
"geometry":{
"type":"Point",
"coordinates":[
139.606327,
35.949114
]
}
},
{
"type":"Feature",
"properties":{
"Name":"植竹小学校",
"Jusho":"埼玉県さいたま市北区植竹町2－",
"Capacity":"－",
"la":"35.92973000000",
"ln":"139.62596500000"
},
"geometry":{
"type":"Point",
"coordinates":[
139.625965,
35.92973
]
}
},
{
"type":"Feature",
"properties":{
"Name":"泰平小学校",
"Jusho":"埼玉県さいたま市北区今羽町628",
"Capacity":"－",
"la":"35.95003200000",
"ln":"139.62649200000"
},
"geometry":{
"type":"Point",
"coordinates":[
139.626492,
35.950032
]
}
},
{
"type":"Feature",
"properties":{
"Name":"大宮別所小学校",
"Jusho":"埼玉県さいたま市北区別所町42－",
"Capacity":"－",
"la":"35.95491800000",
"ln":"139.59760600000"
},
"geometry":{
"type":"Point",
"coordinates":[
139.597606,
35.954918
]
}
},
{
"type":"Feature",
"properties":{
"Name":"大砂土小学校",
"Jusho":"埼玉県さいたま市北区本郷町1",
"Capacity":"－",
"la":"35.93759000000",
"ln":"139.62710300000"
},
"geometry":{
"type":"Point",
"coordinates":[
139.627103,
35.93759
]
}
},
{
"type":"Feature",
"properties":{
"Name":"東大成小学校",
"Jusho":"埼玉県さいたま市北区東大成町2－2",
"Capacity":"－",
"la":"35.92489700000",
"ln":"139.61910400000"
},
"geometry":{
"type":"Point",
"coordinates":[
139.619104,
35.924897
]
}
},
{
"type":"Feature",
"properties":{
"Name":"日進小学校",
"Jusho":"埼玉県さいたま市北区日進町2-911",
"Capacity":"－",
"la":"35.92503600000",
"ln":"139.60780000000"
},
"geometry":{
"type":"Point",
"coordinates":[
139.6078,
35.925036
]
}
},
{
"type":"Feature",
"properties":{
"Name":"日進北小学校",
"Jusho":"埼玉県さいたま市北区日進町3－78",
"Capacity":"－",
"la":"35.93683900000",
"ln":"139.60413300000"
},
"geometry":{
"type":"Point",
"coordinates":[
139.604133,
35.936839
]
}
},
{
"type":"Feature",
"properties":{
"Name":"桜木小学校",
"Jusho":"埼玉県さいたま市大宮区桜木町4-328-9",
"Capacity":"－",
"la":"35.90329000000",
"ln":"139.61746600000"
},
"geometry":{
"type":"Point",
"coordinates":[
139.617466,
35.90329
]
}
},
{
"type":"Feature",
"properties":{
"Name":"三橋小学校",
"Jusho":"埼玉県さいたま市大宮区三橋2-20",
"Capacity":"－",
"la":"35.90362300000",
"ln":"139.60524500000"
},
"geometry":{
"type":"Point",
"coordinates":[
139.605245,
35.903623
]
}
},
{
"type":"Feature",
"properties":{
"Name":"芝川小学校",
"Jusho":"埼玉県さいたま市大宮区天沼町2－077",
"Capacity":"－",
"la":"35.90512300000",
"ln":"139.64488100000"
},
"geometry":{
"type":"Point",
"coordinates":[
139.644881,
35.905123
]
}
},
{
"type":"Feature",
"properties":{
"Name":"上小小学校",
"Jusho":"埼玉県さいたま市大宮区上小町1337－",
"Capacity":"－",
"la":"35.89665200000",
"ln":"139.61693800000"
},
"geometry":{
"type":"Point",
"coordinates":[
139.616938,
35.896652
]
}
},
{
"type":"Feature",
"properties":{
"Name":"大宮小学校",
"Jusho":"埼玉県さいたま市大宮区大門町3-3",
"Capacity":"－",
"la":"35.90651200000",
"ln":"139.62996500000"
},
"geometry":{
"type":"Point",
"coordinates":[
139.629965,
35.906512
]
}
},
{
"type":"Feature",
"properties":{
"Name":"大宮東小学校",
"Jusho":"埼玉県さいたま市大宮区堀の内町3－45",
"Capacity":"－",
"la":"35.91389900000",
"ln":"139.63554800000"
},
"geometry":{
"type":"Point",
"coordinates":[
139.635548,
35.913899
]
}
},
{
"type":"Feature",
"properties":{
"Name":"大宮南小学校",
"Jusho":"埼玉県さいたま市大宮区吉敷町3-87",
"Capacity":"－",
"la":"35.90056800000",
"ln":"139.63388100000"
},
"geometry":{
"type":"Point",
"coordinates":[
139.633881,
35.900568
]
}
},
{
"type":"Feature",
"properties":{
"Name":"大宮北小学校",
"Jusho":"埼玉県さいたま市大宮区宮町3-84",
"Capacity":"－",
"la":"35.91184400000",
"ln":"139.62741000000"
},
"geometry":{
"type":"Point",
"coordinates":[
139.62741,
35.911844
]
}
},
{
"type":"Feature",
"properties":{
"Name":"大成小学校",
"Jusho":"埼玉県さいたま市大宮区大成町2-282",
"Capacity":"－",
"la":"35.91453800000",
"ln":"139.61407700000"
},
"geometry":{
"type":"Point",
"coordinates":[
139.614077,
35.914538
]
}
},
{
"type":"Feature",
"properties":{
"Name":"海老沼小学校",
"Jusho":"埼玉県さいたま市見沼区大字東新井710-5",
"Capacity":"－",
"la":"35.90834500000",
"ln":"139.66024000000"
},
"geometry":{
"type":"Point",
"coordinates":[
139.66024,
35.908345
]
}
},
{
"type":"Feature",
"properties":{
"Name":"見沼小学校",
"Jusho":"埼玉県さいたま市見沼区東大宮2-45",
"Capacity":"－",
"la":"35.94881000000",
"ln":"139.63268600000"
},
"geometry":{
"type":"Point",
"coordinates":[
139.632686,
35.94881
]
}
},
{
"type":"Feature",
"properties":{
"Name":"七里小学校",
"Jusho":"埼玉県さいたま市見沼区東宮下312",
"Capacity":"－",
"la":"35.92931500000",
"ln":"139.67618300000"
},
"geometry":{
"type":"Point",
"coordinates":[
139.676183,
35.929315
]
}
},
{
"type":"Feature",
"properties":{
"Name":"春岡小学校",
"Jusho":"埼玉県さいたま市見沼区春岡2-29－",
"Capacity":"－",
"la":"35.94947900000",
"ln":"139.66212800000"
},
"geometry":{
"type":"Point",
"coordinates":[
139.662128,
35.949479
]
}
},
{
"type":"Feature",
"properties":{
"Name":"春野小学校",
"Jusho":"埼玉県さいたま市見沼区春野1－0－",
"Capacity":"－",
"la":"35.95708900000",
"ln":"139.66812700000"
},
"geometry":{
"type":"Point",
"coordinates":[
139.668127,
35.957089
]
}
},
{
"type":"Feature",
"properties":{
"Name":"大砂土東小学校",
"Jusho":"埼玉県さいたま市見沼区大和田町2-998",
"Capacity":"－",
"la":"35.93748000000",
"ln":"139.64676900000"
},
"geometry":{
"type":"Point",
"coordinates":[
139.646769,
35.93748
]
}
},
{
"type":"Feature",
"properties":{
"Name":"大谷小学校",
"Jusho":"埼玉県さいたま市見沼区大字大谷18",
"Capacity":"－",
"la":"35.92131600000",
"ln":"139.66593400000"
},
"geometry":{
"type":"Point",
"coordinates":[
139.665934,
35.921316
]
}
},
{
"type":"Feature",
"properties":{
"Name":"島小学校",
"Jusho":"埼玉県さいたま市見沼区島町533-2",
"Capacity":"－",
"la":"35.94675700000",
"ln":"139.65165700000"
},
"geometry":{
"type":"Point",
"coordinates":[
139.651657,
35.946757
]
}
},
{
"type":"Feature",
"properties":{
"Name":"東宮下小学校",
"Jusho":"埼玉県さいたま市見沼区大字東宮下215－",
"Capacity":"－",
"la":"35.92581600000",
"ln":"139.67757200000"
},
"geometry":{
"type":"Point",
"coordinates":[
139.677572,
35.925816
]
}
},
{
"type":"Feature",
"properties":{
"Name":"片柳小学校",
"Jusho":"埼玉県さいたま市見沼区大字東新井244－",
"Capacity":"－",
"la":"35.91073400000",
"ln":"139.67049000000"
},
"geometry":{
"type":"Point",
"coordinates":[
139.67049,
35.910734
]
}
},
{
"type":"Feature",
"properties":{
"Name":"蓮沼小学校",
"Jusho":"埼玉県さいたま市見沼区大字蓮沼1070",
"Capacity":"－",
"la":"35.93437000000",
"ln":"139.66076700000"
},
"geometry":{
"type":"Point",
"coordinates":[
139.660767,
35.93437
]
}
},
{
"type":"Feature",
"properties":{
"Name":"下落合小学校",
"Jusho":"埼玉県さいたま市中央区上落合1-7-33",
"Capacity":"－",
"la":"35.88914600000",
"ln":"139.63153700000"
},
"geometry":{
"type":"Point",
"coordinates":[
139.631537,
35.889146
]
}
},
{
"type":"Feature",
"properties":{
"Name":"上落合小学校",
"Jusho":"埼玉県さいたま市中央区上落合4－4-24",
"Capacity":"－",
"la":"35.89392000000",
"ln":"139.62616600000"
},
"geometry":{
"type":"Point",
"coordinates":[
139.626166,
35.89392
]
}
},
{
"type":"Feature",
"properties":{
"Name":"大戸小学校",
"Jusho":"埼玉県さいたま市中央区新中里1-6-28",
"Capacity":"－",
"la":"35.87234900000",
"ln":"139.63596500000"
},
"geometry":{
"type":"Point",
"coordinates":[
139.635965,
35.872349
]
}
},
{
"type":"Feature",
"properties":{
"Name":"与野西北小学校",
"Jusho":"埼玉県さいたま市中央区円阿弥4-3-7",
"Capacity":"－",
"la":"35.88759700000",
"ln":"139.60818900000"
},
"geometry":{
"type":"Point",
"coordinates":[
139.608189,
35.887597
]
}
},
{
"type":"Feature",
"properties":{
"Name":"与野南小学校",
"Jusho":"埼玉県さいたま市中央区大戸6-2-25",
"Capacity":"－",
"la":"35.86648900000",
"ln":"139.63543800000"
},
"geometry":{
"type":"Point",
"coordinates":[
139.635438,
35.866489
]
}
},
{
"type":"Feature",
"properties":{
"Name":"与野八幡小学校",
"Jusho":"埼玉県さいたま市中央区本町東5-23－4",
"Capacity":"－",
"la":"35.89048600000",
"ln":"139.62202200000"
},
"geometry":{
"type":"Point",
"coordinates":[
139.622022,
35.890486
]
}
},
{
"type":"Feature",
"properties":{
"Name":"与野本町小学校",
"Jusho":"埼玉県さいたま市中央区本町東3-5-23",
"Capacity":"－",
"la":"35.88345900000",
"ln":"139.62266100000"
},
"geometry":{
"type":"Point",
"coordinates":[
139.622661,
35.883459
]
}
},
{
"type":"Feature",
"properties":{
"Name":"鈴谷小学校",
"Jusho":"埼玉県さいたま市中央区鈴谷5－－",
"Capacity":"－",
"la":"35.87096000000",
"ln":"139.63118800000"
},
"geometry":{
"type":"Point",
"coordinates":[
139.631188,
35.87096
]
}
},
{
"type":"Feature",
"properties":{
"Name":"栄和小学校",
"Jusho":"埼玉県さいたま市桜区栄和1-7－",
"Capacity":"－",
"la":"35.86162800000",
"ln":"139.61755100000"
},
"geometry":{
"type":"Point",
"coordinates":[
139.617551,
35.861628
]
}
},
{
"type":"Feature",
"properties":{
"Name":"新開小学校",
"Jusho":"埼玉県さいたま市桜区新開2－8－",
"Capacity":"－",
"la":"35.85082400000",
"ln":"139.61816200000"
},
"geometry":{
"type":"Point",
"coordinates":[
139.618162,
35.850824
]
}
},
{
"type":"Feature",
"properties":{
"Name":"神田小学校",
"Jusho":"埼玉県さいたま市桜区神田541－",
"Capacity":"－",
"la":"35.87490400000",
"ln":"139.60738400000"
},
"geometry":{
"type":"Point",
"coordinates":[
139.607384,
35.874904
]
}
},
{
"type":"Feature",
"properties":{
"Name":"大久保小学校",
"Jusho":"埼玉県さいたま市桜区五関21",
"Capacity":"－",
"la":"35.87201500000",
"ln":"139.59833000000"
},
"geometry":{
"type":"Point",
"coordinates":[
139.59833,
35.872015
]
}
},
{
"type":"Feature",
"properties":{
"Name":"大久保東小学校",
"Jusho":"埼玉県さいたま市桜区大久保領家331",
"Capacity":"－",
"la":"35.87109900000",
"ln":"139.60346800000"
},
"geometry":{
"type":"Point",
"coordinates":[
139.603468,
35.871099
]
}
},
{
"type":"Feature",
"properties":{
"Name":"中島小学校",
"Jusho":"埼玉県さいたま市桜区中島1-28－",
"Capacity":"－",
"la":"35.86526600000",
"ln":"139.62363300000"
},
"geometry":{
"type":"Point",
"coordinates":[
139.623633,
35.865266
]
}
},
{
"type":"Feature",
"properties":{
"Name":"田島小学校",
"Jusho":"埼玉県さいたま市桜区田島10－2－",
"Capacity":"－",
"la":"35.83774200000",
"ln":"139.62330100000"
},
"geometry":{
"type":"Point",
"coordinates":[
139.623301,
35.837742
]
}
},
{
"type":"Feature",
"properties":{
"Name":"土合小学校",
"Jusho":"埼玉県さいたま市桜区西堀7-21－",
"Capacity":"－",
"la":"35.85765600000",
"ln":"139.62716100000"
},
"geometry":{
"type":"Point",
"coordinates":[
139.627161,
35.857656
]
}
},
{
"type":"Feature",
"properties":{
"Name":"岸町小学校",
"Jusho":"埼玉県さいたま市浦和区岸町5-20-4",
"Capacity":"－",
"la":"35.85101900000",
"ln":"139.65024300000"
},
"geometry":{
"type":"Point",
"coordinates":[
139.650243,
35.851019
]
}
},
{
"type":"Feature",
"properties":{
"Name":"高砂小学校",
"Jusho":"埼玉県さいたま市浦和区岸町4－-29",
"Capacity":"－",
"la":"35.85651800000",
"ln":"139.65671400000"
},
"geometry":{
"type":"Point",
"coordinates":[
139.656714,
35.856518
]
}
},
{
"type":"Feature",
"properties":{
"Name":"埼玉大学教育学部附属小学校",
"Jusho":"埼玉県さいたま市浦和区常盤6-9-44",
"Capacity":"－",
"la":"35.86226699910",
"ln":"139.64313200000"
},
"geometry":{
"type":"Point",
"coordinates":[
139.643132,
35.8622669991
]
}
},
{
"type":"Feature",
"properties":{
"Name":"上木崎小学校",
"Jusho":"埼玉県さいたま市浦和区上木崎3-4-3",
"Capacity":"－",
"la":"35.88768100000",
"ln":"139.64282600000"
},
"geometry":{
"type":"Point",
"coordinates":[
139.642826,
35.887681
]
}
},
{
"type":"Feature",
"properties":{
"Name":"常盤小学校",
"Jusho":"埼玉県さいたま市浦和区常盤9-30-9",
"Capacity":"－",
"la":"35.86873900000",
"ln":"139.64307600000"
},
"geometry":{
"type":"Point",
"coordinates":[
139.643076,
35.868739
]
}
},
{
"type":"Feature",
"properties":{
"Name":"常盤北小学校",
"Jusho":"埼玉県さいたま市浦和区針ヶ谷4-2－2",
"Capacity":"－",
"la":"35.87884800000",
"ln":"139.63907600000"
},
"geometry":{
"type":"Point",
"coordinates":[
139.639076,
35.878848
]
}
},
{
"type":"Feature",
"properties":{
"Name":"針ヶ谷小学校",
"Jusho":"埼玉県さいたま市浦和区領家7-2－",
"Capacity":"－",
"la":"35.88159800000",
"ln":"139.64868600000"
},
"geometry":{
"type":"Point",
"coordinates":[
139.648686,
35.881598
]
}
},
{
"type":"Feature",
"properties":{
"Name":"大東小学校",
"Jusho":"埼玉県さいたま市浦和区大東3－4－",
"Capacity":"－",
"la":"35.88315400000",
"ln":"139.66449000000"
},
"geometry":{
"type":"Point",
"coordinates":[
139.66449,
35.883154
]
}
},
{
"type":"Feature",
"properties":{
"Name":"仲町小学校",
"Jusho":"埼玉県さいたま市浦和区常盤8－8-4",
"Capacity":"－",
"la":"35.86396100000",
"ln":"139.64054900000"
},
"geometry":{
"type":"Point",
"coordinates":[
139.640549,
35.863961
]
}
},
{
"type":"Feature",
"properties":{
"Name":"仲本小学校",
"Jusho":"埼玉県さいたま市浦和区本太2－2-31",
"Capacity":"－",
"la":"35.86157300000",
"ln":"139.66104700000"
},
"geometry":{
"type":"Point",
"coordinates":[
139.661047,
35.861573
]
}
},
{
"type":"Feature",
"properties":{
"Name":"北浦和小学校",
"Jusho":"埼玉県さいたま市浦和区北浦和2－8-3",
"Capacity":"－",
"la":"35.87698800000",
"ln":"139.64824200000"
},
"geometry":{
"type":"Point",
"coordinates":[
139.648242,
35.876988
]
}
},
{
"type":"Feature",
"properties":{
"Name":"本太小学校",
"Jusho":"埼玉県さいたま市浦和区本太2-26-25",
"Capacity":"－",
"la":"35.86532300000",
"ln":"139.65746400000"
},
"geometry":{
"type":"Point",
"coordinates":[
139.657464,
35.865323
]
}
},
{
"type":"Feature",
"properties":{
"Name":"木崎小学校",
"Jusho":"埼玉県さいたま市浦和区領家4－9-4",
"Capacity":"－",
"la":"35.88273700000",
"ln":"139.65260300000"
},
"geometry":{
"type":"Point",
"coordinates":[
139.652603,
35.882737
]
}
},
{
"type":"Feature",
"properties":{
"Name":"浦和大里小学校",
"Jusho":"埼玉県さいたま市南区別所7－4-28",
"Capacity":"－",
"la":"35.84482500000",
"ln":"139.64304900000"
},
"geometry":{
"type":"Point",
"coordinates":[
139.643049,
35.844825
]
}
},
{
"type":"Feature",
"properties":{
"Name":"浦和別所小学校",
"Jusho":"埼玉県さいたま市南区別所2-5-34",
"Capacity":"－",
"la":"35.84951900000",
"ln":"139.64799300000"
},
"geometry":{
"type":"Point",
"coordinates":[
139.647993,
35.849519
]
}
},
{
"type":"Feature",
"properties":{
"Name":"向小学校",
"Jusho":"埼玉県さいたま市南区大谷口5437",
"Capacity":"－",
"la":"35.85732400000",
"ln":"139.69604400000"
},
"geometry":{
"type":"Point",
"coordinates":[
139.696044,
35.857324
]
}
},
{
"type":"Feature",
"properties":{
"Name":"沼影小学校",
"Jusho":"埼玉県さいたま市南区沼影2-8-36",
"Capacity":"－",
"la":"35.83902000000",
"ln":"139.64585500000"
},
"geometry":{
"type":"Point",
"coordinates":[
139.645855,
35.83902
]
}
},
{
"type":"Feature",
"properties":{
"Name":"西浦和小学校",
"Jusho":"埼玉県さいたま市南区曲本1-3-5",
"Capacity":"－",
"la":"35.83829800000",
"ln":"139.63024500000"
},
"geometry":{
"type":"Point",
"coordinates":[
139.630245,
35.838298
]
}
},
{
"type":"Feature",
"properties":{
"Name":"善前小学校",
"Jusho":"埼玉県さいたま市南区太田窪2500－",
"Capacity":"－",
"la":"35.85318600000",
"ln":"139.68593400000"
},
"geometry":{
"type":"Point",
"coordinates":[
139.685934,
35.853186
]
}
},
{
"type":"Feature",
"properties":{
"Name":"大谷口小学校",
"Jusho":"埼玉県さいたま市南区広ヶ谷戸24",
"Capacity":"－",
"la":"35.86251800000",
"ln":"139.68326700000"
},
"geometry":{
"type":"Point",
"coordinates":[
139.683267,
35.862518
]
}
},
{
"type":"Feature",
"properties":{
"Name":"大谷場小学校",
"Jusho":"埼玉県さいたま市南区南浦和1－8-3",
"Capacity":"－",
"la":"35.85263000000",
"ln":"139.66799100000"
},
"geometry":{
"type":"Point",
"coordinates":[
139.667991,
35.85263
]
}
},
{
"type":"Feature",
"properties":{
"Name":"大谷場東小学校",
"Jusho":"埼玉県さいたま市南区大谷場2－3-54",
"Capacity":"－",
"la":"35.85349100000",
"ln":"139.67471300000"
},
"geometry":{
"type":"Point",
"coordinates":[
139.674713,
35.853491
]
}
},
{
"type":"Feature",
"properties":{
"Name":"谷田小学校",
"Jusho":"埼玉県さいたま市南区太田窪5－0-6",
"Capacity":"－",
"la":"35.85632400000",
"ln":"139.67790700000"
},
"geometry":{
"type":"Point",
"coordinates":[
139.677907,
35.856324
]
}
},
{
"type":"Feature",
"properties":{
"Name":"辻小学校",
"Jusho":"埼玉県さいたま市南区辻6-3-28",
"Capacity":"－",
"la":"35.83318800000",
"ln":"139.65868700000"
},
"geometry":{
"type":"Point",
"coordinates":[
139.658687,
35.833188
]
}
},
{
"type":"Feature",
"properties":{
"Name":"辻南小学校",
"Jusho":"埼玉県さいたま市南区辻8-7-32",
"Capacity":"－",
"la":"35.83155524880",
"ln":"139.66524462200"
},
"geometry":{
"type":"Point",
"coordinates":[
139.665244622,
35.8315552488
]
}
},
{
"type":"Feature",
"properties":{
"Name":"南浦和小学校",
"Jusho":"埼玉県さいたま市南区白幡1－-20",
"Capacity":"－",
"la":"35.84531500000",
"ln":"139.65795200000"
},
"geometry":{
"type":"Point",
"coordinates":[
139.657952,
35.845315
]
}
},
{
"type":"Feature",
"properties":{
"Name":"文蔵小学校",
"Jusho":"埼玉県さいたま市南区文蔵5－6-29",
"Capacity":"－",
"la":"35.83521500000",
"ln":"139.67399100000"
},
"geometry":{
"type":"Point",
"coordinates":[
139.673991,
35.835215
]
}
},
{
"type":"Feature",
"properties":{
"Name":"原山小学校",
"Jusho":"埼玉県さいたま市緑区原山1-30－2",
"Capacity":"－",
"la":"35.86618400000",
"ln":"139.67046300000"
},
"geometry":{
"type":"Point",
"coordinates":[
139.670463,
35.866184
]
}
},
{
"type":"Feature",
"properties":{
"Name":"三室小学校",
"Jusho":"埼玉県さいたま市緑区三室1994",
"Capacity":"－",
"la":"35.88404300000",
"ln":"139.68196100000"
},
"geometry":{
"type":"Point",
"coordinates":[
139.681961,
35.884043
]
}
},
{
"type":"Feature",
"properties":{
"Name":"芝原小学校",
"Jusho":"埼玉県さいたま市緑区芝原2-5",
"Capacity":"－",
"la":"35.88201600000",
"ln":"139.69151600000"
},
"geometry":{
"type":"Point",
"coordinates":[
139.691516,
35.882016
]
}
},
{
"type":"Feature",
"properties":{
"Name":"大牧小学校",
"Jusho":"埼玉県さいたま市緑区東浦和6－2-3",
"Capacity":"－",
"la":"35.87282900000",
"ln":"139.70687200000"
},
"geometry":{
"type":"Point",
"coordinates":[
139.706872,
35.872829
]
}
},
{
"type":"Feature",
"properties":{
"Name":"大門小学校",
"Jusho":"埼玉県さいたま市緑区大門1189",
"Capacity":"－",
"la":"35.88071100000",
"ln":"139.73359600000"
},
"geometry":{
"type":"Point",
"coordinates":[
139.733596,
35.880711
]
}
},
{
"type":"Feature",
"properties":{
"Name":"中尾小学校",
"Jusho":"埼玉県さいたま市緑区中尾2596－",
"Capacity":"－",
"la":"35.86809900000",
"ln":"139.68255800000"
},
"geometry":{
"type":"Point",
"coordinates":[
139.682558,
35.868099
]
}
},
{
"type":"Feature",
"properties":{
"Name":"道祖土小学校",
"Jusho":"埼玉県さいたま市緑区道祖土1－－",
"Capacity":"－",
"la":"35.87496100000",
"ln":"139.66868500000"
},
"geometry":{
"type":"Point",
"coordinates":[
139.668685,
35.874961
]
}
},
{
"type":"Feature",
"properties":{
"Name":"尾間木小学校",
"Jusho":"埼玉県さいたま市緑区東浦和8－1-5",
"Capacity":"－",
"la":"35.86862000000",
"ln":"139.69681500000"
},
"geometry":{
"type":"Point",
"coordinates":[
139.696815,
35.86862
]
}
},
{
"type":"Feature",
"properties":{
"Name":"美園小学校",
"Jusho":"埼玉県さいたま市緑区大字大門4359",
"Capacity":"－",
"la":"35.89050228350",
"ln":"139.73512211200"
},
"geometry":{
"type":"Point",
"coordinates":[
139.735122112,
35.8905022835
]
}
},
{
"type":"Feature",
"properties":{
"Name":"野田小学校",
"Jusho":"埼玉県さいたま市緑区上野田16",
"Capacity":"－",
"la":"35.90037500000",
"ln":"139.70368100000"
},
"geometry":{
"type":"Point",
"coordinates":[
139.703681,
35.900375
]
}
},
{
"type":"Feature",
"properties":{
"Name":"河合小学校",
"Jusho":"埼玉県さいたま市岩槻区平林寺351",
"Capacity":"－",
"la":"35.96714400000",
"ln":"139.67215300000"
},
"geometry":{
"type":"Point",
"coordinates":[
139.672153,
35.967144
]
}
},
{
"type":"Feature",
"properties":{
"Name":"岩槻小学校",
"Jusho":"埼玉県さいたま市岩槻区本町5-6-45",
"Capacity":"－",
"la":"35.95345200000",
"ln":"139.69884600000"
},
"geometry":{
"type":"Point",
"coordinates":[
139.698846,
35.953452
]
}
},
{
"type":"Feature",
"properties":{
"Name":"慈恩寺小学校",
"Jusho":"埼玉県さいたま市岩槻区慈恩寺259",
"Capacity":"－",
"la":"35.98133600000",
"ln":"139.70826000000"
},
"geometry":{
"type":"Point",
"coordinates":[
139.70826,
35.981336
]
}
},
{
"type":"Feature",
"properties":{
"Name":"上里小学校",
"Jusho":"埼玉県さいたま市岩槻区上里2-2",
"Capacity":"－",
"la":"35.96528400000",
"ln":"139.70428900000"
},
"geometry":{
"type":"Point",
"coordinates":[
139.704289,
35.965284
]
}
},
{
"type":"Feature",
"properties":{
"Name":"城南小学校",
"Jusho":"埼玉県さいたま市岩槻区南下新井1191－",
"Capacity":"－",
"la":"35.93542700000",
"ln":"139.71270600000"
},
"geometry":{
"type":"Point",
"coordinates":[
139.712706,
35.935427
]
}
},
{
"type":"Feature",
"properties":{
"Name":"城北小学校",
"Jusho":"埼玉県さいたま市岩槻区岩槻6619",
"Capacity":"－",
"la":"35.96206200000",
"ln":"139.69415100000"
},
"geometry":{
"type":"Point",
"coordinates":[
139.694151,
35.962062
]
}
},
{
"type":"Feature",
"properties":{
"Name":"新和小学校",
"Jusho":"埼玉県さいたま市岩槻区尾ヶ崎1252",
"Capacity":"－",
"la":"35.91076300000",
"ln":"139.73281600000"
},
"geometry":{
"type":"Point",
"coordinates":[
139.732816,
35.910763
]
}
},
{
"type":"Feature",
"properties":{
"Name":"西原小学校",
"Jusho":"埼玉県さいたま市岩槻区西原6-25",
"Capacity":"－",
"la":"35.95302800000",
"ln":"139.68358000000"
},
"geometry":{
"type":"Point",
"coordinates":[
139.68358,
35.953028
]
}
},
{
"type":"Feature",
"properties":{
"Name":"川通小学校",
"Jusho":"埼玉県さいたま市岩槻区大野島422－",
"Capacity":"－",
"la":"35.94192500000",
"ln":"139.73125900000"
},
"geometry":{
"type":"Point",
"coordinates":[
139.731259,
35.941925
]
}
},
{
"type":"Feature",
"properties":{
"Name":"太田小学校",
"Jusho":"埼玉県さいたま市岩槻区仲町1－7-3",
"Capacity":"－",
"la":"35.94798100000",
"ln":"139.70404000000"
},
"geometry":{
"type":"Point",
"coordinates":[
139.70404,
35.947981
]
}
},
{
"type":"Feature",
"properties":{
"Name":"東岩槻小学校",
"Jusho":"埼玉県さいたま市岩槻区諏訪2-6－",
"Capacity":"－",
"la":"35.97014500000",
"ln":"139.70934400000"
},
"geometry":{
"type":"Point",
"coordinates":[
139.709344,
35.970145
]
}
},
{
"type":"Feature",
"properties":{
"Name":"徳力小学校",
"Jusho":"埼玉県さいたま市岩槻区徳力136-4",
"Capacity":"－",
"la":"35.97406000000",
"ln":"139.71664900000"
},
"geometry":{
"type":"Point",
"coordinates":[
139.716649,
35.97406
]
}
},
{
"type":"Feature",
"properties":{
"Name":"柏崎小学校",
"Jusho":"埼玉県さいたま市岩槻区柏崎762",
"Capacity":"－",
"la":"35.93337100000",
"ln":"139.70162400000"
},
"geometry":{
"type":"Point",
"coordinates":[
139.701624,
35.933371
]
}
},
{
"type":"Feature",
"properties":{
"Name":"和土小学校",
"Jusho":"埼玉県さいたま市岩槻区黒谷1353",
"Capacity":"－",
"la":"35.92581700000",
"ln":"139.72034400000"
},
"geometry":{
"type":"Point",
"coordinates":[
139.720344,
35.925817
]
}
},
{
"type":"Feature",
"properties":{
"Name":"霞ヶ関小学校",
"Jusho":"埼玉県川越市笠幡177",
"Capacity":"－",
"la":"35.91211700000",
"ln":"139.42156600000"
},
"geometry":{
"type":"Point",
"coordinates":[
139.421566,
35.912117
]
}
},
{
"type":"Feature",
"properties":{
"Name":"霞ヶ関西小学校",
"Jusho":"埼玉県川越市笠幡3971-4",
"Capacity":"－",
"la":"35.90875600000",
"ln":"139.40212300000"
},
"geometry":{
"type":"Point",
"coordinates":[
139.402123,
35.908756
]
}
},
{
"type":"Feature",
"properties":{
"Name":"霞ヶ関東小学校",
"Jusho":"埼玉県川越市的場2735-2",
"Capacity":"－",
"la":"35.92064400000",
"ln":"139.44906300000"
},
"geometry":{
"type":"Point",
"coordinates":[
139.449063,
35.920644
]
}
},
{
"type":"Feature",
"properties":{
"Name":"霞ヶ関南小学校",
"Jusho":"埼玉県川越市かすみ野1丁目1-4",
"Capacity":"－",
"la":"35.90393900000",
"ln":"139.41846800000"
},
"geometry":{
"type":"Point",
"coordinates":[
139.418468,
35.903939
]
}
},
{
"type":"Feature",
"properties":{
"Name":"霞ヶ関北小学校",
"Jusho":"埼玉県川越市伊勢原5丁目1－",
"Capacity":"－",
"la":"35.91960500000",
"ln":"139.42833000000"
},
"geometry":{
"type":"Point",
"coordinates":[
139.42833,
35.919605
]
}
},
{
"type":"Feature",
"properties":{
"Name":"牛子小学校",
"Jusho":"埼玉県川越市牛子418",
"Capacity":"－",
"la":"35.89370500000",
"ln":"139.50966900000"
},
"geometry":{
"type":"Point",
"coordinates":[
139.509669,
35.893705
]
}
},
{
"type":"Feature",
"properties":{
"Name":"教育センター（旧古谷東小学校）",
"Jusho":"埼玉県川越市古谷上6083－0",
"Capacity":"－",
"la":"35.91600800000",
"ln":"139.53744400000"
},
"geometry":{
"type":"Point",
"coordinates":[
139.537444,
35.916008
]
}
},
{
"type":"Feature",
"properties":{
"Name":"月越小学校",
"Jusho":"埼玉県川越市月吉町51",
"Capacity":"－",
"la":"35.91964500000",
"ln":"139.47500500000"
},
"geometry":{
"type":"Point",
"coordinates":[
139.475005,
35.919645
]
}
},
{
"type":"Feature",
"properties":{
"Name":"古谷小学校",
"Jusho":"埼玉県川越市古谷上5465",
"Capacity":"－",
"la":"35.91756400000",
"ln":"139.53233400000"
},
"geometry":{
"type":"Point",
"coordinates":[
139.532334,
35.917564
]
}
},
{
"type":"Feature",
"properties":{
"Name":"広谷小学校",
"Jusho":"埼玉県川越市下広谷558－",
"Capacity":"－",
"la":"35.95102600000",
"ln":"139.43023200000"
},
"geometry":{
"type":"Point",
"coordinates":[
139.430232,
35.951026
]
}
},
{
"type":"Feature",
"properties":{
"Name":"高階小学校",
"Jusho":"埼玉県川越市砂新田58",
"Capacity":"－",
"la":"35.88887200000",
"ln":"139.49531000000"
},
"geometry":{
"type":"Point",
"coordinates":[
139.49531,
35.888872
]
}
},
{
"type":"Feature",
"properties":{
"Name":"高階西小学校",
"Jusho":"埼玉県川越市藤間1102",
"Capacity":"－",
"la":"35.87642900000",
"ln":"139.49481000000"
},
"geometry":{
"type":"Point",
"coordinates":[
139.49481,
35.876429
]
}
},
{
"type":"Feature",
"properties":{
"Name":"高階南小学校",
"Jusho":"埼玉県川越市諏訪町12-3",
"Capacity":"－",
"la":"35.88015100000",
"ln":"139.49939300000"
},
"geometry":{
"type":"Point",
"coordinates":[
139.499393,
35.880151
]
}
},
{
"type":"Feature",
"properties":{
"Name":"高階北小学校",
"Jusho":"埼玉県川越市砂新田1丁目16－",
"Capacity":"－",
"la":"35.89126000000",
"ln":"139.48597700000"
},
"geometry":{
"type":"Point",
"coordinates":[
139.485977,
35.89126
]
}
},
{
"type":"Feature",
"properties":{
"Name":"今成小学校",
"Jusho":"埼玉県川越市今成2丁目42－",
"Capacity":"－",
"la":"35.92524800000",
"ln":"139.46485000000"
},
"geometry":{
"type":"Point",
"coordinates":[
139.46485,
35.925248
]
}
},
{
"type":"Feature",
"properties":{
"Name":"山田小学校",
"Jusho":"埼玉県川越市山田167",
"Capacity":"－",
"la":"35.94144800000",
"ln":"139.47683700000"
},
"geometry":{
"type":"Point",
"coordinates":[
139.476837,
35.941448
]
}
},
{
"type":"Feature",
"properties":{
"Name":"寺尾小学校",
"Jusho":"埼玉県川越市寺尾979-2",
"Capacity":"－",
"la":"35.88334500000",
"ln":"139.51391900000"
},
"geometry":{
"type":"Point",
"coordinates":[
139.513919,
35.883345
]
}
},
{
"type":"Feature",
"properties":{
"Name":"上戸小学校",
"Jusho":"埼玉県川越市上戸390－",
"Capacity":"－",
"la":"35.93111500000",
"ln":"139.45270100000"
},
"geometry":{
"type":"Point",
"coordinates":[
139.452701,
35.931115
]
}
},
{
"type":"Feature",
"properties":{
"Name":"新宿小学校",
"Jusho":"埼玉県川越市新宿町6丁目9－",
"Capacity":"－",
"la":"35.89503700000",
"ln":"139.47756100000"
},
"geometry":{
"type":"Point",
"coordinates":[
139.477561,
35.895037
]
}
},
{
"type":"Feature",
"properties":{
"Name":"仙波小学校",
"Jusho":"埼玉県川越市富士見町4－",
"Capacity":"－",
"la":"35.90528600000",
"ln":"139.48803200000"
},
"geometry":{
"type":"Point",
"coordinates":[
139.488032,
35.905286
]
}
},
{
"type":"Feature",
"properties":{
"Name":"川越小学校",
"Jusho":"埼玉県川越市郭町1丁目1－",
"Capacity":"－",
"la":"35.92400600000",
"ln":"139.48694800000"
},
"geometry":{
"type":"Point",
"coordinates":[
139.486948,
35.924006
]
}
},
{
"type":"Feature",
"properties":{
"Name":"川越西小学校",
"Jusho":"埼玉県川越市川鶴1丁目5",
"Capacity":"－",
"la":"35.92328100000",
"ln":"139.41812200000"
},
"geometry":{
"type":"Point",
"coordinates":[
139.418122,
35.923281
]
}
},
{
"type":"Feature",
"properties":{
"Name":"川越第一小学校",
"Jusho":"埼玉県川越市郭町1丁目21",
"Capacity":"－",
"la":"35.92300600000",
"ln":"139.48869800000"
},
"geometry":{
"type":"Point",
"coordinates":[
139.488698,
35.923006
]
}
},
{
"type":"Feature",
"properties":{
"Name":"泉小学校",
"Jusho":"埼玉県川越市小室463",
"Capacity":"－",
"la":"35.91756200000",
"ln":"139.46472800000"
},
"geometry":{
"type":"Point",
"coordinates":[
139.464728,
35.917562
]
}
},
{
"type":"Feature",
"properties":{
"Name":"大塚小学校",
"Jusho":"埼玉県川越市南大塚1090－",
"Capacity":"－",
"la":"35.89617600000",
"ln":"139.46928400000"
},
"geometry":{
"type":"Point",
"coordinates":[
139.469284,
35.896176
]
}
},
{
"type":"Feature",
"properties":{
"Name":"大東西小学校",
"Jusho":"埼玉県川越市山城32-5",
"Capacity":"－",
"la":"35.89134200000",
"ln":"139.44287000000"
},
"geometry":{
"type":"Point",
"coordinates":[
139.44287,
35.891342
]
}
},
{
"type":"Feature",
"properties":{
"Name":"大東東小学校",
"Jusho":"埼玉県川越市豊田本1162",
"Capacity":"－",
"la":"35.90492400000",
"ln":"139.45422900000"
},
"geometry":{
"type":"Point",
"coordinates":[
139.454229,
35.904924
]
}
},
{
"type":"Feature",
"properties":{
"Name":"中央小学校",
"Jusho":"埼玉県川越市中原町1丁目25",
"Capacity":"－",
"la":"35.91734000000",
"ln":"139.48128200000"
},
"geometry":{
"type":"Point",
"coordinates":[
139.481282,
35.91734
]
}
},
{
"type":"Feature",
"properties":{
"Name":"南古谷小学校",
"Jusho":"埼玉県川越市木野目1451",
"Capacity":"－",
"la":"35.89731600000",
"ln":"139.52175200000"
},
"geometry":{
"type":"Point",
"coordinates":[
139.521752,
35.897316
]
}
},
{
"type":"Feature",
"properties":{
"Name":"武蔵野小学校",
"Jusho":"埼玉県川越市むさし野14－",
"Capacity":"－",
"la":"35.89317600000",
"ln":"139.47022800000"
},
"geometry":{
"type":"Point",
"coordinates":[
139.470228,
35.893176
]
}
},
{
"type":"Feature",
"properties":{
"Name":"福原小学校",
"Jusho":"埼玉県川越市今福508",
"Capacity":"－",
"la":"35.87270700000",
"ln":"139.47264600000"
},
"geometry":{
"type":"Point",
"coordinates":[
139.472646,
35.872707
]
}
},
{
"type":"Feature",
"properties":{
"Name":"芳野小学校",
"Jusho":"埼玉県川越市鴨田331",
"Capacity":"－",
"la":"35.94325400000",
"ln":"139.51025100000"
},
"geometry":{
"type":"Point",
"coordinates":[
139.510251,
35.943254
]
}
},
{
"type":"Feature",
"properties":{
"Name":"名細小学校",
"Jusho":"埼玉県川越市小堤214",
"Capacity":"－",
"la":"35.93811300000",
"ln":"139.44095300000"
},
"geometry":{
"type":"Point",
"coordinates":[
139.440953,
35.938113
]
}
},
{
"type":"Feature",
"properties":{
"Name":"吉岡小学校",
"Jusho":"埼玉県熊谷市万吉2103",
"Capacity":"－",
"la":"36.12019800000",
"ln":"139.37081700000"
},
"geometry":{
"type":"Point",
"coordinates":[
139.370817,
36.120198
]
}
},
{
"type":"Feature",
"properties":{
"Name":"吉見小学校",
"Jusho":"埼玉県熊谷市箕輪7",
"Capacity":"－",
"la":"36.08820400000",
"ln":"139.41270300000"
},
"geometry":{
"type":"Point",
"coordinates":[
139.412703,
36.088204
]
}
},
{
"type":"Feature",
"properties":{
"Name":"久下小学校",
"Jusho":"埼玉県熊谷市久下808",
"Capacity":"－",
"la":"36.12172600000",
"ln":"139.41828400000"
},
"geometry":{
"type":"Point",
"coordinates":[
139.418284,
36.121726
]
}
},
{
"type":"Feature",
"properties":{
"Name":"玉井小学校",
"Jusho":"埼玉県熊谷市高柳116－",
"Capacity":"－",
"la":"36.17294200000",
"ln":"139.34456600000"
},
"geometry":{
"type":"Point",
"coordinates":[
139.344566,
36.172942
]
}
},
{
"type":"Feature",
"properties":{
"Name":"熊谷西小学校",
"Jusho":"埼玉県熊谷市中央1－",
"Capacity":"－",
"la":"36.15286300000",
"ln":"139.38985100000"
},
"geometry":{
"type":"Point",
"coordinates":[
139.389851,
36.152863
]
}
},
{
"type":"Feature",
"properties":{
"Name":"熊谷東小学校",
"Jusho":"埼玉県熊谷市末広3-4－",
"Capacity":"－",
"la":"36.14547300000",
"ln":"139.39653400000"
},
"geometry":{
"type":"Point",
"coordinates":[
139.396534,
36.145473
]
}
},
{
"type":"Feature",
"properties":{
"Name":"熊谷南小学校",
"Jusho":"埼玉県熊谷市榎町343",
"Capacity":"－",
"la":"36.13894600000",
"ln":"139.37892600000"
},
"geometry":{
"type":"Point",
"coordinates":[
139.378926,
36.138946
]
}
},
{
"type":"Feature",
"properties":{
"Name":"江南南小学校",
"Jusho":"埼玉県熊谷市小江川1881",
"Capacity":"－",
"la":"36.10697800000",
"ln":"139.33495700000"
},
"geometry":{
"type":"Point",
"coordinates":[
139.334957,
36.106978
]
}
},
{
"type":"Feature",
"properties":{
"Name":"江南北小学校",
"Jusho":"埼玉県熊谷市三本359",
"Capacity":"－",
"la":"36.12828000000",
"ln":"139.33576200000"
},
"geometry":{
"type":"Point",
"coordinates":[
139.335762,
36.12828
]
}
},
{
"type":"Feature",
"properties":{
"Name":"佐谷田小学校",
"Jusho":"埼玉県熊谷市佐谷田1030",
"Capacity":"－",
"la":"36.13403000000",
"ln":"139.41428300000"
},
"geometry":{
"type":"Point",
"coordinates":[
139.414283,
36.13403
]
}
},
{
"type":"Feature",
"properties":{
"Name":"妻沼小学校",
"Jusho":"埼玉県熊谷市妻沼1492",
"Capacity":"－",
"la":"36.22896400000",
"ln":"139.37789300000"
},
"geometry":{
"type":"Point",
"coordinates":[
139.377893,
36.228964
]
}
},
{
"type":"Feature",
"properties":{
"Name":"妻沼南小学校",
"Jusho":"埼玉県熊谷市弥藤吾704",
"Capacity":"－",
"la":"36.21529900000",
"ln":"139.37161700000"
},
"geometry":{
"type":"Point",
"coordinates":[
139.371617,
36.215299
]
}
},
{
"type":"Feature",
"properties":{
"Name":"桜木小学校",
"Jusho":"埼玉県熊谷市桜木町2-33－",
"Capacity":"－",
"la":"36.13627900000",
"ln":"139.38734100000"
},
"geometry":{
"type":"Point",
"coordinates":[
139.387341,
36.136279
]
}
},
{
"type":"Feature",
"properties":{
"Name":"三尻小学校",
"Jusho":"埼玉県熊谷市三ヶ尻2862－",
"Capacity":"－",
"la":"36.15908100000",
"ln":"139.31956700000"
},
"geometry":{
"type":"Point",
"coordinates":[
139.319567,
36.159081
]
}
},
{
"type":"Feature",
"properties":{
"Name":"市田小学校",
"Jusho":"埼玉県熊谷市小泉243－",
"Capacity":"－",
"la":"36.11069900000",
"ln":"139.39764800000"
},
"geometry":{
"type":"Point",
"coordinates":[
139.397648,
36.110699
]
}
},
{
"type":"Feature",
"properties":{
"Name":"小島小学校・小島中学校",
"Jusho":"埼玉県熊谷市妻沼小島2111",
"Capacity":"－",
"la":"36.25107300000",
"ln":"139.35474100000"
},
"geometry":{
"type":"Point",
"coordinates":[
139.354741,
36.251073
]
}
},
{
"type":"Feature",
"properties":{
"Name":"新堀小学校",
"Jusho":"埼玉県熊谷市新堀182",
"Capacity":"－",
"la":"36.17296900000",
"ln":"139.33809400000"
},
"geometry":{
"type":"Point",
"coordinates":[
139.338094,
36.172969
]
}
},
{
"type":"Feature",
"properties":{
"Name":"秦小学校",
"Jusho":"埼玉県熊谷市葛和田831",
"Capacity":"－",
"la":"36.20560600000",
"ln":"139.41986200000"
},
"geometry":{
"type":"Point",
"coordinates":[
139.419862,
36.205606
]
}
},
{
"type":"Feature",
"properties":{
"Name":"成田小学校",
"Jusho":"埼玉県熊谷市上之2810－",
"Capacity":"－",
"la":"36.15380600000",
"ln":"139.40617100000"
},
"geometry":{
"type":"Point",
"coordinates":[
139.406171,
36.153806
]
}
},
{
"type":"Feature",
"properties":{
"Name":"星宮小学校",
"Jusho":"埼玉県熊谷市池上733",
"Capacity":"－",
"la":"36.15716800000",
"ln":"139.43158600000"
},
"geometry":{
"type":"Point",
"coordinates":[
139.431586,
36.157168
]
}
},
{
"type":"Feature",
"properties":{
"Name":"石原小学校",
"Jusho":"埼玉県熊谷市石原3－－",
"Capacity":"－",
"la":"36.15186200000",
"ln":"139.37720300000"
},
"geometry":{
"type":"Point",
"coordinates":[
139.377203,
36.151862
]
}
},
{
"type":"Feature",
"properties":{
"Name":"太田小学校",
"Jusho":"埼玉県熊谷市八木田5",
"Capacity":"－",
"la":"36.21604800000",
"ln":"139.35222900000"
},
"geometry":{
"type":"Point",
"coordinates":[
139.352229,
36.216048
]
}
},
{
"type":"Feature",
"properties":{
"Name":"大幡小学校",
"Jusho":"埼玉県熊谷市代681",
"Capacity":"－",
"la":"36.16988800000",
"ln":"139.37278500000"
},
"geometry":{
"type":"Point",
"coordinates":[
139.372785,
36.169888
]
}
},
{
"type":"Feature",
"properties":{
"Name":"大麻生小学校",
"Jusho":"埼玉県熊谷市大麻生51",
"Capacity":"－",
"la":"36.14950000000",
"ln":"139.33976100000"
},
"geometry":{
"type":"Point",
"coordinates":[
139.339761,
36.1495
]
}
},
{
"type":"Feature",
"properties":{
"Name":"男沼小学校",
"Jusho":"埼玉県熊谷市妻沼台137－",
"Capacity":"－",
"la":"36.23484200000",
"ln":"139.35298500000"
},
"geometry":{
"type":"Point",
"coordinates":[
139.352985,
36.234842
]
}
},
{
"type":"Feature",
"properties":{
"Name":"中条小学校",
"Jusho":"埼玉県熊谷市上中条892－",
"Capacity":"－",
"la":"36.18058200000",
"ln":"139.40394800000"
},
"geometry":{
"type":"Point",
"coordinates":[
139.403948,
36.180582
]
}
},
{
"type":"Feature",
"properties":{
"Name":"長井小学校",
"Jusho":"埼玉県熊谷市上根358",
"Capacity":"－",
"la":"36.20988300000",
"ln":"139.38747600000"
},
"geometry":{
"type":"Point",
"coordinates":[
139.387476,
36.209883
]
}
},
{
"type":"Feature",
"properties":{
"Name":"奈良小学校",
"Jusho":"埼玉県熊谷市下奈良561-3",
"Capacity":"－",
"la":"36.18619100000",
"ln":"139.37936700000"
},
"geometry":{
"type":"Point",
"coordinates":[
139.379367,
36.186191
]
}
},
{
"type":"Feature",
"properties":{
"Name":"別府小学校",
"Jusho":"埼玉県熊谷市西別府29－",
"Capacity":"－",
"la":"36.19321700000",
"ln":"139.34139800000"
},
"geometry":{
"type":"Point",
"coordinates":[
139.341398,
36.193217
]
}
},
{
"type":"Feature",
"properties":{
"Name":"籠原小学校",
"Jusho":"埼玉県熊谷市新堀1143",
"Capacity":"－",
"la":"36.17377400000",
"ln":"139.31823400000"
},
"geometry":{
"type":"Point",
"coordinates":[
139.318234,
36.173774
]
}
},
{
"type":"Feature",
"properties":{
"Name":"安行小学校",
"Jusho":"埼玉県川口市安行原2020",
"Capacity":"－",
"la":"35.83941100000",
"ln":"139.76573300000"
},
"geometry":{
"type":"Point",
"coordinates":[
139.765733,
35.839411
]
}
},
{
"type":"Feature",
"properties":{
"Name":"安行東小学校",
"Jusho":"埼玉県川口市安行出羽4－－",
"Capacity":"－",
"la":"35.85207600000",
"ln":"139.76712100000"
},
"geometry":{
"type":"Point",
"coordinates":[
139.767121,
35.852076
]
}
},
{
"type":"Feature",
"properties":{
"Name":"元郷小学校",
"Jusho":"埼玉県川口市元郷6-2－",
"Capacity":"－",
"la":"35.80055600000",
"ln":"139.74193100000"
},
"geometry":{
"type":"Point",
"coordinates":[
139.741931,
35.800556
]
}
},
{
"type":"Feature",
"properties":{
"Name":"元郷南小学校",
"Jusho":"埼玉県川口市元郷4－1－",
"Capacity":"－",
"la":"35.79705600000",
"ln":"139.73498700000"
},
"geometry":{
"type":"Point",
"coordinates":[
139.734987,
35.797056
]
}
},
{
"type":"Feature",
"properties":{
"Name":"原町小学校",
"Jusho":"埼玉県川口市飯原町6-50",
"Capacity":"－",
"la":"35.79930500000",
"ln":"139.70462800000"
},
"geometry":{
"type":"Point",
"coordinates":[
139.704628,
35.799305
]
}
},
{
"type":"Feature",
"properties":{
"Name":"戸塚綾瀬小学校",
"Jusho":"埼玉県川口市藤兵衛新田239－",
"Capacity":"－",
"la":"35.86862100000",
"ln":"139.76536300000"
},
"geometry":{
"type":"Point",
"coordinates":[
139.765363,
35.868621
]
}
},
{
"type":"Feature",
"properties":{
"Name":"戸塚小学校",
"Jusho":"埼玉県川口市戸塚3－3-55",
"Capacity":"－",
"la":"35.86918500000",
"ln":"139.74695600000"
},
"geometry":{
"type":"Point",
"coordinates":[
139.746956,
35.869185
]
}
},
{
"type":"Feature",
"properties":{
"Name":"戸塚東小学校",
"Jusho":"埼玉県川口市戸塚東2－8-20",
"Capacity":"－",
"la":"35.87090700000",
"ln":"139.75517700000"
},
"geometry":{
"type":"Point",
"coordinates":[
139.755177,
35.870907
]
}
},
{
"type":"Feature",
"properties":{
"Name":"戸塚南小学校",
"Jusho":"埼玉県川口市戸塚4563－",
"Capacity":"－",
"la":"35.86467100000",
"ln":"139.74485800000"
},
"geometry":{
"type":"Point",
"coordinates":[
139.744858,
35.864671
]
}
},
{
"type":"Feature",
"properties":{
"Name":"戸塚北小学校",
"Jusho":"埼玉県川口市東川口3－2－",
"Capacity":"－",
"la":"35.87960000000",
"ln":"139.74709400000"
},
"geometry":{
"type":"Point",
"coordinates":[
139.747094,
35.8796
]
}
},
{
"type":"Feature",
"properties":{
"Name":"幸町小学校",
"Jusho":"埼玉県川口市幸町3-8-33",
"Capacity":"－",
"la":"35.80602600000",
"ln":"139.71771100000"
},
"geometry":{
"type":"Point",
"coordinates":[
139.717711,
35.806026
]
}
},
{
"type":"Feature",
"properties":{
"Name":"根岸小学校",
"Jusho":"埼玉県川口市安行領根岸113",
"Capacity":"－",
"la":"35.84296500000",
"ln":"139.71587600000"
},
"geometry":{
"type":"Point",
"coordinates":[
139.715876,
35.842965
]
}
},
{
"type":"Feature",
"properties":{
"Name":"差間小学校",
"Jusho":"埼玉県川口市差間430",
"Capacity":"－",
"la":"35.86762900000",
"ln":"139.72915200000"
},
"geometry":{
"type":"Point",
"coordinates":[
139.729152,
35.867629
]
}
},
{
"type":"Feature",
"properties":{
"Name":"在家小学校",
"Jusho":"埼玉県川口市安行領在家323",
"Capacity":"－",
"la":"35.85407500000",
"ln":"139.71170900000"
},
"geometry":{
"type":"Point",
"coordinates":[
139.711709,
35.854075
]
}
},
{
"type":"Feature",
"properties":{
"Name":"慈林小学校",
"Jusho":"埼玉県川口市安行慈林356",
"Capacity":"－",
"la":"35.84066000000",
"ln":"139.75067900000"
},
"geometry":{
"type":"Point",
"coordinates":[
139.750679,
35.84066
]
}
},
{
"type":"Feature",
"properties":{
"Name":"芝園小学校",
"Jusho":"埼玉県川口市芝園町3－7",
"Capacity":"－",
"la":"35.83116000000",
"ln":"139.68562900000"
},
"geometry":{
"type":"Point",
"coordinates":[
139.685629,
35.83116
]
}
},
{
"type":"Feature",
"properties":{
"Name":"芝小学校",
"Jusho":"埼玉県川口市芝5218",
"Capacity":"－",
"la":"35.83760400000",
"ln":"139.69276700000"
},
"geometry":{
"type":"Point",
"coordinates":[
139.692767,
35.837604
]
}
},
{
"type":"Feature",
"properties":{
"Name":"芝西小学校",
"Jusho":"埼玉県川口市芝西2-20-3",
"Capacity":"－",
"la":"35.84138100000",
"ln":"139.68351800000"
},
"geometry":{
"type":"Point",
"coordinates":[
139.683518,
35.841381
]
}
},
{
"type":"Feature",
"properties":{
"Name":"芝中央小学校",
"Jusho":"埼玉県川口市伊刈692",
"Capacity":"－",
"la":"35.84315900000",
"ln":"139.69754500000"
},
"geometry":{
"type":"Point",
"coordinates":[
139.697545,
35.843159
]
}
},
{
"type":"Feature",
"properties":{
"Name":"芝東小学校",
"Jusho":"埼玉県川口市伊刈200",
"Capacity":"－",
"la":"35.84788100000",
"ln":"139.69946100000"
},
"geometry":{
"type":"Point",
"coordinates":[
139.699461,
35.847881
]
}
},
{
"type":"Feature",
"properties":{
"Name":"芝南小学校",
"Jusho":"埼玉県川口市芝3－7－",
"Capacity":"－",
"la":"35.83452100000",
"ln":"139.69868400000"
},
"geometry":{
"type":"Point",
"coordinates":[
139.698684,
35.834521
]
}
},
{
"type":"Feature",
"properties":{
"Name":"芝樋ノ爪小学校",
"Jusho":"埼玉県川口市芝樋ノ爪2－0-48",
"Capacity":"－",
"la":"35.83457700000",
"ln":"139.68710100000"
},
"geometry":{
"type":"Point",
"coordinates":[
139.687101,
35.834577
]
}
},
{
"type":"Feature",
"properties":{
"Name":"芝富士小学校",
"Jusho":"埼玉県川口市芝富士2－7－",
"Capacity":"－",
"la":"35.83616000000",
"ln":"139.67735200000"
},
"geometry":{
"type":"Point",
"coordinates":[
139.677352,
35.83616
]
}
},
{
"type":"Feature",
"properties":{
"Name":"舟戸小学校",
"Jusho":"埼玉県川口市舟戸町2-2",
"Capacity":"－",
"la":"35.79345700000",
"ln":"139.72303500000"
},
"geometry":{
"type":"Point",
"coordinates":[
139.723035,
35.793457
]
}
},
{
"type":"Feature",
"properties":{
"Name":"十二月田小学校",
"Jusho":"埼玉県川口市朝日1－1－",
"Capacity":"－",
"la":"35.80630400000",
"ln":"139.73440400000"
},
"geometry":{
"type":"Point",
"coordinates":[
139.734404,
35.806304
]
}
},
{
"type":"Feature",
"properties":{
"Name":"上青木小学校",
"Jusho":"埼玉県川口市上青木西3-8-25",
"Capacity":"－",
"la":"35.82860600000",
"ln":"139.71657100000"
},
"geometry":{
"type":"Point",
"coordinates":[
139.716571,
35.828606
]
}
},
{
"type":"Feature",
"properties":{
"Name":"上青木南小学校",
"Jusho":"埼玉県川口市上青木1-6-43",
"Capacity":"－",
"la":"35.82210700000",
"ln":"139.71857100000"
},
"geometry":{
"type":"Point",
"coordinates":[
139.718571,
35.822107
]
}
},
{
"type":"Feature",
"properties":{
"Name":"新郷小学校",
"Jusho":"埼玉県川口市東本郷1313",
"Capacity":"－",
"la":"35.82849600000",
"ln":"139.76476100000"
},
"geometry":{
"type":"Point",
"coordinates":[
139.764761,
35.828496
]
}
},
{
"type":"Feature",
"properties":{
"Name":"新郷東小学校",
"Jusho":"埼玉県川口市峯361",
"Capacity":"－",
"la":"35.83002500000",
"ln":"139.77603800000"
},
"geometry":{
"type":"Point",
"coordinates":[
139.776038,
35.830025
]
}
},
{
"type":"Feature",
"properties":{
"Name":"新郷南小学校",
"Jusho":"埼玉県川口市江戸3－2－",
"Capacity":"－",
"la":"35.82019200000",
"ln":"139.75373500000"
},
"geometry":{
"type":"Point",
"coordinates":[
139.753735,
35.820192
]
}
},
{
"type":"Feature",
"properties":{
"Name":"神根小学校",
"Jusho":"埼玉県川口市道合1111",
"Capacity":"－",
"la":"35.84715900000",
"ln":"139.72498600000"
},
"geometry":{
"type":"Point",
"coordinates":[
139.724986,
35.847159
]
}
},
{
"type":"Feature",
"properties":{
"Name":"神根東小学校",
"Jusho":"埼玉県川口市石神1440",
"Capacity":"－",
"la":"35.85449200000",
"ln":"139.74081800000"
},
"geometry":{
"type":"Point",
"coordinates":[
139.740818,
35.854492
]
}
},
{
"type":"Feature",
"properties":{
"Name":"青木中央小学校",
"Jusho":"埼玉県川口市中青木2-21-5",
"Capacity":"－",
"la":"35.81069200000",
"ln":"139.72237700000"
},
"geometry":{
"type":"Point",
"coordinates":[
139.722377,
35.810692
]
}
},
{
"type":"Feature",
"properties":{
"Name":"青木北小学校",
"Jusho":"埼玉県川口市西青木1－－",
"Capacity":"－",
"la":"35.81399700000",
"ln":"139.71548800000"
},
"geometry":{
"type":"Point",
"coordinates":[
139.715488,
35.813997
]
}
},
{
"type":"Feature",
"properties":{
"Name":"前川小学校",
"Jusho":"埼玉県川口市前川町4－80",
"Capacity":"－",
"la":"35.84229800000",
"ln":"139.70454400000"
},
"geometry":{
"type":"Point",
"coordinates":[
139.704544,
35.842298
]
}
},
{
"type":"Feature",
"properties":{
"Name":"前川東小学校",
"Jusho":"埼玉県川口市前上町10－",
"Capacity":"－",
"la":"35.83554900000",
"ln":"139.71459900000"
},
"geometry":{
"type":"Point",
"coordinates":[
139.714599,
35.835549
]
}
},
{
"type":"Feature",
"properties":{
"Name":"仲町小学校",
"Jusho":"埼玉県川口市西川口5-6－",
"Capacity":"－",
"la":"35.80735900000",
"ln":"139.70360100000"
},
"geometry":{
"type":"Point",
"coordinates":[
139.703601,
35.807359
]
}
},
{
"type":"Feature",
"properties":{
"Name":"朝日西小学校",
"Jusho":"埼玉県川口市朝日4－7－2",
"Capacity":"－",
"la":"35.80988700000",
"ln":"139.74218100000"
},
"geometry":{
"type":"Point",
"coordinates":[
139.742181,
35.809887
]
}
},
{
"type":"Feature",
"properties":{
"Name":"朝日東小学校",
"Jusho":"埼玉県川口市朝日5－5－",
"Capacity":"－",
"la":"35.80683300000",
"ln":"139.74920700000"
},
"geometry":{
"type":"Point",
"coordinates":[
139.749207,
35.806833
]
}
},
{
"type":"Feature",
"properties":{
"Name":"東本郷小学校",
"Jusho":"埼玉県川口市東本郷630",
"Capacity":"－",
"la":"35.82288700000",
"ln":"139.76590000000"
},
"geometry":{
"type":"Point",
"coordinates":[
139.7659,
35.822887
]
}
},
{
"type":"Feature",
"properties":{
"Name":"東領家小学校",
"Jusho":"埼玉県川口市東領家3-5-9",
"Capacity":"－",
"la":"35.79380700000",
"ln":"139.75098500000"
},
"geometry":{
"type":"Point",
"coordinates":[
139.750985,
35.793807
]
}
},
{
"type":"Feature",
"properties":{
"Name":"飯仲小学校",
"Jusho":"埼玉県川口市南町2-3－",
"Capacity":"－",
"la":"35.80444300000",
"ln":"139.70715600000"
},
"geometry":{
"type":"Point",
"coordinates":[
139.707156,
35.804443
]
}
},
{
"type":"Feature",
"properties":{
"Name":"飯塚小学校",
"Jusho":"埼玉県川口市飯塚2－1－",
"Capacity":"－",
"la":"35.79852700000",
"ln":"139.71140600000"
},
"geometry":{
"type":"Point",
"coordinates":[
139.711406,
35.798527
]
}
},
{
"type":"Feature",
"properties":{
"Name":"並木小学校",
"Jusho":"埼玉県川口市並木1-24－",
"Capacity":"－",
"la":"35.81233000000",
"ln":"139.71154400000"
},
"geometry":{
"type":"Point",
"coordinates":[
139.711544,
35.81233
]
}
},
{
"type":"Feature",
"properties":{
"Name":"本町小学校",
"Jusho":"埼玉県川口市本町2-4-6",
"Capacity":"－",
"la":"35.79972100000",
"ln":"139.72518200000"
},
"geometry":{
"type":"Point",
"coordinates":[
139.725182,
35.799721
]
}
},
{
"type":"Feature",
"properties":{
"Name":"木曽呂小学校",
"Jusho":"埼玉県川口市木曽呂382-2",
"Capacity":"－",
"la":"35.86004600000",
"ln":"139.72473600000"
},
"geometry":{
"type":"Point",
"coordinates":[
139.724736,
35.860046
]
}
},
{
"type":"Feature",
"properties":{
"Name":"柳崎小学校",
"Jusho":"埼玉県川口市柳崎4-4－",
"Capacity":"－",
"la":"35.85643500000",
"ln":"139.70073800000"
},
"geometry":{
"type":"Point",
"coordinates":[
139.700738,
35.856435
]
}
},
{
"type":"Feature",
"properties":{
"Name":"領家小学校",
"Jusho":"埼玉県川口市領家3－4－",
"Capacity":"－",
"la":"35.79166900000",
"ln":"139.74898600000"
},
"geometry":{
"type":"Point",
"coordinates":[
139.748986,
35.791669
]
}
},
{
"type":"Feature",
"properties":{
"Name":"下忍小学校",
"Jusho":"埼玉県行田市下忍2451",
"Capacity":"－",
"la":"36.11803500000",
"ln":"139.46833400000"
},
"geometry":{
"type":"Point",
"coordinates":[
139.468334,
36.118035
]
}
},
{
"type":"Feature",
"properties":{
"Name":"荒木小学校",
"Jusho":"埼玉県行田市荒木1606",
"Capacity":"－",
"la":"36.16230800000",
"ln":"139.48416300000"
},
"geometry":{
"type":"Point",
"coordinates":[
139.484163,
36.162308
]
}
},
{
"type":"Feature",
"properties":{
"Name":"埼玉小学校",
"Jusho":"埼玉県行田市埼玉4610-2",
"Capacity":"－",
"la":"36.11661900000",
"ln":"139.48972100000"
},
"geometry":{
"type":"Point",
"coordinates":[
139.489721,
36.116619
]
}
},
{
"type":"Feature",
"properties":{
"Name":"桜ヶ丘小学校",
"Jusho":"埼玉県行田市長野1880",
"Capacity":"－",
"la":"36.15214200000",
"ln":"139.47066500000"
},
"geometry":{
"type":"Point",
"coordinates":[
139.470665,
36.152142
]
}
},
{
"type":"Feature",
"properties":{
"Name":"須加小学校",
"Jusho":"埼玉県行田市須加4586",
"Capacity":"－",
"la":"36.18666700000",
"ln":"139.48116200000"
},
"geometry":{
"type":"Point",
"coordinates":[
139.481162,
36.186667
]
}
},
{
"type":"Feature",
"properties":{
"Name":"星宮小学校",
"Jusho":"埼玉県行田市上池守47",
"Capacity":"－",
"la":"36.14872400000",
"ln":"139.44341800000"
},
"geometry":{
"type":"Point",
"coordinates":[
139.443418,
36.148724
]
}
},
{
"type":"Feature",
"properties":{
"Name":"西小学校",
"Jusho":"埼玉県行田市持田3-5-9",
"Capacity":"－",
"la":"36.12947700000",
"ln":"139.44217000000"
},
"geometry":{
"type":"Point",
"coordinates":[
139.44217,
36.129477
]
}
},
{
"type":"Feature",
"properties":{
"Name":"泉小学校",
"Jusho":"埼玉県行田市持田70",
"Capacity":"－",
"la":"36.12136700000",
"ln":"139.44647500000"
},
"geometry":{
"type":"Point",
"coordinates":[
139.446475,
36.121367
]
}
},
{
"type":"Feature",
"properties":{
"Name":"太田西小学校",
"Jusho":"埼玉県行田市小針3521",
"Capacity":"－",
"la":"36.14481100000",
"ln":"139.49930200000"
},
"geometry":{
"type":"Point",
"coordinates":[
139.499302,
36.144811
]
}
},
{
"type":"Feature",
"properties":{
"Name":"太田東小学校",
"Jusho":"埼玉県行田市真名板955",
"Capacity":"－",
"la":"36.13220200000",
"ln":"139.52088300000"
},
"geometry":{
"type":"Point",
"coordinates":[
139.520883,
36.132202
]
}
},
{
"type":"Feature",
"properties":{
"Name":"中央小学校",
"Jusho":"埼玉県行田市本丸7-20",
"Capacity":"－",
"la":"36.13619900000",
"ln":"139.45536200000"
},
"geometry":{
"type":"Point",
"coordinates":[
139.455362,
36.136199
]
}
},
{
"type":"Feature",
"properties":{
"Name":"東小学校",
"Jusho":"埼玉県行田市長野2-26-8",
"Capacity":"－",
"la":"36.13794900000",
"ln":"139.47266600000"
},
"geometry":{
"type":"Point",
"coordinates":[
139.472666,
36.137949
]
}
},
{
"type":"Feature",
"properties":{
"Name":"南河原小学校",
"Jusho":"埼玉県行田市南河原782",
"Capacity":"－",
"la":"36.18083200000",
"ln":"139.43636100000"
},
"geometry":{
"type":"Point",
"coordinates":[
139.436361,
36.180832
]
}
},
{
"type":"Feature",
"properties":{
"Name":"南小学校",
"Jusho":"埼玉県行田市佐間1-25-4",
"Capacity":"－",
"la":"36.13095000000",
"ln":"139.46016800000"
},
"geometry":{
"type":"Point",
"coordinates":[
139.460168,
36.13095
]
}
},
{
"type":"Feature",
"properties":{
"Name":"北小学校",
"Jusho":"埼玉県行田市和田94－",
"Capacity":"－",
"la":"36.16125200000",
"ln":"139.46216600000"
},
"geometry":{
"type":"Point",
"coordinates":[
139.462166,
36.161252
]
}
},
{
"type":"Feature",
"properties":{
"Name":"影森小学校",
"Jusho":"埼玉県秩父市下影森1104",
"Capacity":"800",
"la":"35.97351800000",
"ln":"139.06834900000"
},
"geometry":{
"type":"Point",
"coordinates":[
139.068349,
35.973518
]
}
},
{
"type":"Feature",
"properties":{
"Name":"花の木小学校",
"Jusho":"埼玉県秩父市上町2-21-37",
"Capacity":"2000",
"la":"35.99037900000",
"ln":"139.07577500000"
},
"geometry":{
"type":"Point",
"coordinates":[
139.075775,
35.990379
]
}
},
{
"type":"Feature",
"properties":{
"Name":"吉田小学校",
"Jusho":"埼玉県秩父市下吉田3833",
"Capacity":"150",
"la":"36.04181500000",
"ln":"139.03490700000"
},
"geometry":{
"type":"Point",
"coordinates":[
139.034907,
36.041815
]
}
},
{
"type":"Feature",
"properties":{
"Name":"吉田小学校太田部分校",
"Jusho":"埼玉県秩父市吉田太田部664-2",
"Capacity":"60",
"la":"36.11482401320",
"ln":"138.97266535100"
},
"geometry":{
"type":"Point",
"coordinates":[
138.972665351,
36.1148240132
]
}
},
{
"type":"Feature",
"properties":{
"Name":"久那小学校",
"Jusho":"埼玉県秩父市久那2183－",
"Capacity":"150",
"la":"35.97251800000",
"ln":"139.05237800000"
},
"geometry":{
"type":"Point",
"coordinates":[
139.052378,
35.972518
]
}
},
{
"type":"Feature",
"properties":{
"Name":"旧大滝小学校三峰分校",
"Jusho":"埼玉県秩父市三峰214-2",
"Capacity":"30",
"la":"35.92728000000",
"ln":"138.92370800000"
},
"geometry":{
"type":"Point",
"coordinates":[
138.923708,
35.92728
]
}
},
{
"type":"Feature",
"properties":{
"Name":"原谷小学校",
"Jusho":"埼玉県秩父市大野原2991",
"Capacity":"600",
"la":"36.03226100000",
"ln":"139.10095400000"
},
"geometry":{
"type":"Point",
"coordinates":[
139.100954,
36.032261
]
}
},
{
"type":"Feature",
"properties":{
"Name":"光の村養護学校（旧光岩小学校）",
"Jusho":"埼玉県秩父市大滝4783",
"Capacity":"300",
"la":"35.94649730590",
"ln":"138.96872402900"
},
"geometry":{
"type":"Point",
"coordinates":[
138.968724029,
35.9464973059
]
}
},
{
"type":"Feature",
"properties":{
"Name":"光の村養護学校（旧上中尾小学校）",
"Jusho":"埼玉県秩父市大滝1535",
"Capacity":"300",
"la":"35.94467100000",
"ln":"138.88360600000"
},
"geometry":{
"type":"Point",
"coordinates":[
138.883606,
35.944671
]
}
},
{
"type":"Feature",
"properties":{
"Name":"荒川西小学校",
"Jusho":"埼玉県秩父市荒川贄川840",
"Capacity":"200",
"la":"35.96655300000",
"ln":"138.97783700000"
},
"geometry":{
"type":"Point",
"coordinates":[
138.977837,
35.966553
]
}
},
{
"type":"Feature",
"properties":{
"Name":"荒川東小学校",
"Jusho":"埼玉県秩父市荒川上田野1755",
"Capacity":"－",
"la":"35.95752600000",
"ln":"139.03129800000"
},
"geometry":{
"type":"Point",
"coordinates":[
139.031298,
35.957526
]
}
},
{
"type":"Feature",
"properties":{
"Name":"高篠小学校",
"Jusho":"埼玉県秩父市山田2619",
"Capacity":"700",
"la":"36.02120700000",
"ln":"139.11406400000"
},
"geometry":{
"type":"Point",
"coordinates":[
139.114064,
36.021207
]
}
},
{
"type":"Feature",
"properties":{
"Name":"西小学校",
"Jusho":"埼玉県秩父市金室町9-46",
"Capacity":"1000",
"la":"36.00681900000",
"ln":"139.08187400000"
},
"geometry":{
"type":"Point",
"coordinates":[
139.081874,
36.006819
]
}
},
{
"type":"Feature",
"properties":{
"Name":"大滝小学校",
"Jusho":"埼玉県秩父市大滝1999",
"Capacity":"300",
"la":"35.95460100000",
"ln":"138.91642100000"
},
"geometry":{
"type":"Point",
"coordinates":[
138.916421,
35.954601
]
}
},
{
"type":"Feature",
"properties":{
"Name":"大田小学校",
"Jusho":"埼玉県秩父市大田1661",
"Capacity":"300",
"la":"36.05330500000",
"ln":"139.06596100000"
},
"geometry":{
"type":"Point",
"coordinates":[
139.065961,
36.053305
]
}
},
{
"type":"Feature",
"properties":{
"Name":"秩父第一小学校",
"Jusho":"埼玉県秩父市上宮地町36－1",
"Capacity":"1000",
"la":"36.00259800000",
"ln":"139.09267800000"
},
"geometry":{
"type":"Point",
"coordinates":[
139.092678,
36.002598
]
}
},
{
"type":"Feature",
"properties":{
"Name":"南小学校",
"Jusho":"埼玉県秩父市野坂町2－4-29",
"Capacity":"1100",
"la":"35.98593300000",
"ln":"139.08409700000"
},
"geometry":{
"type":"Point",
"coordinates":[
139.084097,
35.985933
]
}
},
{
"type":"Feature",
"properties":{
"Name":"尾田蒔小学校",
"Jusho":"埼玉県秩父市寺尾2375",
"Capacity":"500",
"la":"36.01812400000",
"ln":"139.07895800000"
},
"geometry":{
"type":"Point",
"coordinates":[
139.078958,
36.018124
]
}
},
{
"type":"Feature",
"properties":{
"Name":"（旧）並木東小学校",
"Jusho":"埼玉県所沢市並木6-4－",
"Capacity":"3376",
"la":"35.80244900000",
"ln":"139.47906200000"
},
"geometry":{
"type":"Point",
"coordinates":[
139.479062,
35.802449
]
}
},
{
"type":"Feature",
"properties":{
"Name":"安松小学校",
"Jusho":"埼玉県所沢市下安松755－",
"Capacity":"2943",
"la":"35.78732900000",
"ln":"139.50320200000"
},
"geometry":{
"type":"Point",
"coordinates":[
139.503202,
35.787329
]
}
},
{
"type":"Feature",
"properties":{
"Name":"宮前小学校",
"Jusho":"埼玉県所沢市東狭山ヶ丘6-2777",
"Capacity":"3132",
"la":"35.81771300000",
"ln":"139.42642900000"
},
"geometry":{
"type":"Point",
"coordinates":[
139.426429,
35.817713
]
}
},
{
"type":"Feature",
"properties":{
"Name":"牛沼小学校",
"Jusho":"埼玉県所沢市牛沼21",
"Capacity":"3361",
"la":"35.79485600000",
"ln":"139.49234100000"
},
"geometry":{
"type":"Point",
"coordinates":[
139.492341,
35.794856
]
}
},
{
"type":"Feature",
"properties":{
"Name":"荒幡小学校",
"Jusho":"埼玉県所沢市荒幡615",
"Capacity":"3606",
"la":"35.77624600000",
"ln":"139.44845600000"
},
"geometry":{
"type":"Point",
"coordinates":[
139.448456,
35.776246
]
}
},
{
"type":"Feature",
"properties":{
"Name":"三ヶ島小学校",
"Jusho":"埼玉県所沢市三ヶ島5-791-4",
"Capacity":"3190",
"la":"35.79357600000",
"ln":"139.40462600000"
},
"geometry":{
"type":"Point",
"coordinates":[
139.404626,
35.793576
]
}
},
{
"type":"Feature",
"properties":{
"Name":"山口小学校",
"Jusho":"埼玉県所沢市山口1550",
"Capacity":"3019",
"la":"35.77980100000",
"ln":"139.43368000000"
},
"geometry":{
"type":"Point",
"coordinates":[
139.43368,
35.779801
]
}
},
{
"type":"Feature",
"properties":{
"Name":"若狭小学校",
"Jusho":"埼玉県所沢市若狭1-2946",
"Capacity":"4135",
"la":"35.80815800000",
"ln":"139.42009700000"
},
"geometry":{
"type":"Point",
"coordinates":[
139.420097,
35.808158
]
}
},
{
"type":"Feature",
"properties":{
"Name":"若松小学校",
"Jusho":"埼玉県所沢市下新井1231-2",
"Capacity":"3632",
"la":"35.79946600000",
"ln":"139.48906400000"
},
"geometry":{
"type":"Point",
"coordinates":[
139.489064,
35.799466
]
}
},
{
"type":"Feature",
"properties":{
"Name":"所沢小学校",
"Jusho":"埼玉県所沢市元町7-37",
"Capacity":"3275",
"la":"35.78830100000",
"ln":"139.46581600000"
},
"geometry":{
"type":"Point",
"coordinates":[
139.465816,
35.788301
]
}
},
{
"type":"Feature",
"properties":{
"Name":"小手指小学校",
"Jusho":"埼玉県所沢市北野619",
"Capacity":"2212",
"la":"35.79135500000",
"ln":"139.43570700000"
},
"geometry":{
"type":"Point",
"coordinates":[
139.435707,
35.791355
]
}
},
{
"type":"Feature",
"properties":{
"Name":"松井小学校",
"Jusho":"埼玉県所沢市上安松895",
"Capacity":"3205",
"la":"35.78935700000",
"ln":"139.48948100000"
},
"geometry":{
"type":"Point",
"coordinates":[
139.489481,
35.789357
]
}
},
{
"type":"Feature",
"properties":{
"Name":"上新井小学校",
"Jusho":"埼玉県所沢市上新井1168",
"Capacity":"3948",
"la":"35.79702100000",
"ln":"139.45037200000"
},
"geometry":{
"type":"Point",
"coordinates":[
139.450372,
35.797021
]
}
},
{
"type":"Feature",
"properties":{
"Name":"伸栄小学校",
"Jusho":"埼玉県所沢市中新井1-93－",
"Capacity":"3044",
"la":"35.81663000000",
"ln":"139.46431500000"
},
"geometry":{
"type":"Point",
"coordinates":[
139.464315,
35.81663
]
}
},
{
"type":"Feature",
"properties":{
"Name":"清進小学校",
"Jusho":"埼玉県所沢市けやき台1-38－",
"Capacity":"4173",
"la":"35.80066000000",
"ln":"139.45331600000"
},
"geometry":{
"type":"Point",
"coordinates":[
139.453316,
35.80066
]
}
},
{
"type":"Feature",
"properties":{
"Name":"西富小学校",
"Jusho":"埼玉県所沢市岩岡町676－",
"Capacity":"3324",
"la":"35.81682400000",
"ln":"139.44365000000"
},
"geometry":{
"type":"Point",
"coordinates":[
139.44365,
35.816824
]
}
},
{
"type":"Feature",
"properties":{
"Name":"泉小学校",
"Jusho":"埼玉県所沢市山口657",
"Capacity":"3922",
"la":"35.78335600000",
"ln":"139.44809500000"
},
"geometry":{
"type":"Point",
"coordinates":[
139.448095,
35.783356
]
}
},
{
"type":"Feature",
"properties":{
"Name":"中央小学校",
"Jusho":"埼玉県所沢市並木8-4",
"Capacity":"3442",
"la":"35.81235300000",
"ln":"139.47523100000"
},
"geometry":{
"type":"Point",
"coordinates":[
139.475231,
35.812353
]
}
},
{
"type":"Feature",
"properties":{
"Name":"中富小学校",
"Jusho":"埼玉県所沢市中富1004－",
"Capacity":"2496",
"la":"35.82065800000",
"ln":"139.48720200000"
},
"geometry":{
"type":"Point",
"coordinates":[
139.487202,
35.820658
]
}
},
{
"type":"Feature",
"properties":{
"Name":"椿峰小学校",
"Jusho":"埼玉県所沢市北野401",
"Capacity":"2911",
"la":"35.78394600000",
"ln":"139.43072700000"
},
"geometry":{
"type":"Point",
"coordinates":[
139.430727,
35.783946
]
}
},
{
"type":"Feature",
"properties":{
"Name":"東所沢小学校",
"Jusho":"埼玉県所沢市東所沢2-26－",
"Capacity":"3622",
"la":"35.79968900000",
"ln":"139.51386700000"
},
"geometry":{
"type":"Point",
"coordinates":[
139.513867,
35.799689
]
}
},
{
"type":"Feature",
"properties":{
"Name":"南小学校",
"Jusho":"埼玉県所沢市南住吉18-29",
"Capacity":"4018",
"la":"35.78305100000",
"ln":"139.46742700000"
},
"geometry":{
"type":"Point",
"coordinates":[
139.467427,
35.783051
]
}
},
{
"type":"Feature",
"properties":{
"Name":"美原小学校",
"Jusho":"埼玉県所沢市並木5－",
"Capacity":"3125",
"la":"35.80929800000",
"ln":"139.46234300000"
},
"geometry":{
"type":"Point",
"coordinates":[
139.462343,
35.809298
]
}
},
{
"type":"Feature",
"properties":{
"Name":"富岡小学校",
"Jusho":"埼玉県所沢市下富660",
"Capacity":"2481",
"la":"35.82918400000",
"ln":"139.46695300000"
},
"geometry":{
"type":"Point",
"coordinates":[
139.466953,
35.829184
]
}
},
{
"type":"Feature",
"properties":{
"Name":"並木小学校",
"Jusho":"埼玉県所沢市並木6-2",
"Capacity":"3245",
"la":"35.80185500000",
"ln":"139.47437000000"
},
"geometry":{
"type":"Point",
"coordinates":[
139.47437,
35.801855
]
}
},
{
"type":"Feature",
"properties":{
"Name":"北秋津小学校",
"Jusho":"埼玉県所沢市北秋津623",
"Capacity":"3593",
"la":"35.78349600000",
"ln":"139.47998100000"
},
"geometry":{
"type":"Point",
"coordinates":[
139.479981,
35.783496
]
}
},
{
"type":"Feature",
"properties":{
"Name":"北小学校",
"Jusho":"埼玉県所沢市緑町1－0-33",
"Capacity":"3445",
"la":"35.80493700000",
"ln":"139.45026100000"
},
"geometry":{
"type":"Point",
"coordinates":[
139.450261,
35.804937
]
}
},
{
"type":"Feature",
"properties":{
"Name":"北中小学校",
"Jusho":"埼玉県所沢市北中1-250",
"Capacity":"2598",
"la":"35.80610300000",
"ln":"139.42901300000"
},
"geometry":{
"type":"Point",
"coordinates":[
139.429013,
35.806103
]
}
},
{
"type":"Feature",
"properties":{
"Name":"北野小学校",
"Jusho":"埼玉県所沢市北野1740",
"Capacity":"3669",
"la":"35.79643700000",
"ln":"139.42537500000"
},
"geometry":{
"type":"Point",
"coordinates":[
139.425375,
35.796437
]
}
},
{
"type":"Feature",
"properties":{
"Name":"明峰小学校",
"Jusho":"埼玉県所沢市北有楽町26-20",
"Capacity":"4525",
"la":"35.79716000000",
"ln":"139.46481600000"
},
"geometry":{
"type":"Point",
"coordinates":[
139.464816,
35.79716
]
}
},
{
"type":"Feature",
"properties":{
"Name":"柳瀬小学校",
"Jusho":"埼玉県所沢市坂之下960",
"Capacity":"2392",
"la":"35.80593900000",
"ln":"139.52242200000"
},
"geometry":{
"type":"Point",
"coordinates":[
139.522422,
35.805939
]
}
},
{
"type":"Feature",
"properties":{
"Name":"林小学校",
"Jusho":"埼玉県所沢市和ヶ原3-95-8",
"Capacity":"3122",
"la":"35.80360300000",
"ln":"139.40246000000"
},
"geometry":{
"type":"Point",
"coordinates":[
139.40246,
35.803603
]
}
},
{
"type":"Feature",
"properties":{
"Name":"和田小学校",
"Jusho":"埼玉県所沢市東所沢和田1-39",
"Capacity":"3399",
"la":"35.79127300000",
"ln":"139.50836800000"
},
"geometry":{
"type":"Point",
"coordinates":[
139.508368,
35.791273
]
}
},
{
"type":"Feature",
"properties":{
"Name":"加治小学校",
"Jusho":"埼玉県飯能市川寺500",
"Capacity":"－",
"la":"35.84262400000",
"ln":"139.32602000000"
},
"geometry":{
"type":"Point",
"coordinates":[
139.32602,
35.842624
]
}
},
{
"type":"Feature",
"properties":{
"Name":"加治東小学校",
"Jusho":"埼玉県飯能市岩沢1243",
"Capacity":"－",
"la":"35.83648600000",
"ln":"139.33821400000"
},
"geometry":{
"type":"Point",
"coordinates":[
139.338214,
35.836486
]
}
},
{
"type":"Feature",
"properties":{
"Name":"原市場小学校",
"Jusho":"埼玉県飯能市下赤工442-2",
"Capacity":"－",
"la":"35.86834300000",
"ln":"139.24755700000"
},
"geometry":{
"type":"Point",
"coordinates":[
139.247557,
35.868343
]
}
},
{
"type":"Feature",
"properties":{
"Name":"吾野小学校",
"Jusho":"埼玉県飯能市吾野240-2",
"Capacity":"－",
"la":"35.92238700000",
"ln":"139.20670000000"
},
"geometry":{
"type":"Point",
"coordinates":[
139.2067,
35.922387
]
}
},
{
"type":"Feature",
"properties":{
"Name":"精明小学校",
"Jusho":"埼玉県飯能市小久保54-2",
"Capacity":"－",
"la":"35.86595500000",
"ln":"139.34279600000"
},
"geometry":{
"type":"Point",
"coordinates":[
139.342796,
35.865955
]
}
},
{
"type":"Feature",
"properties":{
"Name":"西川小学校",
"Jusho":"埼玉県飯能市長沢26-2",
"Capacity":"－",
"la":"35.91244500000",
"ln":"139.23122600000"
},
"geometry":{
"type":"Point",
"coordinates":[
139.231226,
35.912445
]
}
},
{
"type":"Feature",
"properties":{
"Name":"双柳小学校",
"Jusho":"埼玉県飯能市双柳1194",
"Capacity":"－",
"la":"35.85384500000",
"ln":"139.33938000000"
},
"geometry":{
"type":"Point",
"coordinates":[
139.33938,
35.853845
]
}
},
{
"type":"Feature",
"properties":{
"Name":"東吾野小学校",
"Jusho":"埼玉県飯能市平戸130-2",
"Capacity":"－",
"la":"35.89103400000",
"ln":"139.25833400000"
},
"geometry":{
"type":"Point",
"coordinates":[
139.258334,
35.891034
]
}
},
{
"type":"Feature",
"properties":{
"Name":"南高麗小学校",
"Jusho":"埼玉県飯能市下直竹38",
"Capacity":"－",
"la":"35.84065100000",
"ln":"139.27802500000"
},
"geometry":{
"type":"Point",
"coordinates":[
139.278025,
35.840651
]
}
},
{
"type":"Feature",
"properties":{
"Name":"飯能第一小学校",
"Jusho":"埼玉県飯能市山手町13-8",
"Capacity":"－",
"la":"35.85862100000",
"ln":"139.31471500000"
},
"geometry":{
"type":"Point",
"coordinates":[
139.314715,
35.858621
]
}
},
{
"type":"Feature",
"properties":{
"Name":"飯能第二小学校",
"Jusho":"埼玉県飯能市小瀬戸548－",
"Capacity":"－",
"la":"35.86678700000",
"ln":"139.27305400000"
},
"geometry":{
"type":"Point",
"coordinates":[
139.273054,
35.866787
]
}
},
{
"type":"Feature",
"properties":{
"Name":"美杉台小学校",
"Jusho":"埼玉県飯能市美杉台1-29－",
"Capacity":"－",
"la":"35.84423400000",
"ln":"139.31060500000"
},
"geometry":{
"type":"Point",
"coordinates":[
139.310605,
35.844234
]
}
},
{
"type":"Feature",
"properties":{
"Name":"富士見小学校",
"Jusho":"埼玉県飯能市双柳1－",
"Capacity":"－",
"la":"35.85684400000",
"ln":"139.32688100000"
},
"geometry":{
"type":"Point",
"coordinates":[
139.326881,
35.856844
]
}
},
{
"type":"Feature",
"properties":{
"Name":"名栗小学校",
"Jusho":"埼玉県飯能市上名栗2944",
"Capacity":"－",
"la":"35.88628600000",
"ln":"139.17961900000"
},
"geometry":{
"type":"Point",
"coordinates":[
139.179619,
35.886286
]
}
},
{
"type":"Feature",
"properties":{
"Name":"加須小学校",
"Jusho":"埼玉県加須市本町4-25",
"Capacity":"－",
"la":"36.12437200000",
"ln":"139.60418000000"
},
"geometry":{
"type":"Point",
"coordinates":[
139.60418,
36.124372
]
}
},
{
"type":"Feature",
"properties":{
"Name":"加須南小学校",
"Jusho":"埼玉県加須市下高柳1991",
"Capacity":"－",
"la":"36.11517800000",
"ln":"139.60304200000"
},
"geometry":{
"type":"Point",
"coordinates":[
139.603042,
36.115178
]
}
},
{
"type":"Feature",
"properties":{
"Name":"花崎北小学校",
"Jusho":"埼玉県加須市花崎北3－",
"Capacity":"－",
"la":"36.11398500000",
"ln":"139.62967800000"
},
"geometry":{
"type":"Point",
"coordinates":[
139.629678,
36.113985
]
}
},
{
"type":"Feature",
"properties":{
"Name":"騎西小学校",
"Jusho":"埼玉県加須市騎西52-3",
"Capacity":"－",
"la":"36.10340100000",
"ln":"139.57182300000"
},
"geometry":{
"type":"Point",
"coordinates":[
139.571823,
36.103401
]
}
},
{
"type":"Feature",
"properties":{
"Name":"元和小学校",
"Jusho":"埼玉県加須市北下新井521－",
"Capacity":"－",
"la":"36.14134300000",
"ln":"139.66964600000"
},
"geometry":{
"type":"Point",
"coordinates":[
139.669646,
36.141343
]
}
},
{
"type":"Feature",
"properties":{
"Name":"原道小学校",
"Jusho":"埼玉県加須市細間699",
"Capacity":"－",
"la":"36.15873000000",
"ln":"139.65103600000"
},
"geometry":{
"type":"Point",
"coordinates":[
139.651036,
36.15873
]
}
},
{
"type":"Feature",
"properties":{
"Name":"高柳小学校",
"Jusho":"埼玉県加須市上高柳889",
"Capacity":"－",
"la":"36.11437200000",
"ln":"139.58354400000"
},
"geometry":{
"type":"Point",
"coordinates":[
139.583544,
36.114372
]
}
},
{
"type":"Feature",
"properties":{
"Name":"鴻茎小学校",
"Jusho":"埼玉県加須市鴻茎1596-2",
"Capacity":"－",
"la":"36.08704299910",
"ln":"139.59407100000"
},
"geometry":{
"type":"Point",
"coordinates":[
139.594071,
36.0870429991
]
}
},
{
"type":"Feature",
"properties":{
"Name":"三俣小学校",
"Jusho":"埼玉県加須市北小浜850",
"Capacity":"－",
"la":"36.13281500000",
"ln":"139.61409600000"
},
"geometry":{
"type":"Point",
"coordinates":[
139.614096,
36.132815
]
}
},
{
"type":"Feature",
"properties":{
"Name":"志多見小学校",
"Jusho":"埼玉県加須市志多見633",
"Capacity":"－",
"la":"36.13231400000",
"ln":"139.54929700000"
},
"geometry":{
"type":"Point",
"coordinates":[
139.549297,
36.132314
]
}
},
{
"type":"Feature",
"properties":{
"Name":"種足小学校",
"Jusho":"埼玉県加須市中種足123",
"Capacity":"－",
"la":"36.08487600000",
"ln":"139.56779600000"
},
"geometry":{
"type":"Point",
"coordinates":[
139.567796,
36.084876
]
}
},
{
"type":"Feature",
"properties":{
"Name":"水深小学校",
"Jusho":"埼玉県加須市大室165",
"Capacity":"－",
"la":"36.10073600000",
"ln":"139.61992900000"
},
"geometry":{
"type":"Point",
"coordinates":[
139.619929,
36.100736
]
}
},
{
"type":"Feature",
"properties":{
"Name":"大越小学校",
"Jusho":"埼玉県加須市大越2115",
"Capacity":"－",
"la":"36.18006000000",
"ln":"139.62156600000"
},
"geometry":{
"type":"Point",
"coordinates":[
139.621566,
36.18006
]
}
},
{
"type":"Feature",
"properties":{
"Name":"大桑小学校",
"Jusho":"埼玉県加須市南大桑3388－",
"Capacity":"－",
"la":"36.11701200000",
"ln":"139.64114900000"
},
"geometry":{
"type":"Point",
"coordinates":[
139.641149,
36.117012
]
}
},
{
"type":"Feature",
"properties":{
"Name":"大利根東小学校",
"Jusho":"埼玉県加須市旗井807",
"Capacity":"－",
"la":"36.15292599910",
"ln":"139.68614400000"
},
"geometry":{
"type":"Point",
"coordinates":[
139.686144,
36.1529259991
]
}
},
{
"type":"Feature",
"properties":{
"Name":"田ヶ谷小学校",
"Jusho":"埼玉県加須市内田ヶ谷447-3",
"Capacity":"－",
"la":"36.11578799910",
"ln":"139.55157500000"
},
"geometry":{
"type":"Point",
"coordinates":[
139.551575,
36.1157879991
]
}
},
{
"type":"Feature",
"properties":{
"Name":"樋遣川小学校",
"Jusho":"埼玉県加須市下樋遣川427",
"Capacity":"－",
"la":"36.15473600000",
"ln":"139.61873400000"
},
"geometry":{
"type":"Point",
"coordinates":[
139.618734,
36.154736
]
}
},
{
"type":"Feature",
"properties":{
"Name":"不動岡小学校",
"Jusho":"埼玉県加須市不動岡798",
"Capacity":"－",
"la":"36.13764700000",
"ln":"139.58723700000"
},
"geometry":{
"type":"Point",
"coordinates":[
139.587237,
36.137647
]
}
},
{
"type":"Feature",
"properties":{
"Name":"豊野小学校",
"Jusho":"埼玉県加須市生出313－",
"Capacity":"－",
"la":"36.13403800000",
"ln":"139.65145300000"
},
"geometry":{
"type":"Point",
"coordinates":[
139.651453,
36.134038
]
}
},
{
"type":"Feature",
"properties":{
"Name":"北川辺西小学校",
"Jusho":"埼玉県加須市麦倉1189",
"Capacity":"－",
"la":"36.19478100000",
"ln":"139.65089600000"
},
"geometry":{
"type":"Point",
"coordinates":[
139.650896,
36.194781
]
}
},
{
"type":"Feature",
"properties":{
"Name":"北川辺東小学校",
"Jusho":"埼玉県加須市向古河54",
"Capacity":"－",
"la":"36.18661599910",
"ln":"139.68903100000"
},
"geometry":{
"type":"Point",
"coordinates":[
139.689031,
36.1866159991
]
}
},
{
"type":"Feature",
"properties":{
"Name":"礼羽小学校",
"Jusho":"埼玉県加須市礼羽560",
"Capacity":"－",
"la":"36.12964800000",
"ln":"139.58298800000"
},
"geometry":{
"type":"Point",
"coordinates":[
139.582988,
36.129648
]
}
},
{
"type":"Feature",
"properties":{
"Name":"旭小学校",
"Jusho":"埼玉県本庄市都島78",
"Capacity":"－",
"la":"36.25695800000",
"ln":"139.17599400000"
},
"geometry":{
"type":"Point",
"coordinates":[
139.175994,
36.256958
]
}
},
{
"type":"Feature",
"properties":{
"Name":"共和小学校",
"Jusho":"埼玉県本庄市児玉町蛭川895－",
"Capacity":"－",
"la":"36.20814700000",
"ln":"139.15105200000"
},
"geometry":{
"type":"Point",
"coordinates":[
139.151052,
36.208147
]
}
},
{
"type":"Feature",
"properties":{
"Name":"金屋小学校",
"Jusho":"埼玉県本庄市児玉町金屋1116－",
"Capacity":"－",
"la":"36.19104700000",
"ln":"139.11853600000"
},
"geometry":{
"type":"Point",
"coordinates":[
139.118536,
36.191047
]
}
},
{
"type":"Feature",
"properties":{
"Name":"児玉小学校",
"Jusho":"埼玉県本庄市児玉町児玉1355－",
"Capacity":"－",
"la":"36.18939900000",
"ln":"139.13689400000"
},
"geometry":{
"type":"Point",
"coordinates":[
139.136894,
36.189399
]
}
},
{
"type":"Feature",
"properties":{
"Name":"秋平小学校",
"Jusho":"埼玉県本庄市児玉町秋山2531",
"Capacity":"－",
"la":"36.17546800000",
"ln":"139.13074200000"
},
"geometry":{
"type":"Point",
"coordinates":[
139.130742,
36.175468
]
}
},
{
"type":"Feature",
"properties":{
"Name":"仁手小学校",
"Jusho":"埼玉県本庄市仁手618",
"Capacity":"－",
"la":"36.24846000000",
"ln":"139.20582400000"
},
"geometry":{
"type":"Point",
"coordinates":[
139.205824,
36.24846
]
}
},
{
"type":"Feature",
"properties":{
"Name":"中央小学校",
"Jusho":"埼玉県本庄市緑1－6－",
"Capacity":"－",
"la":"36.22696000000",
"ln":"139.17910500000"
},
"geometry":{
"type":"Point",
"coordinates":[
139.179105,
36.22696
]
}
},
{
"type":"Feature",
"properties":{
"Name":"藤田小学校",
"Jusho":"埼玉県本庄市牧西1171",
"Capacity":"－",
"la":"36.23396100000",
"ln":"139.22357200000"
},
"geometry":{
"type":"Point",
"coordinates":[
139.223572,
36.233961
]
}
},
{
"type":"Feature",
"properties":{
"Name":"北泉小学校",
"Jusho":"埼玉県本庄市北堀1871－",
"Capacity":"－",
"la":"36.22157200000",
"ln":"139.18846500000"
},
"geometry":{
"type":"Point",
"coordinates":[
139.188465,
36.221572
]
}
},
{
"type":"Feature",
"properties":{
"Name":"本庄西小学校",
"Jusho":"埼玉県本庄市干代田4-3-2",
"Capacity":"－",
"la":"36.24448700000",
"ln":"139.18060500000"
},
"geometry":{
"type":"Point",
"coordinates":[
139.180605,
36.244487
]
}
},
{
"type":"Feature",
"properties":{
"Name":"本庄東小学校",
"Jusho":"埼玉県本庄市日の出1-2－",
"Capacity":"－",
"la":"36.23346100000",
"ln":"139.19824200000"
},
"geometry":{
"type":"Point",
"coordinates":[
139.198242,
36.233461
]
}
},
{
"type":"Feature",
"properties":{
"Name":"本庄南小学校",
"Jusho":"埼玉県本庄市栄3-6-24",
"Capacity":"－",
"la":"36.23201500000",
"ln":"139.17066200000"
},
"geometry":{
"type":"Point",
"coordinates":[
139.170662,
36.232015
]
}
},
{
"type":"Feature",
"properties":{
"Name":"本泉小学校",
"Jusho":"埼玉県本庄市児玉町河内660",
"Capacity":"－",
"la":"36.15259700000",
"ln":"139.08782800000"
},
"geometry":{
"type":"Point",
"coordinates":[
139.087828,
36.152597
]
}
},
{
"type":"Feature",
"properties":{
"Name":"高坂小学校",
"Jusho":"埼玉県東松山市高坂1179",
"Capacity":"－",
"la":"35.99987900000",
"ln":"139.40062400000"
},
"geometry":{
"type":"Point",
"coordinates":[
139.400624,
35.999879
]
}
},
{
"type":"Feature",
"properties":{
"Name":"桜山小学校",
"Jusho":"埼玉県東松山市桜山台5",
"Capacity":"－",
"la":"35.99396400000",
"ln":"139.38845900000"
},
"geometry":{
"type":"Point",
"coordinates":[
139.388459,
35.993964
]
}
},
{
"type":"Feature",
"properties":{
"Name":"市の川小学校",
"Jusho":"埼玉県東松山市市ノ川30",
"Capacity":"－",
"la":"36.05162500000",
"ln":"139.39817700000"
},
"geometry":{
"type":"Point",
"coordinates":[
139.398177,
36.051625
]
}
},
{
"type":"Feature",
"properties":{
"Name":"松山第一小学校",
"Jusho":"埼玉県東松山市松葉町1－－6",
"Capacity":"－",
"la":"36.04207100000",
"ln":"139.39787200000"
},
"geometry":{
"type":"Point",
"coordinates":[
139.397872,
36.042071
]
}
},
{
"type":"Feature",
"properties":{
"Name":"松山第二小学校",
"Jusho":"埼玉県東松山市東平519－",
"Capacity":"－",
"la":"36.05951300000",
"ln":"139.40439900000"
},
"geometry":{
"type":"Point",
"coordinates":[
139.404399,
36.059513
]
}
},
{
"type":"Feature",
"properties":{
"Name":"新宿小学校",
"Jusho":"埼玉県東松山市新宿町14",
"Capacity":"－",
"la":"36.03368300000",
"ln":"139.41970300000"
},
"geometry":{
"type":"Point",
"coordinates":[
139.419703,
36.033683
]
}
},
{
"type":"Feature",
"properties":{
"Name":"新明小学校",
"Jusho":"埼玉県東松山市御茶山町7－",
"Capacity":"－",
"la":"36.03598800000",
"ln":"139.41006600000"
},
"geometry":{
"type":"Point",
"coordinates":[
139.410066,
36.035988
]
}
},
{
"type":"Feature",
"properties":{
"Name":"青鳥小学校",
"Jusho":"埼玉県東松山市石橋1150－",
"Capacity":"－",
"la":"36.03115500000",
"ln":"139.38254100000"
},
"geometry":{
"type":"Point",
"coordinates":[
139.382541,
36.031155
]
}
},
{
"type":"Feature",
"properties":{
"Name":"大岡小学校",
"Jusho":"埼玉県東松山市大谷3699",
"Capacity":"－",
"la":"36.08159300000",
"ln":"139.39653800000"
},
"geometry":{
"type":"Point",
"coordinates":[
139.396538,
36.081593
]
}
},
{
"type":"Feature",
"properties":{
"Name":"大東文化大学緑山キャンパス（旧緑山小学校）",
"Jusho":"埼玉県東松山市旗立台3",
"Capacity":"－",
"la":"35.99009255720",
"ln":"139.38178327100"
},
"geometry":{
"type":"Point",
"coordinates":[
139.381783271,
35.9900925572
]
}
},
{
"type":"Feature",
"properties":{
"Name":"唐子小学校",
"Jusho":"埼玉県東松山市新郷642",
"Capacity":"－",
"la":"36.03001600000",
"ln":"139.36509900000"
},
"geometry":{
"type":"Point",
"coordinates":[
139.365099,
36.030016
]
}
},
{
"type":"Feature",
"properties":{
"Name":"野本小学校",
"Jusho":"埼玉県東松山市下野本650-2",
"Capacity":"－",
"la":"36.01907200000",
"ln":"139.41306600000"
},
"geometry":{
"type":"Point",
"coordinates":[
139.413066,
36.019072
]
}
},
{
"type":"Feature",
"properties":{
"Name":"（旧）沼端小学校",
"Jusho":"埼玉県春日部市大場128－",
"Capacity":"－",
"la":"35.94563834360",
"ln":"139.75816005700"
},
"geometry":{
"type":"Point",
"coordinates":[
139.758160057,
35.9456383436
]
}
},
{
"type":"Feature",
"properties":{
"Name":"宮川小学校",
"Jusho":"埼玉県春日部市新方袋1090",
"Capacity":"－",
"la":"35.97653200000",
"ln":"139.72562000000"
},
"geometry":{
"type":"Point",
"coordinates":[
139.72562,
35.976532
]
}
},
{
"type":"Feature",
"properties":{
"Name":"牛島小学校",
"Jusho":"埼玉県春日部市牛島1080",
"Capacity":"－",
"la":"35.98589200000",
"ln":"139.77783700000"
},
"geometry":{
"type":"Point",
"coordinates":[
139.777837,
35.985892
]
}
},
{
"type":"Feature",
"properties":{
"Name":"幸松小学校",
"Jusho":"埼玉県春日部市八丁目353－",
"Capacity":"－",
"la":"35.98622500000",
"ln":"139.76153300000"
},
"geometry":{
"type":"Point",
"coordinates":[
139.761533,
35.986225
]
}
},
{
"type":"Feature",
"properties":{
"Name":"桜川小学校",
"Jusho":"埼玉県春日部市大衾496－",
"Capacity":"－",
"la":"35.98469800000",
"ln":"139.80916800000"
},
"geometry":{
"type":"Point",
"coordinates":[
139.809168,
35.984698
]
}
},
{
"type":"Feature",
"properties":{
"Name":"小渕小学校",
"Jusho":"埼玉県春日部市小渕905－",
"Capacity":"－",
"la":"35.99852900000",
"ln":"139.74953400000"
},
"geometry":{
"type":"Point",
"coordinates":[
139.749534,
35.998529
]
}
},
{
"type":"Feature",
"properties":{
"Name":"上沖小学校",
"Jusho":"埼玉県春日部市大沼5-44",
"Capacity":"－",
"la":"35.96592100000",
"ln":"139.75717300000"
},
"geometry":{
"type":"Point",
"coordinates":[
139.757173,
35.965921
]
}
},
{
"type":"Feature",
"properties":{
"Name":"正善小学校",
"Jusho":"埼玉県春日部市備後東6-2－",
"Capacity":"－",
"la":"35.95225700000",
"ln":"139.77317200000"
},
"geometry":{
"type":"Point",
"coordinates":[
139.773172,
35.952257
]
}
},
{
"type":"Feature",
"properties":{
"Name":"川辺小学校",
"Jusho":"埼玉県春日部市米島756",
"Capacity":"－",
"la":"35.97381000000",
"ln":"139.81072400000"
},
"geometry":{
"type":"Point",
"coordinates":[
139.810724,
35.97381
]
}
},
{
"type":"Feature",
"properties":{
"Name":"中野小学校",
"Jusho":"埼玉県春日部市東中野654",
"Capacity":"－",
"la":"35.97234000000",
"ln":"139.82194600000"
},
"geometry":{
"type":"Point",
"coordinates":[
139.821946,
35.97234
]
}
},
{
"type":"Feature",
"properties":{
"Name":"藤塚小学校",
"Jusho":"埼玉県春日部市藤塚82-2",
"Capacity":"－",
"la":"35.96239400000",
"ln":"139.78183800000"
},
"geometry":{
"type":"Point",
"coordinates":[
139.781838,
35.962394
]
}
},
{
"type":"Feature",
"properties":{
"Name":"内牧小学校",
"Jusho":"埼玉県春日部市内牧2415-2",
"Capacity":"－",
"la":"35.99383400000",
"ln":"139.72720200000"
},
"geometry":{
"type":"Point",
"coordinates":[
139.727202,
35.993834
]
}
},
{
"type":"Feature",
"properties":{
"Name":"南桜井小学校",
"Jusho":"埼玉県春日部市下柳3",
"Capacity":"－",
"la":"35.99214100000",
"ln":"139.79511300000"
},
"geometry":{
"type":"Point",
"coordinates":[
139.795113,
35.992141
]
}
},
{
"type":"Feature",
"properties":{
"Name":"粕壁小学校",
"Jusho":"埼玉県春日部市粕壁東3-2－9",
"Capacity":"－",
"la":"35.97914200000",
"ln":"139.75925600000"
},
"geometry":{
"type":"Point",
"coordinates":[
139.759256,
35.979142
]
}
},
{
"type":"Feature",
"properties":{
"Name":"八木崎小学校",
"Jusho":"埼玉県春日部市中央4－",
"Capacity":"－",
"la":"35.97503100000",
"ln":"139.74656200000"
},
"geometry":{
"type":"Point",
"coordinates":[
139.746562,
35.975031
]
}
},
{
"type":"Feature",
"properties":{
"Name":"備後小学校",
"Jusho":"埼玉県春日部市備後西3-2－",
"Capacity":"－",
"la":"35.95414500000",
"ln":"139.76825500000"
},
"geometry":{
"type":"Point",
"coordinates":[
139.768255,
35.954145
]
}
},
{
"type":"Feature",
"properties":{
"Name":"富多小学校",
"Jusho":"埼玉県春日部市神間872",
"Capacity":"－",
"la":"36.01133400000",
"ln":"139.80002900000"
},
"geometry":{
"type":"Point",
"coordinates":[
139.800029,
36.011334
]
}
},
{
"type":"Feature",
"properties":{
"Name":"武里小学校",
"Jusho":"埼玉県春日部市備後西5-5-2",
"Capacity":"－",
"la":"35.95542300000",
"ln":"139.76267200000"
},
"geometry":{
"type":"Point",
"coordinates":[
139.762672,
35.955423
]
}
},
{
"type":"Feature",
"properties":{
"Name":"武里西小学校",
"Jusho":"埼玉県春日部市大場822－",
"Capacity":"－",
"la":"35.94686800000",
"ln":"139.76400600000"
},
"geometry":{
"type":"Point",
"coordinates":[
139.764006,
35.946868
]
}
},
{
"type":"Feature",
"properties":{
"Name":"武里南小学校",
"Jusho":"埼玉県春日部市大枝89武里団地2－",
"Capacity":"－",
"la":"35.94304700000",
"ln":"139.77121800000"
},
"geometry":{
"type":"Point",
"coordinates":[
139.771218,
35.943047
]
}
},
{
"type":"Feature",
"properties":{
"Name":"宝珠花小学校",
"Jusho":"埼玉県春日部市西宝珠花593",
"Capacity":"－",
"la":"36.03197100000",
"ln":"139.80980500000"
},
"geometry":{
"type":"Point",
"coordinates":[
139.809805,
36.031971
]
}
},
{
"type":"Feature",
"properties":{
"Name":"豊春小学校",
"Jusho":"埼玉県春日部市道順川戸37－",
"Capacity":"－",
"la":"35.96775500000",
"ln":"139.73131400000"
},
"geometry":{
"type":"Point",
"coordinates":[
139.731314,
35.967755
]
}
},
{
"type":"Feature",
"properties":{
"Name":"豊野小学校",
"Jusho":"埼玉県春日部市銚子口1087",
"Capacity":"－",
"la":"35.96011700000",
"ln":"139.78614300000"
},
"geometry":{
"type":"Point",
"coordinates":[
139.786143,
35.960117
]
}
},
{
"type":"Feature",
"properties":{
"Name":"立野小学校",
"Jusho":"埼玉県春日部市南中曽根1074",
"Capacity":"－",
"la":"35.96539400000",
"ln":"139.73853600000"
},
"geometry":{
"type":"Point",
"coordinates":[
139.738536,
35.965394
]
}
},
{
"type":"Feature",
"properties":{
"Name":"緑小学校",
"Jusho":"埼玉県春日部市緑町5-4－",
"Capacity":"－",
"la":"35.97017100000",
"ln":"139.77217100000"
},
"geometry":{
"type":"Point",
"coordinates":[
139.772171,
35.970171
]
}
},
{
"type":"Feature",
"properties":{
"Name":"奥富小学校",
"Jusho":"埼玉県狭山市下奥富1019番地",
"Capacity":"－",
"la":"35.87845500000",
"ln":"139.42387200000"
},
"geometry":{
"type":"Point",
"coordinates":[
139.423872,
35.878455
]
}
},
{
"type":"Feature",
"properties":{
"Name":"狭山台小学校",
"Jusho":"埼玉県狭山市狭山台4丁目25番地",
"Capacity":"－",
"la":"35.85290299910",
"ln":"139.43387200000"
},
"geometry":{
"type":"Point",
"coordinates":[
139.433872,
35.8529029991
]
}
},
{
"type":"Feature",
"properties":{
"Name":"御狩場小学校",
"Jusho":"埼玉県狭山市北入曽755番地の4",
"Capacity":"－",
"la":"35.84573700000",
"ln":"139.42790000000"
},
"geometry":{
"type":"Point",
"coordinates":[
139.4279,
35.845737
]
}
},
{
"type":"Feature",
"properties":{
"Name":"広瀬小学校",
"Jusho":"埼玉県狭山市広瀬東4丁目4番1号",
"Capacity":"－",
"la":"35.86358000000",
"ln":"139.39518100000"
},
"geometry":{
"type":"Point",
"coordinates":[
139.395181,
35.86358
]
}
},
{
"type":"Feature",
"properties":{
"Name":"笹井小学校",
"Jusho":"埼玉県狭山市笹井1700番地",
"Capacity":"－",
"la":"35.85370700000",
"ln":"139.37065500000"
},
"geometry":{
"type":"Point",
"coordinates":[
139.370655,
35.853707
]
}
},
{
"type":"Feature",
"properties":{
"Name":"山王小学校",
"Jusho":"埼玉県狭山市南入曽55番地",
"Capacity":"－",
"la":"35.84059900000",
"ln":"139.43826100000"
},
"geometry":{
"type":"Point",
"coordinates":[
139.438261,
35.840599
]
}
},
{
"type":"Feature",
"properties":{
"Name":"新狭山小学校",
"Jusho":"埼玉県狭山市入間川1108番地",
"Capacity":"－",
"la":"35.86537300000",
"ln":"139.43101100000"
},
"geometry":{
"type":"Point",
"coordinates":[
139.431011,
35.865373
]
}
},
{
"type":"Feature",
"properties":{
"Name":"水富小学校",
"Jusho":"埼玉県狭山市根岸2丁目22番1号",
"Capacity":"－",
"la":"35.85841500000",
"ln":"139.38253500000"
},
"geometry":{
"type":"Point",
"coordinates":[
139.382535,
35.858415
]
}
},
{
"type":"Feature",
"properties":{
"Name":"南小学校",
"Jusho":"埼玉県狭山市水野815番地の1",
"Capacity":"－",
"la":"35.82823900000",
"ln":"139.42351200000"
},
"geometry":{
"type":"Point",
"coordinates":[
139.423512,
35.828239
]
}
},
{
"type":"Feature",
"properties":{
"Name":"入間川小学校",
"Jusho":"埼玉県狭山市鵜ノ木5番9号",
"Capacity":"－",
"la":"35.85442300000",
"ln":"139.39689000000"
},
"geometry":{
"type":"Point",
"coordinates":[
139.39689,
35.854423
]
}
},
{
"type":"Feature",
"properties":{
"Name":"入間川東小学校",
"Jusho":"埼玉県狭山市入間川2丁目7番23号",
"Capacity":"－",
"la":"35.86037400000",
"ln":"139.41381800000"
},
"geometry":{
"type":"Point",
"coordinates":[
139.413818,
35.860374
]
}
},
{
"type":"Feature",
"properties":{
"Name":"入間野小学校",
"Jusho":"埼玉県狭山市北入曽980番地",
"Capacity":"－",
"la":"35.84068200000",
"ln":"139.42220700000"
},
"geometry":{
"type":"Point",
"coordinates":[
139.422207,
35.840682
]
}
},
{
"type":"Feature",
"properties":{
"Name":"柏原小学校",
"Jusho":"埼玉県狭山市柏原1141番地",
"Capacity":"－",
"la":"35.87881600000",
"ln":"139.40612400000"
},
"geometry":{
"type":"Point",
"coordinates":[
139.406124,
35.878816
]
}
},
{
"type":"Feature",
"properties":{
"Name":"富士見小学校",
"Jusho":"埼玉県狭山市中央4丁目17番1号",
"Capacity":"－",
"la":"35.85064800000",
"ln":"139.42437800000"
},
"geometry":{
"type":"Point",
"coordinates":[
139.424378,
35.850648
]
}
},
{
"type":"Feature",
"properties":{
"Name":"堀兼小学校",
"Jusho":"埼玉県狭山市堀兼1234番地",
"Capacity":"－",
"la":"35.86034600000",
"ln":"139.44537100000"
},
"geometry":{
"type":"Point",
"coordinates":[
139.445371,
35.860346
]
}
},
{
"type":"Feature",
"properties":{
"Name":"井泉小学校",
"Jusho":"埼玉県羽生市藤井上組270",
"Capacity":"789",
"la":"36.18614100000",
"ln":"139.56273700000"
},
"geometry":{
"type":"Point",
"coordinates":[
139.562737,
36.186141
]
}
},
{
"type":"Feature",
"properties":{
"Name":"羽生南小学校",
"Jusho":"埼玉県羽生市南6-5－",
"Capacity":"1157",
"la":"36.16722600000",
"ln":"139.54465700000"
},
"geometry":{
"type":"Point",
"coordinates":[
139.544657,
36.167226
]
}
},
{
"type":"Feature",
"properties":{
"Name":"羽生北小学校",
"Jusho":"埼玉県羽生市北2－－",
"Capacity":"1121",
"la":"36.17617000000",
"ln":"139.53985100000"
},
"geometry":{
"type":"Point",
"coordinates":[
139.539851,
36.17617
]
}
},
{
"type":"Feature",
"properties":{
"Name":"岩瀬小学校",
"Jusho":"埼玉県羽生市上岩瀬1756",
"Capacity":"725",
"la":"36.16336500000",
"ln":"139.52460300000"
},
"geometry":{
"type":"Point",
"coordinates":[
139.524603,
36.163365
]
}
},
{
"type":"Feature",
"properties":{
"Name":"三田ヶ谷小学校",
"Jusho":"埼玉県羽生市弥勒87",
"Capacity":"567",
"la":"36.17614300000",
"ln":"139.59287400000"
},
"geometry":{
"type":"Point",
"coordinates":[
139.592874,
36.176143
]
}
},
{
"type":"Feature",
"properties":{
"Name":"手子林小学校",
"Jusho":"埼玉県羽生市下手子林555",
"Capacity":"931",
"la":"36.15303400000",
"ln":"139.57293200000"
},
"geometry":{
"type":"Point",
"coordinates":[
139.572932,
36.153034
]
}
},
{
"type":"Feature",
"properties":{
"Name":"新郷第一小学校",
"Jusho":"埼玉県羽生市上新郷5716",
"Capacity":"630",
"la":"36.17483500000",
"ln":"139.50827100000"
},
"geometry":{
"type":"Point",
"coordinates":[
139.508271,
36.174835
]
}
},
{
"type":"Feature",
"properties":{
"Name":"新郷第二小学校",
"Jusho":"埼玉県羽生市下新郷1099",
"Capacity":"492",
"la":"36.14625600000",
"ln":"139.52235400000"
},
"geometry":{
"type":"Point",
"coordinates":[
139.522354,
36.146256
]
}
},
{
"type":"Feature",
"properties":{
"Name":"須影小学校",
"Jusho":"埼玉県羽生市須影672",
"Capacity":"758",
"la":"36.15078400000",
"ln":"139.54710200000"
},
"geometry":{
"type":"Point",
"coordinates":[
139.547102,
36.150784
]
}
},
{
"type":"Feature",
"properties":{
"Name":"川俣小学校",
"Jusho":"埼玉県羽生市本川俣629",
"Capacity":"662",
"la":"36.18361300000",
"ln":"139.53715600000"
},
"geometry":{
"type":"Point",
"coordinates":[
139.537156,
36.183613
]
}
},
{
"type":"Feature",
"properties":{
"Name":"村君小学校",
"Jusho":"埼玉県羽生市堤107",
"Capacity":"439",
"la":"36.20447300000",
"ln":"139.58645700000"
},
"geometry":{
"type":"Point",
"coordinates":[
139.586457,
36.204473
]
}
},
{
"type":"Feature",
"properties":{
"Name":"下忍小学校",
"Jusho":"埼玉県鴻巣市鎌塚10",
"Capacity":"－",
"la":"36.10817500000",
"ln":"139.45994600000"
},
"geometry":{
"type":"Point",
"coordinates":[
139.459946,
36.108175
]
}
},
{
"type":"Feature",
"properties":{
"Name":"笠原小学校",
"Jusho":"埼玉県鴻巣市笠原1613",
"Capacity":"－",
"la":"36.06387900000",
"ln":"139.54116200000"
},
"geometry":{
"type":"Point",
"coordinates":[
139.541162,
36.063879
]
}
},
{
"type":"Feature",
"properties":{
"Name":"共和小学校",
"Jusho":"埼玉県鴻巣市新井194-2",
"Capacity":"－",
"la":"36.10081800000",
"ln":"139.53954900000"
},
"geometry":{
"type":"Point",
"coordinates":[
139.539549,
36.100818
]
}
},
{
"type":"Feature",
"properties":{
"Name":"屈巣小学校",
"Jusho":"埼玉県鴻巣市屈巣4515－",
"Capacity":"－",
"la":"36.09126300000",
"ln":"139.51163600000"
},
"geometry":{
"type":"Point",
"coordinates":[
139.511636,
36.091263
]
}
},
{
"type":"Feature",
"properties":{
"Name":"広田小学校",
"Jusho":"埼玉県鴻巣市広田3156-5",
"Capacity":"－",
"la":"36.10906600000",
"ln":"139.51152400000"
},
"geometry":{
"type":"Point",
"coordinates":[
139.511524,
36.109066
]
}
},
{
"type":"Feature",
"properties":{
"Name":"鴻巣中央小学校",
"Jusho":"埼玉県鴻巣市中央30－",
"Capacity":"－",
"la":"36.06835000000",
"ln":"139.52246900000"
},
"geometry":{
"type":"Point",
"coordinates":[
139.522469,
36.06835
]
}
},
{
"type":"Feature",
"properties":{
"Name":"鴻巣東小学校",
"Jusho":"埼玉県鴻巣市本町6-4-56",
"Capacity":"－",
"la":"36.05904500000",
"ln":"139.51672000000"
},
"geometry":{
"type":"Point",
"coordinates":[
139.51672,
36.059045
]
}
},
{
"type":"Feature",
"properties":{
"Name":"鴻巣南小学校",
"Jusho":"埼玉県鴻巣市本町8-7-23",
"Capacity":"－",
"la":"36.05410100000",
"ln":"139.51547000000"
},
"geometry":{
"type":"Point",
"coordinates":[
139.51547,
36.054101
]
}
},
{
"type":"Feature",
"properties":{
"Name":"鴻巣北小学校",
"Jusho":"埼玉県鴻巣市神明3－8－0",
"Capacity":"－",
"la":"36.07204300000",
"ln":"139.50480400000"
},
"geometry":{
"type":"Point",
"coordinates":[
139.504804,
36.072043
]
}
},
{
"type":"Feature",
"properties":{
"Name":"小谷小学校",
"Jusho":"埼玉県鴻巣市小谷1890－",
"Capacity":"－",
"la":"36.08484500000",
"ln":"139.46453100000"
},
"geometry":{
"type":"Point",
"coordinates":[
139.464531,
36.084845
]
}
},
{
"type":"Feature",
"properties":{
"Name":"松原小学校",
"Jusho":"埼玉県鴻巣市原馬室2425",
"Capacity":"－",
"la":"36.03713000000",
"ln":"139.51966400000"
},
"geometry":{
"type":"Point",
"coordinates":[
139.519664,
36.03713
]
}
},
{
"type":"Feature",
"properties":{
"Name":"常光小学校",
"Jusho":"埼玉県鴻巣市下谷369",
"Capacity":"－",
"la":"36.05057400000",
"ln":"139.54805000000"
},
"geometry":{
"type":"Point",
"coordinates":[
139.54805,
36.050574
]
}
},
{
"type":"Feature",
"properties":{
"Name":"吹上小学校",
"Jusho":"埼玉県鴻巣市南1－0-5",
"Capacity":"－",
"la":"36.10175800000",
"ln":"139.45000300000"
},
"geometry":{
"type":"Point",
"coordinates":[
139.450003,
36.101758
]
}
},
{
"type":"Feature",
"properties":{
"Name":"赤見台第一小学校",
"Jusho":"埼玉県鴻巣市赤見台4－9－",
"Capacity":"－",
"la":"36.08284600000",
"ln":"139.48291800000"
},
"geometry":{
"type":"Point",
"coordinates":[
139.482918,
36.082846
]
}
},
{
"type":"Feature",
"properties":{
"Name":"赤見台第二小学校",
"Jusho":"埼玉県鴻巣市赤見台2-6－",
"Capacity":"－",
"la":"36.08940000000",
"ln":"139.47555700000"
},
"geometry":{
"type":"Point",
"coordinates":[
139.475557,
36.0894
]
}
},
{
"type":"Feature",
"properties":{
"Name":"大芦小学校",
"Jusho":"埼玉県鴻巣市大芦923－",
"Capacity":"－",
"la":"36.09459300000",
"ln":"139.45328100000"
},
"geometry":{
"type":"Point",
"coordinates":[
139.453281,
36.094593
]
}
},
{
"type":"Feature",
"properties":{
"Name":"田間宮小学校",
"Jusho":"埼玉県鴻巣市糠田2985",
"Capacity":"－",
"la":"36.06496000000",
"ln":"139.49102900000"
},
"geometry":{
"type":"Point",
"coordinates":[
139.491029,
36.06496
]
}
},
{
"type":"Feature",
"properties":{
"Name":"馬室小学校",
"Jusho":"埼玉県鴻巣市滝馬室555",
"Capacity":"－",
"la":"36.04354600000",
"ln":"139.50635900000"
},
"geometry":{
"type":"Point",
"coordinates":[
139.506359,
36.043546
]
}
},
{
"type":"Feature",
"properties":{
"Name":"箕田小学校",
"Jusho":"埼玉県鴻巣市箕田408",
"Capacity":"－",
"la":"36.07654100000",
"ln":"139.48255700000"
},
"geometry":{
"type":"Point",
"coordinates":[
139.482557,
36.076541
]
}
},
{
"type":"Feature",
"properties":{
"Name":"鴨川小学校",
"Jusho":"埼玉県上尾市西宮下4-400",
"Capacity":"270",
"la":"35.96336100000",
"ln":"139.58780100000"
},
"geometry":{
"type":"Point",
"coordinates":[
139.587801,
35.963361
]
}
},
{
"type":"Feature",
"properties":{
"Name":"瓦葺小学校",
"Jusho":"埼玉県上尾市瓦葺2260",
"Capacity":"340",
"la":"35.95939300000",
"ln":"139.64693400000"
},
"geometry":{
"type":"Point",
"coordinates":[
139.646934,
35.959393
]
}
},
{
"type":"Feature",
"properties":{
"Name":"原市小学校",
"Jusho":"埼玉県上尾市原市3508－",
"Capacity":"300",
"la":"35.96711200000",
"ln":"139.62507500000"
},
"geometry":{
"type":"Point",
"coordinates":[
139.625075,
35.967112
]
}
},
{
"type":"Feature",
"properties":{
"Name":"原市南小学校",
"Jusho":"埼玉県上尾市原市3990",
"Capacity":"310",
"la":"35.95950300000",
"ln":"139.63365800000"
},
"geometry":{
"type":"Point",
"coordinates":[
139.633658,
35.959503
]
}
},
{
"type":"Feature",
"properties":{
"Name":"今泉小学校",
"Jusho":"埼玉県上尾市今泉268",
"Capacity":"270",
"la":"35.96272300000",
"ln":"139.57080200000"
},
"geometry":{
"type":"Point",
"coordinates":[
139.570802,
35.962723
]
}
},
{
"type":"Feature",
"properties":{
"Name":"芝川小学校",
"Jusho":"埼玉県上尾市久保180",
"Capacity":"300",
"la":"35.98966400000",
"ln":"139.58377200000"
},
"geometry":{
"type":"Point",
"coordinates":[
139.583772,
35.989664
]
}
},
{
"type":"Feature",
"properties":{
"Name":"上尾小学校",
"Jusho":"埼玉県上尾市仲町1－1-46",
"Capacity":"310",
"la":"35.97280500000",
"ln":"139.59396600000"
},
"geometry":{
"type":"Point",
"coordinates":[
139.593966,
35.972805
]
}
},
{
"type":"Feature",
"properties":{
"Name":"上平小学校",
"Jusho":"埼玉県上尾市南102",
"Capacity":"270",
"la":"35.99619200000",
"ln":"139.58513300000"
},
"geometry":{
"type":"Point",
"coordinates":[
139.585133,
35.996192
]
}
},
{
"type":"Feature",
"properties":{
"Name":"上平北小学校",
"Jusho":"埼玉県上尾市南287",
"Capacity":"210",
"la":"36.00374700000",
"ln":"139.58707600000"
},
"geometry":{
"type":"Point",
"coordinates":[
139.587076,
36.003747
]
}
},
{
"type":"Feature",
"properties":{
"Name":"西小学校",
"Jusho":"埼玉県上尾市今泉1-7-2",
"Capacity":"280",
"la":"35.97027700000",
"ln":"139.57391300000"
},
"geometry":{
"type":"Point",
"coordinates":[
139.573913,
35.970277
]
}
},
{
"type":"Feature",
"properties":{
"Name":"大石小学校",
"Jusho":"埼玉県上尾市小泉745－",
"Capacity":"280",
"la":"35.97563800000",
"ln":"139.55941400000"
},
"geometry":{
"type":"Point",
"coordinates":[
139.559414,
35.975638
]
}
},
{
"type":"Feature",
"properties":{
"Name":"大石南小学校",
"Jusho":"埼玉県上尾市畔吉1333",
"Capacity":"280",
"la":"35.96902800000",
"ln":"139.55408100000"
},
"geometry":{
"type":"Point",
"coordinates":[
139.554081,
35.969028
]
}
},
{
"type":"Feature",
"properties":{
"Name":"大石北小学校",
"Jusho":"埼玉県上尾市井戸木4-23",
"Capacity":"270",
"la":"35.98560900000",
"ln":"139.56171900000"
},
"geometry":{
"type":"Point",
"coordinates":[
139.561719,
35.985609
]
}
},
{
"type":"Feature",
"properties":{
"Name":"大谷小学校",
"Jusho":"埼玉県上尾市大谷本郷528",
"Capacity":"280",
"la":"35.95530700000",
"ln":"139.58338500000"
},
"geometry":{
"type":"Point",
"coordinates":[
139.583385,
35.955307
]
}
},
{
"type":"Feature",
"properties":{
"Name":"中央小学校",
"Jusho":"埼玉県上尾市上町1－5-4",
"Capacity":"200",
"la":"35.97841500000",
"ln":"139.59060500000"
},
"geometry":{
"type":"Point",
"coordinates":[
139.590605,
35.978415
]
}
},
{
"type":"Feature",
"properties":{
"Name":"東小学校",
"Jusho":"埼玉県上尾市上尾村1171-2",
"Capacity":"280",
"la":"35.98558100000",
"ln":"139.59529900000"
},
"geometry":{
"type":"Point",
"coordinates":[
139.595299,
35.985581
]
}
},
{
"type":"Feature",
"properties":{
"Name":"東町小学校",
"Jusho":"埼玉県上尾市東町3－947",
"Capacity":"270",
"la":"35.97422100000",
"ln":"139.60566000000"
},
"geometry":{
"type":"Point",
"coordinates":[
139.60566,
35.974221
]
}
},
{
"type":"Feature",
"properties":{
"Name":"尾山台小学校",
"Jusho":"埼玉県上尾市瓦葺509－",
"Capacity":"270",
"la":"35.96283700000",
"ln":"139.63940700000"
},
"geometry":{
"type":"Point",
"coordinates":[
139.639407,
35.962837
]
}
},
{
"type":"Feature",
"properties":{
"Name":"富士見小学校",
"Jusho":"埼玉県上尾市柏座4-3-8",
"Capacity":"300",
"la":"35.97094400000",
"ln":"139.58038400000"
},
"geometry":{
"type":"Point",
"coordinates":[
139.580384,
35.970944
]
}
},
{
"type":"Feature",
"properties":{
"Name":"平方小学校",
"Jusho":"埼玉県上尾市平方1346－",
"Capacity":"220",
"la":"35.94708700000",
"ln":"139.55699800000"
},
"geometry":{
"type":"Point",
"coordinates":[
139.556998,
35.947087
]
}
},
{
"type":"Feature",
"properties":{
"Name":"平方東小学校",
"Jusho":"埼玉県上尾市平方4354-2",
"Capacity":"290",
"la":"35.95353000000",
"ln":"139.56419200000"
},
"geometry":{
"type":"Point",
"coordinates":[
139.564192,
35.95353
]
}
},
{
"type":"Feature",
"properties":{
"Name":"平方北小学校",
"Jusho":"埼玉県上尾市平方3657",
"Capacity":"260",
"la":"35.95711300000",
"ln":"139.55633100000"
},
"geometry":{
"type":"Point",
"coordinates":[
139.556331,
35.957113
]
}
},
{
"type":"Feature",
"properties":{
"Name":"稲荷小学校",
"Jusho":"埼玉県草加市稲荷5－1－",
"Capacity":"－",
"la":"35.83802500000",
"ln":"139.82147800000"
},
"geometry":{
"type":"Point",
"coordinates":[
139.821478,
35.838025
]
}
},
{
"type":"Feature",
"properties":{
"Name":"栄小学校",
"Jusho":"埼玉県草加市松原1-2-2",
"Capacity":"－",
"la":"35.84494000000",
"ln":"139.79792400000"
},
"geometry":{
"type":"Point",
"coordinates":[
139.797924,
35.84494
]
}
},
{
"type":"Feature",
"properties":{
"Name":"花栗南小学校",
"Jusho":"埼玉県草加市花栗4－5－2",
"Capacity":"－",
"la":"35.83794100000",
"ln":"139.79442500000"
},
"geometry":{
"type":"Point",
"coordinates":[
139.794425,
35.837941
]
}
},
{
"type":"Feature",
"properties":{
"Name":"高砂小学校",
"Jusho":"埼玉県草加市中央1-2-5",
"Capacity":"－",
"la":"35.82588800000",
"ln":"139.80820100000"
},
"geometry":{
"type":"Point",
"coordinates":[
139.808201,
35.825888
]
}
},
{
"type":"Feature",
"properties":{
"Name":"小山小学校",
"Jusho":"埼玉県草加市小山2-8－",
"Capacity":"－",
"la":"35.83713500000",
"ln":"139.77959300000"
},
"geometry":{
"type":"Point",
"coordinates":[
139.779593,
35.837135
]
}
},
{
"type":"Feature",
"properties":{
"Name":"松原小学校（旧北谷小学校）",
"Jusho":"埼玉県草加市松原4-2－",
"Capacity":"－",
"la":"35.84233800000",
"ln":"139.79117500000"
},
"geometry":{
"type":"Point",
"coordinates":[
139.791175,
35.842338
]
}
},
{
"type":"Feature",
"properties":{
"Name":"新栄小学校",
"Jusho":"埼玉県草加市新栄町959",
"Capacity":"－",
"la":"35.86154800000",
"ln":"139.76939900000"
},
"geometry":{
"type":"Point",
"coordinates":[
139.769399,
35.861548
]
}
},
{
"type":"Feature",
"properties":{
"Name":"新田小学校",
"Jusho":"埼玉県草加市旭町6－2－1",
"Capacity":"－",
"la":"35.85155000000",
"ln":"139.78975800000"
},
"geometry":{
"type":"Point",
"coordinates":[
139.789758,
35.85155
]
}
},
{
"type":"Feature",
"properties":{
"Name":"新里小学校",
"Jusho":"埼玉県草加市新里町759",
"Capacity":"－",
"la":"35.81819400000",
"ln":"139.78301000000"
},
"geometry":{
"type":"Point",
"coordinates":[
139.78301,
35.818194
]
}
},
{
"type":"Feature",
"properties":{
"Name":"瀬崎小学校",
"Jusho":"埼玉県草加市瀬崎2-32－",
"Capacity":"－",
"la":"35.81541800000",
"ln":"139.80625800000"
},
"geometry":{
"type":"Point",
"coordinates":[
139.806258,
35.815418
]
}
},
{
"type":"Feature",
"properties":{
"Name":"清門小学校",
"Jusho":"埼玉県草加市清門町552",
"Capacity":"－",
"la":"35.85391000000",
"ln":"139.77809200000"
},
"geometry":{
"type":"Point",
"coordinates":[
139.778092,
35.85391
]
}
},
{
"type":"Feature",
"properties":{
"Name":"西町小学校",
"Jusho":"埼玉県草加市西町270",
"Capacity":"－",
"la":"35.82835900000",
"ln":"139.79409100000"
},
"geometry":{
"type":"Point",
"coordinates":[
139.794091,
35.828359
]
}
},
{
"type":"Feature",
"properties":{
"Name":"青柳小学校",
"Jusho":"埼玉県草加市青柳3－7－",
"Capacity":"－",
"la":"35.84713500000",
"ln":"139.82589400000"
},
"geometry":{
"type":"Point",
"coordinates":[
139.825894,
35.847135
]
}
},
{
"type":"Feature",
"properties":{
"Name":"川柳小学校",
"Jusho":"埼玉県草加市青柳7-27－0",
"Capacity":"－",
"la":"35.85780000000",
"ln":"139.82106100000"
},
"geometry":{
"type":"Point",
"coordinates":[
139.821061,
35.8578
]
}
},
{
"type":"Feature",
"properties":{
"Name":"草加小学校",
"Jusho":"埼玉県草加市住吉1－1-64",
"Capacity":"－",
"la":"35.83208100000",
"ln":"139.80514600000"
},
"geometry":{
"type":"Point",
"coordinates":[
139.805146,
35.832081
]
}
},
{
"type":"Feature",
"properties":{
"Name":"谷塚小学校",
"Jusho":"埼玉県草加市谷塚仲町440",
"Capacity":"－",
"la":"35.81600000000",
"ln":"139.79503600000"
},
"geometry":{
"type":"Point",
"coordinates":[
139.795036,
35.816
]
}
},
{
"type":"Feature",
"properties":{
"Name":"長栄小学校",
"Jusho":"埼玉県草加市長栄町762",
"Capacity":"－",
"la":"35.85816000000",
"ln":"139.78420300000"
},
"geometry":{
"type":"Point",
"coordinates":[
139.784203,
35.85816
]
}
},
{
"type":"Feature",
"properties":{
"Name":"八幡小学校",
"Jusho":"埼玉県草加市八幡町65",
"Capacity":"－",
"la":"35.84885700000",
"ln":"139.81395000000"
},
"geometry":{
"type":"Point",
"coordinates":[
139.81395,
35.848857
]
}
},
{
"type":"Feature",
"properties":{
"Name":"八幡北小学校",
"Jusho":"埼玉県草加市八幡町1148",
"Capacity":"－",
"la":"35.85777200000",
"ln":"139.81206200000"
},
"geometry":{
"type":"Point",
"coordinates":[
139.812062,
35.857772
]
}
},
{
"type":"Feature",
"properties":{
"Name":"氷川小学校",
"Jusho":"埼玉県草加市氷川町448",
"Capacity":"－",
"la":"35.82083300000",
"ln":"139.79528600000"
},
"geometry":{
"type":"Point",
"coordinates":[
139.795286,
35.820833
]
}
},
{
"type":"Feature",
"properties":{
"Name":"両新田小学校",
"Jusho":"埼玉県草加市両新田西町55",
"Capacity":"－",
"la":"35.81086200000",
"ln":"139.78528700000"
},
"geometry":{
"type":"Point",
"coordinates":[
139.785287,
35.810862
]
}
},
{
"type":"Feature",
"properties":{
"Name":"越ヶ谷小学校",
"Jusho":"埼玉県越谷市中町1-41",
"Capacity":"－",
"la":"35.89190500000",
"ln":"139.78542400000"
},
"geometry":{
"type":"Point",
"coordinates":[
139.785424,
35.891905
]
}
},
{
"type":"Feature",
"properties":{
"Name":"荻島小学校",
"Jusho":"埼玉県越谷市南荻島902",
"Capacity":"－",
"la":"35.90579100000",
"ln":"139.76553600000"
},
"geometry":{
"type":"Point",
"coordinates":[
139.765536,
35.905791
]
}
},
{
"type":"Feature",
"properties":{
"Name":"花田小学校",
"Jusho":"埼玉県越谷市花田4－4－",
"Capacity":"－",
"la":"35.90526500000",
"ln":"139.80186600000"
},
"geometry":{
"type":"Point",
"coordinates":[
139.801866,
35.905265
]
}
},
{
"type":"Feature",
"properties":{
"Name":"蒲生小学校",
"Jusho":"埼玉県越谷市蒲生旭町1-84",
"Capacity":"－",
"la":"35.86954800000",
"ln":"139.79786800000"
},
"geometry":{
"type":"Point",
"coordinates":[
139.797868,
35.869548
]
}
},
{
"type":"Feature",
"properties":{
"Name":"蒲生第二小学校",
"Jusho":"埼玉県越谷市蒲生旭町1-75",
"Capacity":"－",
"la":"35.86882600000",
"ln":"139.79797900000"
},
"geometry":{
"type":"Point",
"coordinates":[
139.797979,
35.868826
]
}
},
{
"type":"Feature",
"properties":{
"Name":"蒲生南小学校",
"Jusho":"埼玉県越谷市南町1-8－",
"Capacity":"－",
"la":"35.86313200000",
"ln":"139.80545100000"
},