var o={
"type":"FeatureCollection",
"features":[
{
"type":"Feature",
"properties":{
"Name":"くぼた緑地",
"Jusho":"山形県山形市成沢西三丁目6の5",
"Capacity":"－",
"la":"38.20797767610",
"ln":"140.31543815700"
},
"geometry":{
"type":"Point",
"coordinates":[
140.315438157,
38.2079776761
]
}
},
{
"type":"Feature",
"properties":{
"Name":"霞城公民館",
"Jusho":"山形県山形市城西町二丁目2－5",
"Capacity":"－",
"la":"38.25429700000",
"ln":"140.32183100000"
},
"geometry":{
"type":"Point",
"coordinates":[
140.321831,
38.254297
]
}
},
{
"type":"Feature",
"properties":{
"Name":"金井コミュニティセンター（金井地区交流センター）",
"Jusho":"山形県山形市大字陣場903",
"Capacity":"－",
"la":"38.28236300000",
"ln":"140.30556300000"
},
"geometry":{
"type":"Point",
"coordinates":[
140.305563,
38.282363
]
}
},
{
"type":"Feature",
"properties":{
"Name":"県立山形工業高等学校",
"Jusho":"山形県山形市緑町一丁目5－2",
"Capacity":"－",
"la":"38.25878800000",
"ln":"140.34716700000"
},
"geometry":{
"type":"Point",
"coordinates":[
140.347167,
38.258788
]
}
},
{
"type":"Feature",
"properties":{
"Name":"県立山形西高等学校",
"Jusho":"山形県山形市鉄砲町一丁目15-64",
"Capacity":"－",
"la":"38.23767900000",
"ln":"140.32772500000"
},
"geometry":{
"type":"Point",
"coordinates":[
140.327725,
38.237679
]
}
},
{
"type":"Feature",
"properties":{
"Name":"県立山形中央高等学校",
"Jusho":"山形県山形市鉄砲町二丁目10-73",
"Capacity":"－",
"la":"38.23740100000",
"ln":"140.33439100000"
},
"geometry":{
"type":"Point",
"coordinates":[
140.334391,
38.237401
]
}
},
{
"type":"Feature",
"properties":{
"Name":"県立山形東高等学校",
"Jusho":"山形県山形市緑町一丁目5-87",
"Capacity":"－",
"la":"38.25767700000",
"ln":"140.34577900000"
},
"geometry":{
"type":"Point",
"coordinates":[
140.345779,
38.257677
]
}
},
{
"type":"Feature",
"properties":{
"Name":"県立山形南高等学校",
"Jusho":"山形県山形市東原町四丁目6－6",
"Capacity":"－",
"la":"38.24156800000",
"ln":"140.34605700000"
},
"geometry":{
"type":"Point",
"coordinates":[
140.346057,
38.241568
]
}
},
{
"type":"Feature",
"properties":{
"Name":"県立山形北高等学校",
"Jusho":"山形県山形市緑町二丁目2-7",
"Capacity":"－",
"la":"38.25378900000",
"ln":"140.34938900000"
},
"geometry":{
"type":"Point",
"coordinates":[
140.349389,
38.253789
]
}
},
{
"type":"Feature",
"properties":{
"Name":"元木公民館",
"Jusho":"山形県山形市元木三丁目4-8",
"Capacity":"－",
"la":"38.22263300000",
"ln":"140.31894600000"
},
"geometry":{
"type":"Point",
"coordinates":[
140.318946,
38.222633
]
}
},
{
"type":"Feature",
"properties":{
"Name":"江南公民館",
"Jusho":"山形県山形市江南一丁目1-27",
"Capacity":"－",
"la":"38.26832400000",
"ln":"140.32340000000"
},
"geometry":{
"type":"Point",
"coordinates":[
140.3234,
38.268324
]
}
},
{
"type":"Feature",
"properties":{
"Name":"江南体育館",
"Jusho":"山形県山形市江南一丁目1-27",
"Capacity":"－",
"la":"38.26841000000",
"ln":"140.32293700000"
},
"geometry":{
"type":"Point",
"coordinates":[
140.322937,
38.26841
]
}
},
{
"type":"Feature",
"properties":{
"Name":"高瀬コミュニティセンター",
"Jusho":"山形県山形市大字下東山1360",
"Capacity":"－",
"la":"38.29216068190",
"ln":"140.40281984100"
},
"geometry":{
"type":"Point",
"coordinates":[
140.402819841,
38.2921606819
]
}
},
{
"type":"Feature",
"properties":{
"Name":"山形広域クリーンセンター運動場",
"Jusho":"山形県山形市大字沼木字高野内486-3",
"Capacity":"－",
"la":"38.24225233500",
"ln":"140.28566299800"
},
"geometry":{
"type":"Point",
"coordinates":[
140.285662998,
38.242252335
]
}
},
{
"type":"Feature",
"properties":{
"Name":"山形大学",
"Jusho":"山形県山形市小白川町一丁目4－2",
"Capacity":"－",
"la":"38.24629000000",
"ln":"140.35077800000"
},
"geometry":{
"type":"Point",
"coordinates":[
140.350778,
38.24629
]
}
},
{
"type":"Feature",
"properties":{
"Name":"山寺コミュニティセンター（やまでら館）",
"Jusho":"山形県山形市大字山寺517－",
"Capacity":"－",
"la":"38.31240090750",
"ln":"140.42468334800"
},
"geometry":{
"type":"Point",
"coordinates":[
140.424683348,
38.3124009075
]
}
},
{
"type":"Feature",
"properties":{
"Name":"市陸上競技場",
"Jusho":"山形県山形市薬師町二丁目22-72",
"Capacity":"－",
"la":"38.26324984780",
"ln":"140.34640131900"
},
"geometry":{
"type":"Point",
"coordinates":[
140.346401319,
38.2632498478
]
}
},
{
"type":"Feature",
"properties":{
"Name":"出羽コミュニティセンター",
"Jusho":"山形県山形市大字千手堂404－",
"Capacity":"－",
"la":"38.31103091960",
"ln":"140.33928512800"
},
"geometry":{
"type":"Point",
"coordinates":[
140.339285128,
38.3110309196
]
}
},
{
"type":"Feature",
"properties":{
"Name":"楯山コミュニティセンター（たてやまなかま館）",
"Jusho":"山形県山形市大字風間1181－",
"Capacity":"－",
"la":"38.30057475190",
"ln":"140.36943887000"
},
"geometry":{
"type":"Point",
"coordinates":[
140.36943887,
38.3005747519
]
}
},
{
"type":"Feature",
"properties":{
"Name":"商業高等学校",
"Jusho":"山形県山形市あかねヶ丘一丁目9－",
"Capacity":"－",
"la":"38.25045500000",
"ln":"140.31189300000"
},
"geometry":{
"type":"Point",
"coordinates":[
140.311893,
38.250455
]
}
},
{
"type":"Feature",
"properties":{
"Name":"西山形コミュニティセンター",
"Jusho":"山形県山形市大字柏倉3800",
"Capacity":"－",
"la":"38.23579358430",
"ln":"140.26992885500"
},
"geometry":{
"type":"Point",
"coordinates":[
140.269928855,
38.2357935843
]
}
},
{
"type":"Feature",
"properties":{
"Name":"西部運動広場",
"Jusho":"山形県山形市大字沼木字新田948",
"Capacity":"－",
"la":"38.24696000000",
"ln":"140.28777100000"
},
"geometry":{
"type":"Point",
"coordinates":[
140.287771,
38.24696
]
}
},
{
"type":"Feature",
"properties":{
"Name":"西部公民館",
"Jusho":"山形県山形市篭田一丁目2-23",
"Capacity":"－",
"la":"38.24117000000",
"ln":"140.32103400000"
},
"geometry":{
"type":"Point",
"coordinates":[
140.321034,
38.24117
]
}
},
{
"type":"Feature",
"properties":{
"Name":"千歳コミュニティセンター",
"Jusho":"山形県山形市落合町1087－",
"Capacity":"－",
"la":"38.28744098360",
"ln":"140.34379449300"
},
"geometry":{
"type":"Point",
"coordinates":[
140.343794493,
38.2874409836
]
}
},
{
"type":"Feature",
"properties":{
"Name":"蔵王コミュニティセンター",
"Jusho":"山形県山形市蔵王半郷1028",
"Capacity":"－",
"la":"38.19312475220",
"ln":"140.31907707200"
},
"geometry":{
"type":"Point",
"coordinates":[
140.319077072,
38.1931247522
]
}
},
{
"type":"Feature",
"properties":{
"Name":"蔵王体育館",
"Jusho":"山形県山形市蔵王温泉字上の台103",
"Capacity":"－",
"la":"38.16964000000",
"ln":"140.39532600000"
},
"geometry":{
"type":"Point",
"coordinates":[
140.395326,
38.16964
]
}
},
{
"type":"Feature",
"properties":{
"Name":"村木沢コミュニティセンター（あじさい交流館）",
"Jusho":"山形県山形市大字村木沢1672－",
"Capacity":"－",
"la":"38.25072600000",
"ln":"140.26639800000"
},
"geometry":{
"type":"Point",
"coordinates":[
140.266398,
38.250726
]
}
},
{
"type":"Feature",
"properties":{
"Name":"大郷コミュニティセンター",
"Jusho":"山形県山形市大字中野543",
"Capacity":"－",
"la":"38.30738653980",
"ln":"140.30647150700"
},
"geometry":{
"type":"Point",
"coordinates":[
140.306471507,
38.3073865398
]
}
},
{
"type":"Feature",
"properties":{
"Name":"大曽根コミュニティセンター",
"Jusho":"山形県山形市大字上反田811-2",
"Capacity":"－",
"la":"38.26939098110",
"ln":"140.25633400000"
},
"geometry":{
"type":"Point",
"coordinates":[
140.256334,
38.2693909811
]
}
},
{
"type":"Feature",
"properties":{
"Name":"滝山コミュニティセンター（滝山交流センター）",
"Jusho":"山形県山形市上桜田一丁目17-26",
"Capacity":"－",
"la":"38.22153401800",
"ln":"140.34049200000"
},
"geometry":{
"type":"Point",
"coordinates":[
140.340492,
38.221534018
]
}
},
{
"type":"Feature",
"properties":{
"Name":"鋳物町運動広場",
"Jusho":"山形県山形市鋳物町24",
"Capacity":"－",
"la":"38.23241001210",
"ln":"140.28866685300"
},
"geometry":{
"type":"Point",
"coordinates":[
140.288666853,
38.2324100121
]
}
},
{
"type":"Feature",
"properties":{
"Name":"東沢コミュニティセンター（マジャーレがんど）",
"Jusho":"山形県山形市大字妙見寺4",
"Capacity":"－",
"la":"38.24081254460",
"ln":"140.38148591100"
},
"geometry":{
"type":"Point",
"coordinates":[
140.381485911,
38.2408125446
]
}
},
{
"type":"Feature",
"properties":{
"Name":"東部公民館",
"Jusho":"山形県山形市小白川町二丁目3-47",
"Capacity":"－",
"la":"38.24945900000",
"ln":"140.35169000000"
},
"geometry":{
"type":"Point",
"coordinates":[
140.35169,
38.249459
]
}
},
{
"type":"Feature",
"properties":{
"Name":"南山形コミュニティセンター",
"Jusho":"山形県山形市大字松原203－",
"Capacity":"－",
"la":"38.19992560470",
"ln":"140.30588965200"
},
"geometry":{
"type":"Point",
"coordinates":[
140.305889652,
38.1999256047
]
}
},
{
"type":"Feature",
"properties":{
"Name":"南沼原コミュニティセンター",
"Jusho":"山形県山形市南館西19－1",
"Capacity":"－",
"la":"38.23635266890",
"ln":"140.30031156500"
},
"geometry":{
"type":"Point",
"coordinates":[
140.300311565,
38.2363526689
]
}
},
{
"type":"Feature",
"properties":{
"Name":"南部公民館",
"Jusho":"山形県山形市小荷駄町7－10",
"Capacity":"－",
"la":"38.24032300000",
"ln":"140.34079500000"
},
"geometry":{
"type":"Point",
"coordinates":[
140.340795,
38.240323
]
}
},
{
"type":"Feature",
"properties":{
"Name":"南部体育館",
"Jusho":"山形県山形市小荷駄町7－10",
"Capacity":"－",
"la":"38.24046612980",
"ln":"140.34099646400"
},
"geometry":{
"type":"Point",
"coordinates":[
140.340996464,
38.2404661298
]
}
},
{
"type":"Feature",
"properties":{
"Name":"飯塚コミュニティセンター",
"Jusho":"山形県山形市横道7",
"Capacity":"－",
"la":"38.25623066810",
"ln":"140.29444566600"
},
"geometry":{
"type":"Point",
"coordinates":[
140.294445666,
38.2562306681
]
}
},
{
"type":"Feature",
"properties":{
"Name":"福祉体育館",
"Jusho":"山形県山形市小白川町二丁目3-33",
"Capacity":"－",
"la":"38.25000300000",
"ln":"140.35164500000"
},
"geometry":{
"type":"Point",
"coordinates":[
140.351645,
38.250003
]
}
},
{
"type":"Feature",
"properties":{
"Name":"北部公民館",
"Jusho":"山形県山形市宮町四丁目17－3",
"Capacity":"－",
"la":"38.26761800000",
"ln":"140.34116000000"
},
"geometry":{
"type":"Point",
"coordinates":[
140.34116,
38.267618
]
}
},
{
"type":"Feature",
"properties":{
"Name":"本沢コミュニティセンター",
"Jusho":"山形県山形市大字長谷堂1070－",
"Capacity":"－",
"la":"38.21702835300",
"ln":"140.27894605700"
},
"geometry":{
"type":"Point",
"coordinates":[
140.278946057,
38.217028353
]
}
},
{
"type":"Feature",
"properties":{
"Name":"明治コミュニティセンター",
"Jusho":"山形県山形市大字渋江979",
"Capacity":"－",
"la":"38.32555400000",
"ln":"140.31938600000"
},
"geometry":{
"type":"Point",
"coordinates":[
140.319386,
38.325554
]
}
},
{
"type":"Feature",
"properties":{
"Name":"立谷川運動広場",
"Jusho":"山形県山形市立谷川二丁目959",
"Capacity":"－",
"la":"38.31273542470",
"ln":"140.37703093400"
},
"geometry":{
"type":"Point",
"coordinates":[
140.377030934,
38.3127354247
]
}
},
{
"type":"Feature",
"properties":{
"Name":"流通センター野球場",
"Jusho":"山形県山形市流通センタ-二丁目1",
"Capacity":"－",
"la":"38.28921000000",
"ln":"140.35360600000"
},
"geometry":{
"type":"Point",
"coordinates":[
140.353606,
38.28921
]
}
},
{
"type":"Feature",
"properties":{
"Name":"鈴川コミュニティセンター（鈴川ふれあい館）",
"Jusho":"山形県山形市山家町二丁目4-48",
"Capacity":"－",
"la":"38.26522885830",
"ln":"140.36108289700"
},
"geometry":{
"type":"Point",
"coordinates":[
140.361082897,
38.2652288583
]
}
},
{
"type":"Feature",
"properties":{
"Name":"椹沢コミュニティセンター",
"Jusho":"山形県山形市金石田8-2",
"Capacity":"－",
"la":"38.26720228500",
"ln":"140.29219881100"
},
"geometry":{
"type":"Point",
"coordinates":[
140.292198811,
38.267202285
]
}
},
{
"type":"Feature",
"properties":{
"Name":"アクティ－米沢",
"Jusho":"山形県米沢市西大通1-5-5",
"Capacity":"－",
"la":"37.91808199910",
"ln":"140.10102200000"
},
"geometry":{
"type":"Point",
"coordinates":[
140.101022,
37.9180819991
]
}
},
{
"type":"Feature",
"properties":{
"Name":"すこやかセンター",
"Jusho":"山形県米沢市西大通1-5-60",
"Capacity":"－",
"la":"37.91779000000",
"ln":"140.10014200000"
},
"geometry":{
"type":"Point",
"coordinates":[
140.100142,
37.91779
]
}
},
{
"type":"Feature",
"properties":{
"Name":"びっき石児童遊園地",
"Jusho":"山形県米沢市万世町桑山1427",
"Capacity":"－",
"la":"37.89530900000",
"ln":"140.14787400000"
},
"geometry":{
"type":"Point",
"coordinates":[
140.147874,
37.895309
]
}
},
{
"type":"Feature",
"properties":{
"Name":"愛宕コミュニティセンター",
"Jusho":"山形県米沢市古志田町76-3",
"Capacity":"－",
"la":"37.89826100000",
"ln":"140.08991600000"
},
"geometry":{
"type":"Point",
"coordinates":[
140.089916,
37.898261
]
}
},
{
"type":"Feature",
"properties":{
"Name":"塩井コミュニティセンター",
"Jusho":"山形県米沢市塩井町塩野2068－",
"Capacity":"－",
"la":"37.93604900000",
"ln":"140.10036000000"
},
"geometry":{
"type":"Point",
"coordinates":[
140.10036,
37.936049
]
}
},
{
"type":"Feature",
"properties":{
"Name":"塩井町児童遊園",
"Jusho":"山形県米沢市塩井町塩野2300－",
"Capacity":"－",
"la":"37.92955873610",
"ln":"140.10064906100"
},
"geometry":{
"type":"Point",
"coordinates":[
140.100649061,
37.9295587361
]
}
},
{
"type":"Feature",
"properties":{
"Name":"九里学園高校",
"Jusho":"山形県米沢市門東町1－-72",
"Capacity":"－",
"la":"37.90770800000",
"ln":"140.10998300000"
},
"geometry":{
"type":"Point",
"coordinates":[
140.109983,
37.907708
]
}
},
{
"type":"Feature",
"properties":{
"Name":"窪田コミュニティセンター",
"Jusho":"山形県米沢市窪田町窪田598-2",
"Capacity":"－",
"la":"37.95780300000",
"ln":"140.12436600000"
},
"geometry":{
"type":"Point",
"coordinates":[
140.124366,
37.957803
]
}
},
{
"type":"Feature",
"properties":{
"Name":"窪田児童遊園",
"Jusho":"山形県米沢市窪田町窪田字八郎2700－",
"Capacity":"－",
"la":"37.96217400000",
"ln":"140.12814300000"
},
"geometry":{
"type":"Point",
"coordinates":[
140.128143,
37.962174
]
}
},
{
"type":"Feature",
"properties":{
"Name":"敬師児童遊園",
"Jusho":"山形県米沢市大字関根13922－",
"Capacity":"－",
"la":"37.86426900000",
"ln":"140.14256500000"
},
"geometry":{
"type":"Point",
"coordinates":[
140.142565,
37.864269
]
}
},
{
"type":"Feature",
"properties":{
"Name":"御廟児童遊園",
"Jusho":"山形県米沢市御廟1－859",
"Capacity":"－",
"la":"37.91367900000",
"ln":"140.09070600000"
},
"geometry":{
"type":"Point",
"coordinates":[
140.090706,
37.913679
]
}
},
{
"type":"Feature",
"properties":{
"Name":"広幡コミュニティセンター",
"Jusho":"山形県米沢市広幡町上小菅1394-7",
"Capacity":"－",
"la":"37.94749100000",
"ln":"140.06954300000"
},
"geometry":{
"type":"Point",
"coordinates":[
140.069543,
37.947491
]
}
},
{
"type":"Feature",
"properties":{
"Name":"笹野民芸館",
"Jusho":"山形県米沢市笹野本町5208-2",
"Capacity":"－",
"la":"37.88003974470",
"ln":"140.09919455800"
},
"geometry":{
"type":"Point",
"coordinates":[
140.099194558,
37.8800397447
]
}
},
{
"type":"Feature",
"properties":{
"Name":"三沢コミュニティセンター",
"Jusho":"山形県米沢市大字簗沢1776－",
"Capacity":"－",
"la":"37.88755300000",
"ln":"140.04915600000"
},
"geometry":{
"type":"Point",
"coordinates":[
140.049156,
37.887553
]
}
},
{
"type":"Feature",
"properties":{
"Name":"三沢東部山梨沢分校",
"Jusho":"山形県米沢市大字簗沢6345",
"Capacity":"－",
"la":"37.86937599910",
"ln":"140.02832500000"
},
"geometry":{
"type":"Point",
"coordinates":[
140.028325,
37.8693759991
]
}
},
{
"type":"Feature",
"properties":{
"Name":"山形大学工学部",
"Jusho":"山形県米沢市城南4-3－6、太田町4",
"Capacity":"－",
"la":"37.90020800000",
"ln":"140.10470600000"
},
"geometry":{
"type":"Point",
"coordinates":[
140.104706,
37.900208
]
}
},
{
"type":"Feature",
"properties":{
"Name":"山上コミュニティセンター",
"Jusho":"山形県米沢市大字関根480",
"Capacity":"－",
"la":"37.86817800000",
"ln":"140.14364800000"
},
"geometry":{
"type":"Point",
"coordinates":[
140.143648,
37.868178
]
}
},
{
"type":"Feature",
"properties":{
"Name":"市営体育館",
"Jusho":"山形県米沢市金池3－-62",
"Capacity":"－",
"la":"37.92070400000",
"ln":"140.11647600000"
},
"geometry":{
"type":"Point",
"coordinates":[
140.116476,
37.920704
]
}
},
{
"type":"Feature",
"properties":{
"Name":"児童会館",
"Jusho":"山形県米沢市丸の内1-3-47",
"Capacity":"－",
"la":"37.90783241810",
"ln":"140.10412965200"
},
"geometry":{
"type":"Point",
"coordinates":[
140.104129652,
37.9078324181
]
}
},
{
"type":"Feature",
"properties":{
"Name":"小野川町児童遊園",
"Jusho":"山形県米沢市小野川町2566-2",
"Capacity":"－",
"la":"37.88090400010",
"ln":"140.05333488400"
},
"geometry":{
"type":"Point",
"coordinates":[
140.053334884,
37.8809040001
]
}
},
{
"type":"Feature",
"properties":{
"Name":"松川コミュニティセンター",
"Jusho":"山形県米沢市通町6－4-25",
"Capacity":"－",
"la":"37.89200325420",
"ln":"140.12456021700"
},
"geometry":{
"type":"Point",
"coordinates":[
140.124560217,
37.8920032542
]
}
},
{
"type":"Feature",
"properties":{
"Name":"上郷コミュニティセンター",
"Jusho":"山形県米沢市大字川井3869",
"Capacity":"－",
"la":"37.92666800000",
"ln":"140.14456800000"
},
"geometry":{
"type":"Point",
"coordinates":[
140.144568,
37.926668
]
}
},
{
"type":"Feature",
"properties":{
"Name":"成島児童遊園成島ワクワクランド",
"Jusho":"山形県米沢市広幡町成島字窪平山2107",
"Capacity":"－",
"la":"37.93367600000",
"ln":"140.07704000000"
},
"geometry":{
"type":"Point",
"coordinates":[
140.07704,
37.933676
]
}
},
{
"type":"Feature",
"properties":{
"Name":"西部コミュニティセンター",
"Jusho":"山形県米沢市直江町5-9",
"Capacity":"－",
"la":"37.91596800000",
"ln":"140.08981800000"
},
"geometry":{
"type":"Point",
"coordinates":[
140.089818,
37.915968
]
}
},
{
"type":"Feature",
"properties":{
"Name":"赤芝児童遊園",
"Jusho":"山形県米沢市赤芝町字堂下101",
"Capacity":"－",
"la":"37.90084600000",
"ln":"140.06037700000"
},
"geometry":{
"type":"Point",
"coordinates":[
140.060377,
37.900846
]
}
},
{
"type":"Feature",
"properties":{
"Name":"川井児童遊園",
"Jusho":"山形県米沢市大字川井谷地55",
"Capacity":"－",
"la":"37.92279000000",
"ln":"140.14475600000"
},
"geometry":{
"type":"Point",
"coordinates":[
140.144756,
37.92279
]
}
},
{
"type":"Feature",
"properties":{
"Name":"置賜総合文化センター",
"Jusho":"山形県米沢市金池3－－4",
"Capacity":"－",
"la":"37.92004400000",
"ln":"140.11665100000"
},
"geometry":{
"type":"Point",
"coordinates":[
140.116651,
37.920044
]
}
},
{
"type":"Feature",
"properties":{
"Name":"中央児童遊園",
"Jusho":"山形県米沢市中央4-3360-9",
"Capacity":"－",
"la":"37.91703700000",
"ln":"140.10864100000"
},
"geometry":{
"type":"Point",
"coordinates":[
140.108641,
37.917037
]
}
},
{
"type":"Feature",
"properties":{
"Name":"中部コミュニティセンター",
"Jusho":"山形県米沢市丸の内2－-35",
"Capacity":"－",
"la":"37.91212400000",
"ln":"140.10774100000"
},
"geometry":{
"type":"Point",
"coordinates":[
140.107741,
37.912124
]
}
},
{
"type":"Feature",
"properties":{
"Name":"通町児童遊園",
"Jusho":"山形県米沢市通町5-2378－",
"Capacity":"－",
"la":"37.89312700000",
"ln":"140.13028700000"
},
"geometry":{
"type":"Point",
"coordinates":[
140.130287,
37.893127
]
}
},
{
"type":"Feature",
"properties":{
"Name":"田沢コミュニティセンター",
"Jusho":"山形県米沢市大字口田沢2375－",
"Capacity":"－",
"la":"37.89950200000",
"ln":"140.02259200000"
},
"geometry":{
"type":"Point",
"coordinates":[
140.022592,
37.899502
]
}
},
{
"type":"Feature",
"properties":{
"Name":"東部コミュニティセンター",
"Jusho":"山形県米沢市花沢町1-2-38-6",
"Capacity":"－",
"la":"37.91551300000",
"ln":"140.12451700000"
},
"geometry":{
"type":"Point",
"coordinates":[
140.124517,
37.915513
]
}
},
{
"type":"Feature",
"properties":{
"Name":"南原コミュニティセンター",
"Jusho":"山形県米沢市大字南原猪苗代町2910-2",
"Capacity":"－",
"la":"37.87224500000",
"ln":"140.10438800000"
},
"geometry":{
"type":"Point",
"coordinates":[
140.104388,
37.872245
]
}
},
{
"type":"Feature",
"properties":{
"Name":"南原コミュニティセンター関分館",
"Jusho":"山形県米沢市大字関402-6",
"Capacity":"－",
"la":"37.83978100000",
"ln":"140.09199100000"
},
"geometry":{
"type":"Point",
"coordinates":[
140.091991,
37.839781
]
}
},
{
"type":"Feature",
"properties":{
"Name":"南部コミュニティセンター",
"Jusho":"山形県米沢市本町2-4-28",
"Capacity":"－",
"la":"37.90264800000",
"ln":"140.10912200000"
},
"geometry":{
"type":"Point",
"coordinates":[
140.109122,
37.902648
]
}
},
{
"type":"Feature",
"properties":{
"Name":"日の出町児童遊園",
"Jusho":"山形県米沢市東大通2-9102－",
"Capacity":"－",
"la":"37.89333200000",
"ln":"140.13566300000"
},
"geometry":{
"type":"Point",
"coordinates":[
140.135663,
37.893332
]
}
},
{
"type":"Feature",
"properties":{
"Name":"米沢興譲館高校",
"Jusho":"山形県米沢市大字笹野1101",
"Capacity":"－",
"la":"37.88548799910",
"ln":"140.10831700000"
},
"geometry":{
"type":"Point",
"coordinates":[
140.108317,
37.8854879991
]
}
},
{
"type":"Feature",
"properties":{
"Name":"米沢工業高校",
"Jusho":"山形県米沢市大字川井300",
"Capacity":"－",
"la":"37.91798500000",
"ln":"140.14442300000"
},
"geometry":{
"type":"Point",
"coordinates":[
140.144423,
37.917985
]
}
},
{
"type":"Feature",
"properties":{
"Name":"米沢女子短期大学",
"Jusho":"山形県米沢市通町6－5－",
"Capacity":"－",
"la":"37.89076600000",
"ln":"140.12331600000"
},
"geometry":{
"type":"Point",
"coordinates":[
140.123316,
37.890766
]
}
},
{
"type":"Feature",
"properties":{
"Name":"米沢商業高校",
"Jusho":"山形県米沢市本町3－－2",
"Capacity":"－",
"la":"37.90187500000",
"ln":"140.11331600000"
},
"geometry":{
"type":"Point",
"coordinates":[
140.113316,
37.901875
]
}
},
{
"type":"Feature",
"properties":{
"Name":"米沢中央高校",
"Jusho":"山形県米沢市中央7-5-70-4",
"Capacity":"－",
"la":"37.92242800000",
"ln":"140.10581500000"
},
"geometry":{
"type":"Point",
"coordinates":[
140.105815,
37.922428
]
}
},
{
"type":"Feature",
"properties":{
"Name":"米沢東高校",
"Jusho":"山形県米沢市丸の内2-5-63",
"Capacity":"－",
"la":"37.91242900000",
"ln":"140.10470500000"
},
"geometry":{
"type":"Point",
"coordinates":[
140.104705,
37.912429
]
}
},
{
"type":"Feature",
"properties":{
"Name":"米沢養護学校",
"Jusho":"山形県米沢市太田町4－－02",
"Capacity":"－",
"la":"37.89298700000",
"ln":"140.10970600000"
},
"geometry":{
"type":"Point",
"coordinates":[
140.109706,
37.892987
]
}
},
{
"type":"Feature",
"properties":{
"Name":"片子児童遊園",
"Jusho":"山形県米沢市万世町片子前川原5466",
"Capacity":"－",
"la":"37.89637600000",
"ln":"140.14098000000"
},
"geometry":{
"type":"Point",
"coordinates":[
140.14098,
37.896376
]
}
},
{
"type":"Feature",
"properties":{
"Name":"北部コミュニティセンター",
"Jusho":"山形県米沢市中央6－-21",
"Capacity":"－",
"la":"37.91785100000",
"ln":"140.10563800000"
},
"geometry":{
"type":"Point",
"coordinates":[
140.105638,
37.917851
]
}
},
{
"type":"Feature",
"properties":{
"Name":"北部集会所",
"Jusho":"山形県米沢市徳町2-72",
"Capacity":"－",
"la":"37.92377488050",
"ln":"140.10279907200"
},
"geometry":{
"type":"Point",
"coordinates":[
140.102799072,
37.9237748805
]
}
},
{
"type":"Feature",
"properties":{
"Name":"万世コミュニティセンター",
"Jusho":"山形県米沢市八幡原5-4149-9",
"Capacity":"－",
"la":"37.90378800000",
"ln":"140.16550100000"
},
"geometry":{
"type":"Point",
"coordinates":[
140.165501,
37.903788
]
}
},
{
"type":"Feature",
"properties":{
"Name":"六郷コミュニティセンター",
"Jusho":"山形県米沢市六郷町一漆68-2",
"Capacity":"－",
"la":"37.96403700000",
"ln":"140.09066200000"
},
"geometry":{
"type":"Point",
"coordinates":[
140.090662,
37.964037
]
}
},
{
"type":"Feature",
"properties":{
"Name":"六郷町西藤泉児童遊園",
"Jusho":"山形県米沢市六郷町西藤泉1376－",
"Capacity":"－",
"la":"37.94600700000",
"ln":"140.09498100000"
},
"geometry":{
"type":"Point",
"coordinates":[
140.094981,
37.946007
]
}
},
{
"type":"Feature",
"properties":{
"Name":"県立加茂水産高等学校",
"Jusho":"山形県鶴岡市加茂字大崩595",
"Capacity":"－",
"la":"38.76288200000",
"ln":"139.72970400000"
},
"geometry":{
"type":"Point",
"coordinates":[
139.729704,
38.762882
]
}
},
{
"type":"Feature",
"properties":{
"Name":"あつみ温泉駅広場",
"Jusho":"山形県鶴岡市温海戌446-2",
"Capacity":"－",
"la":"38.62431330830",
"ln":"139.58769339100"
},
"geometry":{
"type":"Point",
"coordinates":[
139.587693391,
38.6243133083
]
}
},
{
"type":"Feature",
"properties":{
"Name":"いずみ保育園",
"Jusho":"山形県鶴岡市羽黒町市野山字山王林11",
"Capacity":"298",
"la":"38.71566800000",
"ln":"139.92372500000"
},
"geometry":{
"type":"Point",
"coordinates":[
139.923725,
38.715668
]
}
},
{
"type":"Feature",
"properties":{
"Name":"いでは文化記念館",
"Jusho":"山形県鶴岡市羽黒町手向字院主南72",
"Capacity":"884",
"la":"38.70428300000",
"ln":"139.96440800000"
},
"geometry":{
"type":"Point",
"coordinates":[
139.964408,
38.704283
]
}
},
{
"type":"Feature",
"properties":{
"Name":"かもめ保育園",
"Jusho":"山形県鶴岡市大岩川字沢山509-3",
"Capacity":"116",
"la":"38.60339600000",
"ln":"139.57338400000"
},
"geometry":{
"type":"Point",
"coordinates":[
139.573384,
38.603396
]
}
},
{
"type":"Feature",
"properties":{
"Name":"たらのき代分校グラウンド跡地",
"Jusho":"山形県鶴岡市たらのき代字西野834",
"Capacity":"4750",
"la":"38.65477039650",
"ln":"139.91538794200"
},
"geometry":{
"type":"Point",
"coordinates":[
139.915387942,
38.6547703965
]
}
},
{
"type":"Feature",
"properties":{
"Name":"マリーンパークねずがせき",
"Jusho":"山形県鶴岡市鼠ヶ関字原海150",
"Capacity":"2650",
"la":"38.55558391690",
"ln":"139.54547251500"
},
"geometry":{
"type":"Point",
"coordinates":[
139.545472515,
38.5555839169
]
}
},
{
"type":"Feature",
"properties":{
"Name":"やまぶし温泉・ゆぽか",
"Jusho":"山形県鶴岡市羽黒町後田字谷地堰188",
"Capacity":"－",
"la":"38.71536670970",
"ln":"139.88206485500"
},
"geometry":{
"type":"Point",
"coordinates":[
139.882064855,
38.7153667097
]
}
},
{
"type":"Feature",
"properties":{
"Name":"安土構造改善センター",
"Jusho":"山形県鶴岡市五十川字安土46－",
"Capacity":"46",
"la":"38.66774072110",
"ln":"139.63368923200"
},
"geometry":{
"type":"Point",
"coordinates":[
139.633689232,
38.6677407211
]
}
},
{
"type":"Feature",
"properties":{
"Name":"一霞公民館",
"Jusho":"山形県鶴岡市一霞字宮之前68",
"Capacity":"96",
"la":"38.59991512950",
"ln":"139.64692375400"
},
"geometry":{
"type":"Point",
"coordinates":[
139.646923754,
38.5999151295
]
}
},
{
"type":"Feature",
"properties":{
"Name":"羽黒コミュニティセンター",
"Jusho":"山形県鶴岡市羽黒町荒川字谷地堰28",
"Capacity":"464",
"la":"38.71736400000",
"ln":"139.90034700000"
},
"geometry":{
"type":"Point",
"coordinates":[
139.900347,
38.717364
]
}
},
{
"type":"Feature",
"properties":{
"Name":"羽黒西部児童館",
"Jusho":"山形県鶴岡市羽黒町三ツ橋字向田57",
"Capacity":"170",
"la":"38.72829200000",
"ln":"139.86298400000"
},
"geometry":{
"type":"Point",
"coordinates":[
139.862984,
38.728292
]
}
},
{
"type":"Feature",
"properties":{
"Name":"羽黒体育センター",
"Jusho":"山形県鶴岡市羽黒町荒川字前田元67-2",
"Capacity":"254",
"la":"38.71889094100",
"ln":"139.90262671100"
},
"geometry":{
"type":"Point",
"coordinates":[
139.902626711,
38.718890941
]
}
},
{
"type":"Feature",
"properties":{
"Name":"羽黒体育館",
"Jusho":"山形県鶴岡市羽黒町荒川字谷地堰29－",
"Capacity":"1253",
"la":"38.71730800000",
"ln":"139.89956900000"
},
"geometry":{
"type":"Point",
"coordinates":[
139.899569,
38.717308
]
}
},
{
"type":"Feature",
"properties":{
"Name":"羽黒第四小地区公民館",
"Jusho":"山形県鶴岡市羽黒町上野新田字段之松67",
"Capacity":"53",
"la":"38.67751000000",
"ln":"139.91484500000"
},
"geometry":{
"type":"Point",
"coordinates":[
139.914845,
38.67751
]
}
},
{
"type":"Feature",
"properties":{
"Name":"羽黒農村センター",
"Jusho":"山形県鶴岡市羽黒町荒川字谷地堰11－",
"Capacity":"239",
"la":"38.71580242000",
"ln":"139.90073847700"
},
"geometry":{
"type":"Point",
"coordinates":[
139.900738477,
38.71580242
]
}
},
{
"type":"Feature",
"properties":{
"Name":"羽黒老人福祉センター",
"Jusho":"山形県鶴岡市羽黒町荒川字白山56－",
"Capacity":"239",
"la":"38.71550999910",
"ln":"139.90051600000"
},
"geometry":{
"type":"Point",
"coordinates":[
139.900516,
38.7155099991
]
}
},
{
"type":"Feature",
"properties":{
"Name":"栄コミュニティ防災センター",
"Jusho":"山形県鶴岡市播磨字若松95－",
"Capacity":"124",
"la":"38.77178900000",
"ln":"139.82399600000"
},
"geometry":{
"type":"Point",
"coordinates":[
139.823996,
38.771789
]
}
},
{
"type":"Feature",
"properties":{
"Name":"永寂寺境内",
"Jusho":"山形県鶴岡市",
"Capacity":"－",
"la":"38.62815350550",
"ln":"139.59075679600"
},
"geometry":{
"type":"Point",
"coordinates":[
139.590756796,
38.6281535055
]
}
},
{
"type":"Feature",
"properties":{
"Name":"益美荘坂",
"Jusho":"山形県鶴岡市",
"Capacity":"－",
"la":"38.71616617790",
"ln":"139.67760537700"
},
"geometry":{
"type":"Point",
"coordinates":[
139.677605377,
38.7161661779
]
}
},
{
"type":"Feature",
"properties":{
"Name":"越沢基幹集落センター",
"Jusho":"山形県鶴岡市越沢字越沢45",
"Capacity":"177",
"la":"38.54650600000",
"ln":"139.69024200000"
},
"geometry":{
"type":"Point",
"coordinates":[
139.690242,
38.546506
]
}
},
{
"type":"Feature",
"properties":{
"Name":"越中山公民館",
"Jusho":"山形県鶴岡市越中山字村田66-67",
"Capacity":"45",
"la":"38.61000621030",
"ln":"139.85228360800"
},
"geometry":{
"type":"Point",
"coordinates":[
139.852283608,
38.6100062103
]
}
},
{
"type":"Feature",
"properties":{
"Name":"黄金コミュニティ防災センター",
"Jusho":"山形県鶴岡市青龍寺字北内109",
"Capacity":"162",
"la":"38.69127400000",
"ln":"139.81529200000"
},
"geometry":{
"type":"Point",
"coordinates":[
139.815292,
38.691274
]
}
},
{
"type":"Feature",
"properties":{
"Name":"沖田公民館",
"Jusho":"山形県鶴岡市東岩本字沖田71",
"Capacity":"41",
"la":"38.63121536750",
"ln":"139.85358281100"
},
"geometry":{
"type":"Point",
"coordinates":[
139.853582811,
38.6312153675
]
}
},
{
"type":"Feature",
"properties":{
"Name":"温海児童館",
"Jusho":"山形県鶴岡市大字温海戊315",
"Capacity":"－",
"la":"38.62856000000",
"ln":"139.59054900000"
},
"geometry":{
"type":"Point",
"coordinates":[
139.590549,
38.62856
]
}
},
{
"type":"Feature",
"properties":{
"Name":"温海温泉林業センター",
"Jusho":"山形県鶴岡市湯温海字湯之里88-8",
"Capacity":"487",
"la":"38.61443457180",
"ln":"139.60396642000"
},
"geometry":{
"type":"Point",
"coordinates":[
139.60396642,
38.6144345718
]
}
},
{
"type":"Feature",
"properties":{
"Name":"温海漁村センター",
"Jusho":"山形県鶴岡市温海字温海17",
"Capacity":"127",
"la":"38.62847700000",
"ln":"139.58918000000"
},
"geometry":{
"type":"Point",
"coordinates":[
139.58918,
38.628477
]
}
},
{
"type":"Feature",
"properties":{
"Name":"温海川農業者健康管理施設",
"Jusho":"山形県鶴岡市温海字越沢6－",
"Capacity":"165",
"la":"38.59470400000",
"ln":"139.70818400000"
},
"geometry":{
"type":"Point",
"coordinates":[
139.708184,
38.594704
]
}
},
{
"type":"Feature",
"properties":{
"Name":"温海庁舎前広場",
"Jusho":"山形県鶴岡市温海字温海577－",
"Capacity":"－",
"la":"38.62118630630",
"ln":"139.58690885600"
},
"geometry":{
"type":"Point",
"coordinates":[
139.586908856,
38.6211863063
]
}
},
{
"type":"Feature",
"properties":{
"Name":"下山添地区広場",
"Jusho":"山形県鶴岡市下山添中通98",
"Capacity":"3900",
"la":"38.69155850470",
"ln":"139.84282049400"
},
"geometry":{
"type":"Point",
"coordinates":[
139.842820494,
38.6915585047
]
}
},
{
"type":"Feature",
"properties":{
"Name":"下村公民館",
"Jusho":"山形県鶴岡市大網字西大石90",
"Capacity":"96",
"la":"38.59203114230",
"ln":"139.89427427500"
},
"geometry":{
"type":"Point",
"coordinates":[
139.894274275,
38.5920311423
]
}
},
{
"type":"Feature",
"properties":{
"Name":"下田沢林業集会施設",
"Jusho":"山形県鶴岡市下田沢字虻崎65－",
"Capacity":"47",
"la":"38.53428500000",
"ln":"139.79488100000"
},
"geometry":{
"type":"Point",
"coordinates":[
139.794881,
38.534285
]
}
},
{
"type":"Feature",
"properties":{
"Name":"下本郷林業集会施設",
"Jusho":"山形県鶴岡市本郷字細越72",
"Capacity":"66",
"la":"38.60986500000",
"ln":"139.83110100000"
},
"geometry":{
"type":"Point",
"coordinates":[
139.831101,
38.609865
]
}
},
{
"type":"Feature",
"properties":{
"Name":"下名川公民館",
"Jusho":"山形県鶴岡市下名川字村東64",
"Capacity":"88",
"la":"38.59740992880",
"ln":"139.84438249300"
},
"geometry":{
"type":"Point",
"coordinates":[
139.844382493,
38.5974099288
]
}
},
{
"type":"Feature",
"properties":{
"Name":"加茂コミュニティセンター",
"Jusho":"山形県鶴岡市加茂字岩倉241-3",
"Capacity":"89",
"la":"38.75993400000",
"ln":"139.73528300000"
},
"geometry":{
"type":"Point",
"coordinates":[
139.735283,
38.759934
]
}
},
{
"type":"Feature",
"properties":{
"Name":"加茂浜山",
"Jusho":"山形県鶴岡市",
"Capacity":"－",
"la":"38.76309996190",
"ln":"139.72916634100"
},
"geometry":{
"type":"Point",
"coordinates":[
139.729166341,
38.7630999619
]
}
},
{
"type":"Feature",
"properties":{
"Name":"海印寺",
"Jusho":"山形県鶴岡市",
"Capacity":"－",
"la":"38.76473404020",
"ln":"139.73643147100"
},
"geometry":{
"type":"Point",
"coordinates":[
139.736431471,
38.7647340402
]
}
},
{
"type":"Feature",
"properties":{
"Name":"海蔵寺境内",
"Jusho":"山形県鶴岡市",
"Capacity":"－",
"la":"38.71704011030",
"ln":"139.68281721800"
},
"geometry":{
"type":"Point",
"coordinates":[
139.682817218,
38.7170401103
]
}
},
{
"type":"Feature",
"properties":{
"Name":"笠取峠",
"Jusho":"山形県鶴岡市",
"Capacity":"－",
"la":"38.70473834280",
"ln":"139.66207498200"
},
"geometry":{
"type":"Point",
"coordinates":[
139.662074982,
38.7047383428
]
}
},
{
"type":"Feature",
"properties":{
"Name":"釜谷坂公民館",
"Jusho":"山形県鶴岡市温海釜谷坂",
"Capacity":"63",
"la":"38.61888599920",
"ln":"139.58384030400"
},
"geometry":{
"type":"Point",
"coordinates":[
139.583840304,
38.6188859992
]
}
},
{
"type":"Feature",
"properties":{
"Name":"釜谷坂集落裏山",
"Jusho":"山形県鶴岡市",
"Capacity":"－",
"la":"38.61869865070",
"ln":"139.58441131700"
},
"geometry":{
"type":"Point",
"coordinates":[
139.584411317,
38.6186986507
]
}
},
{
"type":"Feature",
"properties":{
"Name":"関川しな織りセンター",
"Jusho":"山形県鶴岡市関川字向222",
"Capacity":"108",
"la":"38.51765034140",
"ln":"139.67751331000"
},
"geometry":{
"type":"Point",
"coordinates":[
139.67751331,
38.5176503414
]
}
},
{
"type":"Feature",
"properties":{
"Name":"関谷公民館",
"Jusho":"山形県鶴岡市大網字屋敷田96－",
"Capacity":"66",
"la":"38.58710856370",
"ln":"139.91072492700"
},
"geometry":{
"type":"Point",
"coordinates":[
139.910724927,
38.5871085637
]
}
},
{
"type":"Feature",
"properties":{
"Name":"丸岡地区広場",
"Jusho":"山形県鶴岡市丸岡字町の内138",
"Capacity":"3400",
"la":"38.68160512140",
"ln":"139.83164403400"
},
"geometry":{
"type":"Point",
"coordinates":[
139.831644034,
38.6816051214
]
}
},
{
"type":"Feature",
"properties":{
"Name":"貴船保育園",
"Jusho":"山形県鶴岡市羽黒町後田字谷地堰186－",
"Capacity":"275",
"la":"38.71592930780",
"ln":"139.88274289800"
},
"geometry":{
"type":"Point",
"coordinates":[
139.882742898,
38.7159293078
]
}
},
{
"type":"Feature",
"properties":{
"Name":"宮前広場",
"Jusho":"山形県鶴岡市",
"Capacity":"－",
"la":"38.69158487080",
"ln":"139.64966292600"
},
"geometry":{
"type":"Point",
"coordinates":[
139.649662926,
38.6915848708
]
}
},
{
"type":"Feature",
"properties":{
"Name":"宮沢裏山",
"Jusho":"山形県鶴岡市",
"Capacity":"－",
"la":"38.77548186390",
"ln":"139.75033807200"
},
"geometry":{
"type":"Point",
"coordinates":[
139.750338072,
38.7754818639
]
}
},
{
"type":"Feature",
"properties":{
"Name":"宮田地内軌道敷地（元ホテル雷屋駐車場）",
"Jusho":"山形県鶴岡市",
"Capacity":"－",
"la":"38.68617564090",
"ln":"139.62814894300"
},
"geometry":{
"type":"Point",
"coordinates":[
139.628148943,
38.6861756409
]
}
},
{
"type":"Feature",
"properties":{
"Name":"宮田地内軌道敷地（道記宅上）",
"Jusho":"山形県鶴岡市",
"Capacity":"－",
"la":"38.68618820770",
"ln":"139.62768739900"
},
"geometry":{
"type":"Point",
"coordinates":[
139.627687399,
38.6861882077
]
}
},
{
"type":"Feature",
"properties":{
"Name":"宮名公民館",
"Jusho":"山形県鶴岡市大岩川字白岩410-3",
"Capacity":"41",
"la":"38.61027371090",
"ln":"139.57649544800"
},
"geometry":{
"type":"Point",
"coordinates":[
139.576495448,
38.6102737109
]
}
},
{
"type":"Feature",
"properties":{
"Name":"旧ＪＲトンネル付近",
"Jusho":"山形県鶴岡市",
"Capacity":"－",
"la":"38.64566867470",
"ln":"139.59703925400"
},
"geometry":{
"type":"Point",
"coordinates":[
139.597039254,
38.6456686747
]
}
},
{
"type":"Feature",
"properties":{
"Name":"旧たらのき代分校体育館",
"Jusho":"山形県鶴岡市たらのき代字西野834",
"Capacity":"97",
"la":"38.65489289860",
"ln":"139.91513362500"
},
"geometry":{
"type":"Point",
"coordinates":[
139.915133625,
38.6548928986
]
}
},
{
"type":"Feature",
"properties":{
"Name":"旧ホテル雷屋国道７号線",
"Jusho":"山形県鶴岡市",
"Capacity":"－",
"la":"38.68599213910",
"ln":"139.62869352500"
},
"geometry":{
"type":"Point",
"coordinates":[
139.628693525,
38.6859921391
]
}
},
{
"type":"Feature",
"properties":{
"Name":"旧温海児童館広場",
"Jusho":"山形県鶴岡市温海字温海315",
"Capacity":"－",
"la":"38.62783779560",
"ln":"139.58995079000"
},
"geometry":{
"type":"Point",
"coordinates":[
139.58995079,
38.6278377956
]
}
},
{
"type":"Feature",
"properties":{
"Name":"寺坂",
"Jusho":"山形県鶴岡市",
"Capacity":"－",
"la":"38.68415986430",
"ln":"139.63753983600"
},
"geometry":{
"type":"Point",
"coordinates":[
139.637539836,
38.6841598643
]
}
},
{
"type":"Feature",
"properties":{
"Name":"旧田麦俣分校体育館",
"Jusho":"山形県鶴岡市田麦俣字七ツ滝91-2",
"Capacity":"2153",
"la":"38.56985529150",
"ln":"139.91974136400"
},
"geometry":{
"type":"Point",
"coordinates":[
139.919741364,
38.5698552915
]
}
},
{
"type":"Feature",
"properties":{
"Name":"旧念珠関中グラウンド",
"Jusho":"山形県鶴岡市",
"Capacity":"－",
"la":"38.56799812790",
"ln":"139.55233327100"
},
"geometry":{
"type":"Point",
"coordinates":[
139.552333271,
38.5679981279
]
}
},
{
"type":"Feature",
"properties":{
"Name":"旧分校跡",
"Jusho":"山形県鶴岡市",
"Capacity":"－",
"la":"38.74469737430",
"ln":"139.71052534800"
},
"geometry":{
"type":"Point",
"coordinates":[
139.710525348,
38.7446973743
]
}
},
{
"type":"Feature",
"properties":{
"Name":"京田コミュニティ防災センター",
"Jusho":"山形県鶴岡市高田字下村99-4",
"Capacity":"149",
"la":"38.75180600000",
"ln":"139.80881600000"
},
"geometry":{
"type":"Point",
"coordinates":[
139.808816,
38.751806
]
}
},
{
"type":"Feature",
"properties":{
"Name":"櫛引スポーツセンター",
"Jusho":"山形県鶴岡市三千刈字清和158－",
"Capacity":"2200",
"la":"38.68008117270",
"ln":"139.85712503800"
},
"geometry":{
"type":"Point",
"coordinates":[
139.857125038,
38.6800811727
]
}
},
{
"type":"Feature",
"properties":{
"Name":"櫛引公民館",
"Jusho":"山形県鶴岡市上山添字文栄90",
"Capacity":"297",
"la":"38.67890300000",
"ln":"139.84935800000"
},
"geometry":{
"type":"Point",
"coordinates":[
139.849358,
38.678903
]
}
},
{
"type":"Feature",
"properties":{
"Name":"櫛引西部児童館",
"Jusho":"山形県鶴岡市上山添字文栄1",
"Capacity":"266",
"la":"38.68089400000",
"ln":"139.84505800000"
},
"geometry":{
"type":"Point",
"coordinates":[
139.845058,
38.680894
]
}
},
{
"type":"Feature",
"properties":{
"Name":"櫛引東部児童館",
"Jusho":"山形県鶴岡市黒川字仲村171－",
"Capacity":"230",
"la":"38.67025600000",
"ln":"139.86725700000"
},
"geometry":{
"type":"Point",
"coordinates":[
139.867257,
38.670256
]
}
},
{
"type":"Feature",
"properties":{
"Name":"櫛引南部児童館",
"Jusho":"山形県鶴岡市東荒屋字竹の内292",
"Capacity":"313",
"la":"38.64867600000",
"ln":"139.85214300000"
},
"geometry":{
"type":"Point",
"coordinates":[
139.852143,
38.648676
]
}
},
{
"type":"Feature",
"properties":{
"Name":"熊出下公民館",
"Jusho":"山形県鶴岡市熊出字下村172-3",
"Capacity":"45",
"la":"38.63630792430",
"ln":"139.84334576800"
},
"geometry":{
"type":"Point",
"coordinates":[
139.843345768,
38.6363079243
]
}
},
{
"type":"Feature",
"properties":{
"Name":"熊出中公民館",
"Jusho":"山形県鶴岡市熊出字長表52",
"Capacity":"134",
"la":"38.62964556470",
"ln":"139.84327508600"
},
"geometry":{
"type":"Point",
"coordinates":[
139.843275086,
38.6296455647
]
}
},
{
"type":"Feature",
"properties":{
"Name":"熊出林業集会施設",
"Jusho":"山形県鶴岡市熊出字日鑓209",
"Capacity":"44",
"la":"38.61851786760",
"ln":"139.83744127300"
},
"geometry":{
"type":"Point",
"coordinates":[
139.837441273,
38.6185178676
]
}
},
{
"type":"Feature",
"properties":{
"Name":"熊野神社",
"Jusho":"山形県鶴岡市",
"Capacity":"－",
"la":"38.77112247420",
"ln":"139.74100568500"
},
"geometry":{
"type":"Point",
"coordinates":[
139.741005685,
38.7711224742
]
}
},
{
"type":"Feature",
"properties":{
"Name":"桂荒俣地区広場",
"Jusho":"山形県鶴岡市桂荒俣字上桂103",
"Capacity":"1150",
"la":"38.67168101450",
"ln":"139.85008831800"
},
"geometry":{
"type":"Point",
"coordinates":[
139.850088318,
38.6716810145
]
}
},
{
"type":"Feature",
"properties":{
"Name":"月山高原活性化センター",
"Jusho":"山形県鶴岡市羽黒町手向字玉川28-823",
"Capacity":"75",
"la":"38.68886703500",
"ln":"139.95315527200"
},
"geometry":{
"type":"Point",
"coordinates":[
139.953155272,
38.688867035
]
}
},
{
"type":"Feature",
"properties":{
"Name":"県立加茂水産高等学校体育館",
"Jusho":"山形県鶴岡市加茂字大崩595",
"Capacity":"293",
"la":"38.76240947270",
"ln":"139.72893607400"
},
"geometry":{
"type":"Point",
"coordinates":[
139.728936074,
38.7624094727
]
}
},
{
"type":"Feature",
"properties":{
"Name":"県立高等学校共用グラウンド",
"Jusho":"山形県鶴岡市錦町6",
"Capacity":"10350",
"la":"38.73856524700",
"ln":"139.82729852200"
},
"geometry":{
"type":"Point",
"coordinates":[
139.827298522,
38.738565247
]
}
},
{
"type":"Feature",
"properties":{
"Name":"県立高等学校共用体育館",
"Jusho":"山形県鶴岡市新形町16-20",
"Capacity":"358",
"la":"38.73582088290",
"ln":"139.82535771000"
},
"geometry":{
"type":"Point",
"coordinates":[
139.82535771,
38.7358208829
]
}
},
{
"type":"Feature",
"properties":{
"Name":"県立鶴岡工業高等学校体育館",
"Jusho":"山形県鶴岡市家中新町8－",
"Capacity":"413",
"la":"38.73011000000",
"ln":"139.82219700000"
},
"geometry":{
"type":"Point",
"coordinates":[
139.822197,
38.73011
]
}
},
{
"type":"Feature",
"properties":{
"Name":"県立鶴岡中央高校温海校体育館",
"Jusho":"山形県鶴岡市温海字片淵120",
"Capacity":"633",
"la":"38.61958985470",
"ln":"139.59040743000"
},
"geometry":{
"type":"Point",
"coordinates":[
139.59040743,
38.6195898547
]
}
},
{
"type":"Feature",
"properties":{
"Name":"県立鶴岡中央高等学校体育館",
"Jusho":"山形県鶴岡市日本国410",
"Capacity":"476",
"la":"38.74538599910",
"ln":"139.82608500000"
},
"geometry":{
"type":"Point",
"coordinates":[
139.826085,
38.7453859991
]
}
},
{
"type":"Feature",
"properties":{
"Name":"県立鶴岡北高等学校体育館",
"Jusho":"山形県鶴岡市若葉町16-23",
"Capacity":"484",
"la":"38.73288800000",
"ln":"139.82691900000"
},
"geometry":{
"type":"Point",
"coordinates":[
139.826919,
38.732888
]
}
},
{
"type":"Feature",
"properties":{
"Name":"元湯野浜消防分署跡地",
"Jusho":"山形県鶴岡市",
"Capacity":"－",
"la":"38.78567730890",
"ln":"139.75938506400"
},
"geometry":{
"type":"Point",
"coordinates":[
139.759385064,
38.7856773089
]
}
},
{
"type":"Feature",
"properties":{
"Name":"戸沢林業集落集会施設",
"Jusho":"山形県鶴岡市戸沢字東俣168",
"Capacity":"173",
"la":"38.63825100000",
"ln":"139.68373800000"
},
"geometry":{
"type":"Point",
"coordinates":[
139.683738,
38.638251
]
}
},
{
"type":"Feature",
"properties":{
"Name":"五十川駅付近",
"Jusho":"山形県鶴岡市",
"Capacity":"－",
"la":"38.67063929580",
"ln":"139.61606980200"
},
"geometry":{
"type":"Point",
"coordinates":[
139.616069802,
38.6706392958
]
}
},
{
"type":"Feature",
"properties":{
"Name":"五十川公民館",
"Jusho":"山形県鶴岡市五十川字浜千鳥24",
"Capacity":"138",
"la":"38.67208908520",
"ln":"139.61748972700"
},
"geometry":{
"type":"Point",
"coordinates":[
139.617489727,
38.6720890852
]
}
},
{
"type":"Feature",
"properties":{
"Name":"五十川保育園",
"Jusho":"山形県鶴岡市五十川字浜千鳥14",
"Capacity":"90",
"la":"38.67214100000",
"ln":"139.61785200000"
},
"geometry":{
"type":"Point",
"coordinates":[
139.617852,
38.672141
]
}
},
{
"type":"Feature",
"properties":{
"Name":"広瀬地区公民館",
"Jusho":"山形県鶴岡市羽黒町後田字下田元237",
"Capacity":"242",
"la":"38.71533300000",
"ln":"139.87461300000"
},
"geometry":{
"type":"Point",
"coordinates":[
139.874613,
38.715333
]
}
},
{
"type":"Feature",
"properties":{
"Name":"荒沢公民館",
"Jusho":"山形県鶴岡市荒沢字岩屋平",
"Capacity":"19",
"la":"38.50664126420",
"ln":"139.78705942900"
},
"geometry":{
"type":"Point",
"coordinates":[
139.787059429,
38.5066412642
]
}
},
{
"type":"Feature",
"properties":{
"Name":"武藤敏一宅前",
"Jusho":"山形県鶴岡市",
"Capacity":"－",
"la":"38.75979776170",
"ln":"139.73436673500"
},
"geometry":{
"type":"Point",
"coordinates":[
139.734366735,
38.7597977617
]
}
},
{
"type":"Feature",
"properties":{
"Name":"行沢公民館",
"Jusho":"山形県鶴岡市行沢字堰南",
"Capacity":"33",
"la":"38.58447282480",
"ln":"139.82864795800"
},
"geometry":{
"type":"Point",
"coordinates":[
139.828647958,
38.5844728248
]
}
},
{
"type":"Feature",
"properties":{
"Name":"黒川下地区広場",
"Jusho":"山形県鶴岡市黒川字大杉285",
"Capacity":"3500",
"la":"38.67687589770",
"ln":"139.86921746100"
},
"geometry":{
"type":"Point",
"coordinates":[
139.869217461,
38.6768758977
]
}
},
{
"type":"Feature",
"properties":{
"Name":"黒川上地区広場",
"Jusho":"山形県鶴岡市黒川字上の山138-4",
"Capacity":"1400",
"la":"38.66246900000",
"ln":"139.87523000000"
},
"geometry":{
"type":"Point",
"coordinates":[
139.87523,
38.662469
]
}
},
{
"type":"Feature",
"properties":{
"Name":"今泉裏山",
"Jusho":"山形県鶴岡市",
"Capacity":"－",
"la":"38.75928298040",
"ln":"139.72530473200"
},
"geometry":{
"type":"Point",
"coordinates":[
139.725304732,
38.7592829804
]
}
},
{
"type":"Feature",
"properties":{
"Name":"佐藤勝治宅前",
"Jusho":"山形県鶴岡市",
"Capacity":"－",
"la":"38.65708956490",
"ln":"139.60454181300"
},
"geometry":{
"type":"Point",
"coordinates":[
139.604541813,
38.6570895649
]
}
},
{
"type":"Feature",
"properties":{
"Name":"佐藤登宅前",
"Jusho":"山形県鶴岡市",
"Capacity":"－",
"la":"38.65886155120",
"ln":"139.60608622500"
},
"geometry":{
"type":"Point",
"coordinates":[
139.606086225,
38.6588615512
]
}
},
{
"type":"Feature",
"properties":{
"Name":"砂川公民館",
"Jusho":"山形県鶴岡市砂川字谷地田15",
"Capacity":"68",
"la":"38.57938825870",
"ln":"139.82537484100"
},
"geometry":{
"type":"Point",
"coordinates":[
139.825374841,
38.5793882587
]
}
},
{
"type":"Feature",
"properties":{
"Name":"斎コミュニティ防災センター",
"Jusho":"山形県鶴岡市我老林字野中原35",
"Capacity":"145",
"la":"38.70498600000",
"ln":"139.84845700000"
},
"geometry":{
"type":"Point",
"coordinates":[
139.848457,
38.704986
]
}
},
{
"type":"Feature",
"properties":{
"Name":"三栗屋公民館",
"Jusho":"山形県鶴岡市越中山字三栗屋62－",
"Capacity":"39",
"la":"38.59200857720",
"ln":"139.85094875600"
},
"geometry":{
"type":"Point",
"coordinates":[
139.850948756,
38.5920085772
]
}
},
{
"type":"Feature",
"properties":{
"Name":"三瀬コミュニティセンター",
"Jusho":"山形県鶴岡市三瀬字殿田138",
"Capacity":"149",
"la":"38.70078900000",
"ln":"139.67131900000"
},
"geometry":{
"type":"Point",
"coordinates":[
139.671319,
38.700789
]
}
},
{
"type":"Feature",
"properties":{
"Name":"三瀬駅前広場",
"Jusho":"山形県鶴岡市",
"Capacity":"－",
"la":"38.69962505320",
"ln":"139.67343825900"
},
"geometry":{
"type":"Point",
"coordinates":[
139.673438259,
38.6996250532
]
}
},
{
"type":"Feature",
"properties":{
"Name":"三千刈地区広場",
"Jusho":"山形県鶴岡市三千刈字清和56",
"Capacity":"750",
"la":"38.67947000000",
"ln":"139.85426100000"
},
"geometry":{
"type":"Point",
"coordinates":[
139.854261,
38.67947
]
}
},
{
"type":"Feature",
"properties":{
"Name":"山戸保育園",
"Jusho":"山形県鶴岡市山五十川字木ノ下475-2",
"Capacity":"141",
"la":"38.65165068610",
"ln":"139.65487217200"
},
"geometry":{
"type":"Point",
"coordinates":[
139.654872172,
38.6516506861
]
}
},
{
"type":"Feature",
"properties":{
"Name":"山五十川山村広場",
"Jusho":"山形県鶴岡市山五十川字木ノ下109－",
"Capacity":"500",
"la":"38.64772913790",
"ln":"139.65507854900"
},
"geometry":{
"type":"Point",
"coordinates":[
139.655078549,
38.6477291379
]
}
},
{
"type":"Feature",
"properties":{
"Name":"山五十川多目的研修集会施設",
"Jusho":"山形県鶴岡市山五十川字木ノ下475－",
"Capacity":"339",
"la":"38.65128686640",
"ln":"139.65484003200"
},
"geometry":{
"type":"Point",
"coordinates":[
139.654840032,
38.6512868664
]
}
},
{
"type":"Feature",
"properties":{
"Name":"市道永寂寺線道路（駅裏側）",
"Jusho":"山形県鶴岡市温海字温海",
"Capacity":"－",
"la":"38.62842314360",
"ln":"139.59058244600"
},
"geometry":{
"type":"Point",
"coordinates":[
139.590582446,
38.6284231436
]
}
},
{
"type":"Feature",
"properties":{
"Name":"市道温海１号線道路",
"Jusho":"山形県鶴岡市温海字温福",
"Capacity":"－",
"la":"38.63025031020",
"ln":"139.59115753300"
},
"geometry":{
"type":"Point",
"coordinates":[
139.591157533,
38.6302503102
]
}
},
{
"type":"Feature",
"properties":{
"Name":"市立第二体育館",
"Jusho":"山形県鶴岡市文園町1-8",
"Capacity":"240",
"la":"38.71888200000",
"ln":"139.82765600000"
},
"geometry":{
"type":"Point",
"coordinates":[
139.827656,
38.718882
]
}
},
{
"type":"Feature",
"properties":{
"Name":"私立羽黒高等学校総合体育館",
"Jusho":"山形県鶴岡市羽黒町手向字薬師沢198",
"Capacity":"503",
"la":"38.72007900000",
"ln":"139.93755000000"
},
"geometry":{
"type":"Point",
"coordinates":[
139.93755,
38.720079
]
}
},
{
"type":"Feature",
"properties":{
"Name":"七五三掛公民館",
"Jusho":"山形県鶴岡市大網字七五三掛39－",
"Capacity":"66",
"la":"38.60292111220",
"ln":"139.88612378300"
},
"geometry":{
"type":"Point",
"coordinates":[
139.886123783,
38.6029211122
]
}
},
{
"type":"Feature",
"properties":{
"Name":"漆原公民館",
"Jusho":"山形県鶴岡市東岩本字漆原19",
"Capacity":"20",
"la":"38.62623100000",
"ln":"139.85749600000"
},
"geometry":{
"type":"Point",
"coordinates":[
139.857496,
38.626231
]
}
},
{
"type":"Feature",
"properties":{
"Name":"手向地区ふるさとセンター",
"Jusho":"山形県鶴岡市羽黒町手向字黒沢31－",
"Capacity":"253",
"la":"38.71473300000",
"ln":"139.95920100000"
},
"geometry":{
"type":"Point",
"coordinates":[
139.959201,
38.714733
]
}
},
{
"type":"Feature",
"properties":{
"Name":"住吉神社裏山",
"Jusho":"山形県鶴岡市",
"Capacity":"－",
"la":"38.59475300000",
"ln":"139.56687900000"
},
"geometry":{
"type":"Point",
"coordinates":[
139.566879,
38.594753
]
}
},
{
"type":"Feature",
"properties":{
"Name":"出羽庄内国際村",
"Jusho":"山形県鶴岡市伊勢原町8-32",
"Capacity":"215",
"la":"38.71920400000",
"ln":"139.84933200000"
},
"geometry":{
"type":"Point",
"coordinates":[
139.849332,
38.719204
]
}
},
{
"type":"Feature",
"properties":{
"Name":"春日神社",
"Jusho":"山形県鶴岡市神明町9",
"Capacity":"1250",
"la":"38.72364715940",
"ln":"139.83307921900"
},
"geometry":{
"type":"Point",
"coordinates":[
139.833079219,
38.7236471594
]
}
},
{
"type":"Feature",
"properties":{
"Name":"小岩川公民館",
"Jusho":"山形県鶴岡市小岩川字巌168",
"Capacity":"126",
"la":"38.59116344390",
"ln":"139.56563993100"
},
"geometry":{
"type":"Point",
"coordinates":[
139.565639931,
38.5911634439
]
}
},
{
"type":"Feature",
"properties":{
"Name":"小堅コミュニティセンター",
"Jusho":"山形県鶴岡市小波渡字浜田43-2",
"Capacity":"52",
"la":"38.69433500000",
"ln":"139.65022300000"
},
"geometry":{
"type":"Point",
"coordinates":[
139.650223,
38.694335
]
}
},
{
"type":"Feature",
"properties":{
"Name":"小国運動広場",
"Jusho":"山形県鶴岡市小国字沢田51－",
"Capacity":"500",
"la":"38.56712451040",
"ln":"139.63660337500"
},
"geometry":{
"type":"Point",
"coordinates":[
139.636603375,
38.5671245104
]
}
},
{
"type":"Feature",
"properties":{
"Name":"小国山村振興センター",
"Jusho":"山形県鶴岡市小国字町尻2-6",
"Capacity":"217",
"la":"38.57258000000",
"ln":"139.63641500000"
},
"geometry":{
"type":"Point",
"coordinates":[
139.636415,
38.57258
]
}
},
{
"type":"Feature",
"properties":{
"Name":"小松音吉宅",
"Jusho":"山形県鶴岡市",
"Capacity":"－",
"la":"38.64712445660",
"ln":"139.59740688200"
},
"geometry":{
"type":"Point",
"coordinates":[
139.597406882,
38.6471244566
]
}
},
{
"type":"Feature",
"properties":{
"Name":"小真木原総合体育館",
"Jusho":"山形県鶴岡市小真木原町2",
"Capacity":"1006",
"la":"38.71372900000",
"ln":"139.81335200000"
},
"geometry":{
"type":"Point",
"coordinates":[
139.813352,
38.713729
]
}
},
{
"type":"Feature",
"properties":{
"Name":"小菅野代公民館",
"Jusho":"山形県鶴岡市小菅野代字宮野沢158",
"Capacity":"55",
"la":"38.64509300000",
"ln":"139.62191300000"
},
"geometry":{
"type":"Point",
"coordinates":[
139.621913,
38.645093
]
}
},
{
"type":"Feature",
"properties":{
"Name":"小波渡旧軌道敷跡",
"Jusho":"山形県鶴岡市",
"Capacity":"－",
"la":"38.69257103600",
"ln":"139.64918914600"
},
"geometry":{
"type":"Point",
"coordinates":[
139.649189146,
38.692571036
]
}
},
{
"type":"Feature",
"properties":{
"Name":"小名部運動広場",
"Jusho":"山形県鶴岡市小名部字上浜田137-3",
"Capacity":"950",
"la":"38.53599469030",
"ln":"139.61516805400"
},
"geometry":{
"type":"Point",
"coordinates":[
139.615168054,
38.5359946903
]
}
},
{
"type":"Feature",
"properties":{
"Name":"小名部構造改善センター",
"Jusho":"山形県鶴岡市小名部字浜田137-3",
"Capacity":"218",
"la":"38.53597200000",
"ln":"139.61513100000"
},
"geometry":{
"type":"Point",
"coordinates":[
139.615131,
38.535972
]
}
},
{
"type":"Feature",
"properties":{
"Name":"松ヶ崎公民館",
"Jusho":"山形県鶴岡市大鳥字松ヶ崎251",
"Capacity":"27",
"la":"38.46591349210",
"ln":"139.75718795700"
},
"geometry":{
"type":"Point",
"coordinates":[
139.757187957,
38.4659134921
]
}
},
{
"type":"Feature",
"properties":{
"Name":"松根地区広場",
"Jusho":"山形県鶴岡市松根字中松根59",
"Capacity":"1400",
"la":"38.64753494020",
"ln":"139.86642601500"
},
"geometry":{
"type":"Point",
"coordinates":[
139.866426015,
38.6475349402
]
}
},
{
"type":"Feature",
"properties":{
"Name":"松沢公民館",
"Jusho":"山形県鶴岡市松沢字水上口1",
"Capacity":"120",
"la":"38.54944850590",
"ln":"139.79020124600"
},
"geometry":{
"type":"Point",
"coordinates":[
139.790201246,
38.5494485059
]
}
},
{
"type":"Feature",
"properties":{
"Name":"消防車庫裏ＪＲ線路",
"Jusho":"山形県鶴岡市",
"Capacity":"－",
"la":"38.64730657500",
"ln":"139.59821748400"
},
"geometry":{
"type":"Point",
"coordinates":[
139.598217484,
38.647306575
]
}
},
{
"type":"Feature",
"properties":{
"Name":"上郷コミュニティセンター",
"Jusho":"山形県鶴岡市水沢字水尻38",
"Capacity":"262",
"la":"38.71138000000",
"ln":"139.73701200000"
},
"geometry":{
"type":"Point",
"coordinates":[
139.737012,
38.71138
]
}
},
{
"type":"Feature",
"properties":{
"Name":"上村活性化センター",
"Jusho":"山形県鶴岡市大網字大網149",
"Capacity":"51",
"la":"38.59210171140",
"ln":"139.90162089800"
},
"geometry":{
"type":"Point",
"coordinates":[
139.901620898,
38.5921017114
]
}
},
{
"type":"Feature",
"properties":{
"Name":"上田沢公民館",
"Jusho":"山形県鶴岡市上田沢字東ノ内11-2",
"Capacity":"82",
"la":"38.52130115730",
"ln":"139.78971298600"
},
"geometry":{
"type":"Point",
"coordinates":[
139.789712986,
38.5213011573
]
}
},
{
"type":"Feature",
"properties":{
"Name":"上本郷公民館",
"Jusho":"山形県鶴岡市本郷字平沢下10",
"Capacity":"112",
"la":"38.59675600000",
"ln":"139.82887400000"
},
"geometry":{
"type":"Point",
"coordinates":[
139.828874,
38.596756
]
}
},
{
"type":"Feature",
"properties":{
"Name":"上名川公民館",
"Jusho":"山形県鶴岡市上名川字堰西13-2",
"Capacity":"65",
"la":"38.58869751940",
"ln":"139.84947565200"
},
"geometry":{
"type":"Point",
"coordinates":[
139.849475652,
38.5886975194
]
}
},
{
"type":"Feature",
"properties":{
"Name":"乗慶院境内",
"Jusho":"山形県鶴岡市",
"Capacity":"－",
"la":"38.77861561600",
"ln":"139.75186917700"
},
"geometry":{
"type":"Point",
"coordinates":[
139.751869177,
38.778615616
]
}
},
{
"type":"Feature",
"properties":{
"Name":"城南学園",
"Jusho":"山形県鶴岡市のぞみ町6-20",
"Capacity":"500",
"la":"38.71484100000",
"ln":"139.83357500000"
},
"geometry":{
"type":"Point",
"coordinates":[
139.833575,
38.714841
]
}
},
{
"type":"Feature",
"properties":{
"Name":"常念寺",
"Jusho":"山形県鶴岡市睦町1－",
"Capacity":"5350",
"la":"38.72171143690",
"ln":"139.82788626100"
},
"geometry":{
"type":"Point",
"coordinates":[
139.827886261,
38.7217114369
]
}
},
{
"type":"Feature",
"properties":{
"Name":"常盤木地区広場",
"Jusho":"山形県鶴岡市常盤木字臼井46",
"Capacity":"800",
"la":"38.66228324520",
"ln":"139.84213884100"
},
"geometry":{
"type":"Point",
"coordinates":[
139.842138841,
38.6622832452
]
}
},
{
"type":"Feature",
"properties":{
"Name":"浄禅寺",
"Jusho":"山形県鶴岡市",
"Capacity":"－",
"la":"38.76078790330",
"ln":"139.73209597100"
},
"geometry":{
"type":"Point",
"coordinates":[
139.732095971,
38.7607879033
]
}
},
{
"type":"Feature",
"properties":{
"Name":"新山神社",
"Jusho":"山形県鶴岡市",
"Capacity":"－",
"la":"38.62658933220",
"ln":"139.59010459400"
},
"geometry":{
"type":"Point",
"coordinates":[
139.590104594,
38.6265893322
]
}
},
{
"type":"Feature",
"properties":{
"Name":"瑞芳院",
"Jusho":"山形県鶴岡市",
"Capacity":"－",
"la":"38.56019048760",
"ln":"139.55151714500"
},
"geometry":{
"type":"Point",
"coordinates":[
139.551517145,
38.5601904876
]
}
},
{
"type":"Feature",
"properties":{
"Name":"菅野代公民館",
"Jusho":"山形県鶴岡市菅野代字宮野下4-2",
"Capacity":"171",
"la":"38.62707006700",
"ln":"139.72108188300"
},
"geometry":{
"type":"Point",
"coordinates":[
139.721081883,
38.627070067
]
}
},
{
"type":"Feature",
"properties":{
"Name":"聖徳寺下",
"Jusho":"山形県鶴岡市",
"Capacity":"－",
"la":"38.68360250140",
"ln":"139.63801752600"
},
"geometry":{
"type":"Point",
"coordinates":[
139.638017526,
38.6836025014
]
}
},
{
"type":"Feature",
"properties":{
"Name":"西郷コミュニティセンター",
"Jusho":"山形県鶴岡市下川字龍花54",
"Capacity":"102",
"la":"38.78263500000",
"ln":"139.78810900000"
},
"geometry":{
"type":"Point",
"coordinates":[
139.788109,
38.782635
]
}
},
{
"type":"Feature",
"properties":{
"Name":"西光寺裏山",
"Jusho":"山形県鶴岡市",
"Capacity":"－",
"la":"38.58988100000",
"ln":"139.56562400000"
},
"geometry":{
"type":"Point",
"coordinates":[
139.565624,
38.589881
]
}
},
{
"type":"Feature",
"properties":{
"Name":"西荒屋地区広場",
"Jusho":"山形県鶴岡市西荒屋字杉下108－",
"Capacity":"1000",
"la":"38.65054513720",
"ln":"139.84513939100"
},
"geometry":{
"type":"Point",
"coordinates":[
139.845139391,
38.6505451372
]
}
},
{
"type":"Feature",
"properties":{
"Name":"西片屋地区広場",
"Jusho":"山形県鶴岡市西片屋字楯村68",
"Capacity":"950",
"la":"38.64008527930",
"ln":"139.85594551800"
},
"geometry":{
"type":"Point",
"coordinates":[
139.855945518,
38.6400852793
]
}
},
{
"type":"Feature",
"properties":{
"Name":"西洋茶寮駐車場",
"Jusho":"山形県鶴岡市",
"Capacity":"－",
"la":"38.78341487860",
"ln":"139.75537996200"
},
"geometry":{
"type":"Point",
"coordinates":[
139.755379962,
38.7834148786
]
}
},
{
"type":"Feature",
"properties":{
"Name":"泉徳寺",
"Jusho":"山形県鶴岡市",
"Capacity":"－",
"la":"38.63918200000",
"ln":"139.59616900000"
},
"geometry":{
"type":"Point",
"coordinates":[
139.596169,
38.639182
]
}
},
{
"type":"Feature",
"properties":{
"Name":"鼠ヶ関青少年海洋センター",
"Jusho":"山形県鶴岡市鼠ヶ関字原海150",
"Capacity":"141",
"la":"38.55579069260",
"ln":"139.54542646400"
},
"geometry":{
"type":"Point",
"coordinates":[
139.545426464,
38.5557906926
]
}
},
{
"type":"Feature",
"properties":{
"Name":"鼠ヶ関保育園",
"Jusho":"山形県鶴岡市鼠ヶ関字横路806",
"Capacity":"212",
"la":"38.56058500000",
"ln":"139.54934200000"
},
"geometry":{
"type":"Point",
"coordinates":[
139.549342,
38.560585
]
}
},
{
"type":"Feature",
"properties":{
"Name":"創造の森",
"Jusho":"山形県鶴岡市羽黒町川代字向山628",
"Capacity":"144",
"la":"38.68201200000",
"ln":"139.92881500000"
},
"geometry":{
"type":"Point",
"coordinates":[
139.928815,
38.682012
]
}
},
{
"type":"Feature",
"properties":{
"Name":"倉沢公民館",
"Jusho":"山形県鶴岡市倉沢字上ノ山口100",
"Capacity":"48",
"la":"38.52624626990",
"ln":"139.77854784100"
},
"geometry":{
"type":"Point",
"coordinates":[
139.778547841,
38.5262462699
]
}
},
{
"type":"Feature",
"properties":{
"Name":"早田公民館",
"Jusho":"山形県鶴岡市早田字上ノ山24",
"Capacity":"123",
"la":"38.57274500000",
"ln":"139.55511800000"
},
"geometry":{
"type":"Point",
"coordinates":[
139.555118,
38.572745
]
}
},
{
"type":"Feature",
"properties":{
"Name":"早田保育園",
"Jusho":"山形県鶴岡市早田字上ノ山162－",
"Capacity":"102",
"la":"38.57323300000",
"ln":"139.55610900000"
},
"geometry":{
"type":"Point",
"coordinates":[
139.556109,
38.573233
]
}
},
{
"type":"Feature",
"properties":{
"Name":"曹源寺",
"Jusho":"山形県鶴岡市",
"Capacity":"－",
"la":"38.55876748490",
"ln":"139.55203923200"
},
"geometry":{
"type":"Point",
"coordinates":[
139.552039232,
38.5587674849
]
}
},
{
"type":"Feature",
"properties":{
"Name":"荘内太陽自動車学園",
"Jusho":"山形県鶴岡市西新斎町11-22",
"Capacity":"4750",
"la":"38.73763091050",
"ln":"139.81231313400"
},
"geometry":{
"type":"Point",
"coordinates":[
139.812313134,
38.7376309105
]
}
},
{
"type":"Feature",
"properties":{
"Name":"遭竜寺",
"Jusho":"山形県鶴岡市",
"Capacity":"－",
"la":"38.67084359010",
"ln":"139.61765524100"
},
"geometry":{
"type":"Point",
"coordinates":[
139.617655241,
38.6708435901
]
}
},
{
"type":"Feature",
"properties":{
"Name":"大坂神社",
"Jusho":"山形県鶴岡市大岩川字沢山701番",
"Capacity":"－",
"la":"38.60396199810",
"ln":"139.57585811500"
},
"geometry":{
"type":"Point",
"coordinates":[
139.575858115,
38.6039619981
]
}
},
{
"type":"Feature",
"properties":{
"Name":"大山コミュニティセンター",
"Jusho":"山形県鶴岡市友江町23-71",
"Capacity":"1096",
"la":"38.74973199910",
"ln":"139.77008800000"
},
"geometry":{
"type":"Point",
"coordinates":[
139.770088,
38.7497319991
]
}
},
{
"type":"Feature",
"properties":{
"Name":"大針下公民館",
"Jusho":"山形県鶴岡市大針字上村沢口41-2",
"Capacity":"28",
"la":"38.56338720020",
"ln":"139.82343461000"
},
"geometry":{
"type":"Point",
"coordinates":[
139.82343461,
38.5633872002
]
}
},
{
"type":"Feature",
"properties":{
"Name":"大針上公民館",
"Jusho":"山形県鶴岡市大針字仲畑",
"Capacity":"33",
"la":"38.55170900000",
"ln":"139.81083800000"
},
"geometry":{
"type":"Point",
"coordinates":[
139.810838,
38.551709
]
}
},
{
"type":"Feature",
"properties":{
"Name":"大針中公民館",
"Jusho":"山形県鶴岡市大針字山崎1-2",
"Capacity":"108",
"la":"38.55894007070",
"ln":"139.81408458000"
},
"geometry":{
"type":"Point",
"coordinates":[
139.81408458,
38.5589400707
]
}
},
{
"type":"Feature",
"properties":{
"Name":"大川屋前市道",
"Jusho":"山形県鶴岡市",
"Capacity":"－",
"la":"38.55567050170",
"ln":"139.54692846300"
},
"geometry":{
"type":"Point",
"coordinates":[
139.546928463,
38.5556705017
]
}
},
{
"type":"Feature",
"properties":{
"Name":"大鳥自然の家",
"Jusho":"山形県鶴岡市大鳥字寿岡112",
"Capacity":"3689",
"la":"38.47011413910",
"ln":"139.76120391100"
},
"geometry":{
"type":"Point",
"coordinates":[
139.761203911,
38.4701141391
]
}
},
{
"type":"Feature",
"properties":{
"Name":"大鳥防雪センター",
"Jusho":"山形県鶴岡市大鳥字寿岡203",
"Capacity":"56",
"la":"38.46834400000",
"ln":"139.76033200000"
},
"geometry":{
"type":"Point",
"coordinates":[
139.760332,
38.468344
]
}
},
{
"type":"Feature",
"properties":{
"Name":"大東保育園",
"Jusho":"山形県鶴岡市羽黒町手向字手向139－",
"Capacity":"188",
"la":"38.71481500000",
"ln":"139.95507500000"
},
"geometry":{
"type":"Point",
"coordinates":[
139.955075,
38.714815
]
}
},
{
"type":"Feature",
"properties":{
"Name":"大平公民館",
"Jusho":"山形県鶴岡市下田沢字東34-2",
"Capacity":"40",
"la":"38.53309700000",
"ln":"139.81868524600"
},
"geometry":{
"type":"Point",
"coordinates":[
139.818685246,
38.533097
]
}
},
{
"type":"Feature",
"properties":{
"Name":"大宝幼稚園",
"Jusho":"山形県鶴岡市大宝寺町14－0",
"Capacity":"700",
"la":"38.73938699910",
"ln":"139.84344500000"
},
"geometry":{
"type":"Point",
"coordinates":[
139.843445,
38.7393869991
]
}
},
{
"type":"Feature",
"properties":{
"Name":"第一学区コミュニティ防災センター",
"Jusho":"山形県鶴岡市文園町1-63",
"Capacity":"156",
"la":"38.71861200000",
"ln":"139.82770900000"
},
"geometry":{
"type":"Point",
"coordinates":[
139.827709,
38.718612
]
}
},
{
"type":"Feature",
"properties":{
"Name":"第五学区コミュニティ防災センター",
"Jusho":"山形県鶴岡市宝町18-77",
"Capacity":"142",
"la":"38.73540800000",
"ln":"139.84143700000"
},
"geometry":{
"type":"Point",
"coordinates":[
139.841437,
38.735408
]
}
},
{
"type":"Feature",
"properties":{
"Name":"第三学区コミュニティセンター",
"Jusho":"山形県鶴岡市泉町5-70",
"Capacity":"122",
"la":"38.73068600000",
"ln":"139.82811900000"
},
"geometry":{
"type":"Point",
"coordinates":[
139.828119,
38.730686
]
}
},
{
"type":"Feature",
"properties":{
"Name":"第四学区コミュニティセンター",
"Jusho":"山形県鶴岡市稲生1丁目10-80",
"Capacity":"140",
"la":"38.71844800000",
"ln":"139.81474600000"
},
"geometry":{
"type":"Point",
"coordinates":[
139.814746,
38.718448
]
}
},
{
"type":"Feature",
"properties":{
"Name":"第二学区コミュニティ防災センター",
"Jusho":"山形県鶴岡市昭和町11-22",
"Capacity":"146",
"la":"38.72474200000",
"ln":"139.83419100000"
},
"geometry":{
"type":"Point",
"coordinates":[
139.834191,
38.724742
]
}
},
{
"type":"Feature",
"properties":{
"Name":"第六学区コミュニティ防災センター",
"Jusho":"山形県鶴岡市みどり町22-28",
"Capacity":"226",
"la":"38.73141000000",
"ln":"139.80678500000"
},
"geometry":{
"type":"Point",
"coordinates":[
139.806785,
38.73141
]
}
},
{
"type":"Feature",
"properties":{
"Name":"谷口公民館",
"Jusho":"山形県鶴岡市越中山字谷口83",
"Capacity":"42",
"la":"38.61810629010",
"ln":"139.84632905700"
},
"geometry":{
"type":"Point",
"coordinates":[
139.846329057,
38.6181062901
]
}
},
{
"type":"Feature",
"properties":{
"Name":"中村公民館",
"Jusho":"山形県鶴岡市大網字中田123",
"Capacity":"88",
"la":"38.59877801410",
"ln":"139.89620229000"
},
"geometry":{
"type":"Point",
"coordinates":[
139.89620229,
38.5987780141
]
}
},
{
"type":"Feature",
"properties":{
"Name":"中村康一宅裏山",
"Jusho":"山形県鶴岡市",
"Capacity":"－",
"la":"38.60697064350",
"ln":"139.57630197100"
},
"geometry":{
"type":"Point",
"coordinates":[
139.576301971,
38.6069706435
]
}
},
{
"type":"Feature",
"properties":{
"Name":"中田地区広場",
"Jusho":"山形県鶴岡市中田字八幡130－",
"Capacity":"200",
"la":"38.67331952670",
"ln":"139.84074498000"
},
"geometry":{
"type":"Point",
"coordinates":[
139.84074498,
38.6733195267
]
}
},
{
"type":"Feature",
"properties":{
"Name":"中入公民館",
"Jusho":"山形県鶴岡市越中山字中入163-2",
"Capacity":"27",
"la":"38.61183592730",
"ln":"139.84682501400"
},
"geometry":{
"type":"Point",
"coordinates":[
139.846825014,
38.6118359273
]
}
},
{
"type":"Feature",
"properties":{
"Name":"中野新田林業集会施設",
"Jusho":"山形県鶴岡市中野新田字居村25",
"Capacity":"40",
"la":"38.62426800000",
"ln":"139.84687700000"
},
"geometry":{
"type":"Point",
"coordinates":[
139.846877,
38.624268
]
}
},
{
"type":"Feature",
"properties":{
"Name":"朝日スポーツセンターグラウンド",
"Jusho":"山形県鶴岡市東岩本字野中143",
"Capacity":"8700",
"la":"38.62499261850",
"ln":"139.85141209800"
},
"geometry":{
"type":"Point",
"coordinates":[
139.851412098,
38.6249926185
]
}
},
{
"type":"Feature",
"properties":{
"Name":"朝日スポーツセンター体育館",
"Jusho":"山形県鶴岡市東岩本字野中146",
"Capacity":"796",
"la":"38.62540400000",
"ln":"139.85227500000"
},
"geometry":{
"type":"Point",
"coordinates":[
139.852275,
38.625404
]
}
},
{
"type":"Feature",
"properties":{
"Name":"朝日山村開発センター",
"Jusho":"山形県鶴岡市下名川字落合1",
"Capacity":"493",
"la":"38.61205357760",
"ln":"139.83552565800"
},
"geometry":{
"type":"Point",
"coordinates":[
139.835525658,
38.6120535776
]
}
},
{
"type":"Feature",
"properties":{
"Name":"朝日青少年センター",
"Jusho":"山形県鶴岡市東岩本字野中146",
"Capacity":"290",
"la":"38.62572600000",
"ln":"139.85164000000"
},
"geometry":{
"type":"Point",
"coordinates":[
139.85164,
38.625726
]
}
},
{
"type":"Feature",
"properties":{
"Name":"朝日庁舎南出張所",
"Jusho":"山形県鶴岡市上田沢字下中島25",
"Capacity":"81",
"la":"38.51885900000",
"ln":"139.78811000000"
},
"geometry":{
"type":"Point",
"coordinates":[
139.78811,
38.518859
]
}
},
{
"type":"Feature",
"properties":{
"Name":"朝日東部公民館",
"Jusho":"山形県鶴岡市大網字土倉28－",
"Capacity":"126",
"la":"38.59061200000",
"ln":"139.89316500000"
},
"geometry":{
"type":"Point",
"coordinates":[
139.893165,
38.590612
]
}
},
{
"type":"Feature",
"properties":{
"Name":"朝日南部公民館",
"Jusho":"山形県鶴岡市上田沢字船渡3－4",
"Capacity":"154",
"la":"38.52478900000",
"ln":"139.78703500000"
},
"geometry":{
"type":"Point",
"coordinates":[
139.787035,
38.524789
]
}
},
{
"type":"Feature",
"properties":{
"Name":"朝日老人福祉センター",
"Jusho":"山形県鶴岡市下名川字落合1",
"Capacity":"241",
"la":"38.61178800000",
"ln":"139.83607700000"
},
"geometry":{
"type":"Point",
"coordinates":[
139.836077,
38.611788
]
}
},
{
"type":"Feature",
"properties":{
"Name":"朝暘武道館",
"Jusho":"山形県鶴岡市小真木原町2",
"Capacity":"735",
"la":"38.71211267500",
"ln":"139.81420720400"
},
"geometry":{
"type":"Point",
"coordinates":[
139.814207204,
38.712112675
]
}
},
{
"type":"Feature",
"properties":{
"Name":"長沼公民館",
"Jusho":"山形県鶴岡市長沼字宮東25－",
"Capacity":"98",
"la":"38.80930800000",
"ln":"139.87313200000"
},
"geometry":{
"type":"Point",
"coordinates":[
139.873132,
38.809308
]
}
},
{
"type":"Feature",
"properties":{
"Name":"長谷川重宅上",
"Jusho":"山形県鶴岡市",
"Capacity":"－",
"la":"38.68630325880",
"ln":"139.63945044800"
},
"geometry":{
"type":"Point",
"coordinates":[
139.639450448,
38.6863032588
]
}
},
{
"type":"Feature",
"properties":{
"Name":"長徳寺保育園",
"Jusho":"山形県鶴岡市湯温海字湯温海124",
"Capacity":"167",
"la":"38.61611700000",
"ln":"139.61146500000"
},
"geometry":{
"type":"Point",
"coordinates":[
139.611465,
38.616117
]
}
},
{
"type":"Feature",
"properties":{
"Name":"鶴岡宝田体育館",
"Jusho":"山形県鶴岡市",
"Capacity":"－",
"la":"38.74796699910",
"ln":"139.83722600000"
},
"geometry":{
"type":"Point",
"coordinates":[
139.837226,
38.7479669991
]
}
},
{
"type":"Feature",
"properties":{
"Name":"鶴岡高等養護学校グラウンド",
"Jusho":"山形県鶴岡市稲生1丁目20-33",
"Capacity":"3950",
"la":"38.71400100000",
"ln":"139.80719900000"
},
"geometry":{
"type":"Point",
"coordinates":[
139.807199,
38.714001
]
}
},
{
"type":"Feature",
"properties":{
"Name":"鶴岡市水道部",
"Jusho":"山形県鶴岡市のぞみ町2－0",
"Capacity":"3750",
"la":"38.71599348750",
"ln":"139.83561997300"
},
"geometry":{
"type":"Point",
"coordinates":[
139.835619973,
38.7159934875
]
}
},
{
"type":"Feature",
"properties":{
"Name":"鶴岡自動車学園",
"Jusho":"山形県鶴岡市西新斎町6-34",
"Capacity":"6800",
"la":"38.73441568630",
"ln":"139.81071950700"
},
"geometry":{
"type":"Point",
"coordinates":[
139.810719507,
38.7344156863
]
}
},
{
"type":"Feature",
"properties":{
"Name":"鶴岡中央高等学校（校舎・体育館）",
"Jusho":"山形県鶴岡市温海字片淵120",
"Capacity":"6950",
"la":"38.61958056720",
"ln":"139.59054469500"
},
"geometry":{
"type":"Point",
"coordinates":[
139.590544695,
38.6195805672
]
}
},
{
"type":"Feature",
"properties":{
"Name":"鶴岡天満宮",
"Jusho":"山形県鶴岡市神明町3-40",
"Capacity":"1800",
"la":"38.72347740120",
"ln":"139.83639126100"
},
"geometry":{
"type":"Point",
"coordinates":[
139.836391261,
38.7234774012
]
}
},
{
"type":"Feature",
"properties":{
"Name":"鶴岡南高等学校（校舎・体育館）",
"Jusho":"山形県鶴岡市若葉町26-31",
"Capacity":"6300",
"la":"38.73066600000",
"ln":"139.82441900000"
},
"geometry":{
"type":"Point",
"coordinates":[
139.824419,
38.730666
]
}
},
{
"type":"Feature",
"properties":{
"Name":"鶴岡北高等学校（校舎・体育館）",
"Jusho":"山形県鶴岡市若葉町16-23",
"Capacity":"3750",
"la":"38.73297738120",
"ln":"139.82678943800"
},
"geometry":{
"type":"Point",
"coordinates":[
139.826789438,
38.7329773812
]
}
},
{
"type":"Feature",
"properties":{
"Name":"鶴岡養護学校",
"Jusho":"山形県鶴岡市大塚町5-44",
"Capacity":"5000",
"la":"38.73927500000",
"ln":"139.80997600000"
},
"geometry":{
"type":"Point",
"coordinates":[
139.809976,
38.739275
]
}
},
{
"type":"Feature",
"properties":{
"Name":"田川コミュニティセンター",
"Jusho":"山形県鶴岡市田川字中川原6－",
"Capacity":"212",
"la":"38.68690200000",
"ln":"139.74883600000"
},
"geometry":{
"type":"Point",
"coordinates":[
139.748836,
38.686902
]
}
},
{
"type":"Feature",
"properties":{
"Name":"田代地区広場",
"Jusho":"山形県鶴岡市下山添字広野82",
"Capacity":"1400",
"la":"38.69461711660",
"ln":"139.83683266000"
},
"geometry":{
"type":"Point",
"coordinates":[
139.83683266,
38.6946171166
]
}
},
{
"type":"Feature",
"properties":{
"Name":"田麦俣公民館",
"Jusho":"山形県鶴岡市田麦俣字七ツ滝112",
"Capacity":"91",
"la":"38.56965014570",
"ln":"139.92087182000"
},
"geometry":{
"type":"Point",
"coordinates":[
139.92087182,
38.5696501457
]
}
},
{
"type":"Feature",
"properties":{
"Name":"東栄公民館",
"Jusho":"山形県鶴岡市蛸井興屋字水尻26－",
"Capacity":"320",
"la":"38.74765000000",
"ln":"139.93409800000"
},
"geometry":{
"type":"Point",
"coordinates":[
139.934098,
38.74765
]
}
},
{
"type":"Feature",
"properties":{
"Name":"東南地区広場",
"Jusho":"山形県鶴岡市東荒屋字田中95",
"Capacity":"1250",
"la":"38.65422300000",
"ln":"139.85257900000"
},
"geometry":{
"type":"Point",
"coordinates":[
139.852579,
38.654223
]
}
},
{
"type":"Feature",
"properties":{
"Name":"東福寺",
"Jusho":"山形県鶴岡市",
"Capacity":"－",
"la":"38.69125156540",
"ln":"139.64859686800"
},
"geometry":{
"type":"Point",
"coordinates":[
139.648596868,
38.6912515654
]
}
},
{
"type":"Feature",
"properties":{
"Name":"東北地区広場",
"Jusho":"山形県鶴岡市東荒屋字小島330－",
"Capacity":"1350",
"la":"38.66589479040",
"ln":"139.85264809500"
},
"geometry":{
"type":"Point",
"coordinates":[
139.852648095,
38.6658947904
]
}
},
{
"type":"Feature",
"properties":{
"Name":"湯田川コミュニティセンター",
"Jusho":"山形県鶴岡市藤沢字西側174－",
"Capacity":"83",
"la":"38.69444000000",
"ln":"139.77319400000"
},
"geometry":{
"type":"Point",
"coordinates":[
139.773194,
38.69444
]
}
},
{
"type":"Feature",
"properties":{
"Name":"湯田川温泉有料駐車場",
"Jusho":"山形県鶴岡市湯田川丁",
"Capacity":"1900",
"la":"38.69457594480",
"ln":"139.77121313400"
},
"geometry":{
"type":"Point",
"coordinates":[
139.771213134,
38.6945759448
]
}
},
{
"type":"Feature",
"properties":{
"Name":"湯之里公民館",
"Jusho":"山形県鶴岡市湯温海字紅葉岡131－",
"Capacity":"71",
"la":"38.61312642790",
"ln":"139.59857171100"
},
"geometry":{
"type":"Point",
"coordinates":[
139.598571711,
38.6131264279
]
}
},
{
"type":"Feature",
"properties":{
"Name":"湯野浜コミュニティセンター",
"Jusho":"山形県鶴岡市湯野浜1丁目1-7",
"Capacity":"223",
"la":"38.77982200000",
"ln":"139.75168300000"
},
"geometry":{
"type":"Point",
"coordinates":[
139.751683,
38.779822
]
}
},
{
"type":"Feature",
"properties":{
"Name":"湯野浜サンクス駐車場",
"Jusho":"山形県鶴岡市",
"Capacity":"－",
"la":"38.78569237940",
"ln":"139.75887903800"
},
"geometry":{
"type":"Point",
"coordinates":[
139.758879038,
38.7856923794
]
}
},
{
"type":"Feature",
"properties":{
"Name":"湯野浜温泉神社",
"Jusho":"山形県鶴岡市",
"Capacity":"－",
"la":"38.77615291170",
"ln":"139.75091159300"
},
"geometry":{
"type":"Point",
"coordinates":[
139.750911593,
38.7761529117
]
}
},
{
"type":"Feature",
"properties":{
"Name":"藤島こども広場",
"Jusho":"山形県鶴岡市藤島字向楯跡65－",
"Capacity":"2350",
"la":"38.77070138000",
"ln":"139.89771106000"
},
"geometry":{
"type":"Point",
"coordinates":[
139.89771106,
38.77070138
]
}
},
{
"type":"Feature",
"properties":{
"Name":"藤島ふれあいセンター",
"Jusho":"山形県鶴岡市藤島字古楯跡94－",
"Capacity":"60",
"la":"38.76731299910",
"ln":"139.90089000000"
},
"geometry":{
"type":"Point",
"coordinates":[
139.90089,
38.7673129991
]
}
},
{
"type":"Feature",
"properties":{
"Name":"藤島公民館",
"Jusho":"山形県鶴岡市藤島字笹花73",
"Capacity":"174",
"la":"38.76829100000",
"ln":"139.90478900000"
},
"geometry":{
"type":"Point",
"coordinates":[
139.904789,
38.768291
]
}
},
{
"type":"Feature",
"properties":{
"Name":"藤島体育館",
"Jusho":"山形県鶴岡市藤の花1丁目1－",
"Capacity":"490",
"la":"38.77051500000",
"ln":"139.90781100000"
},
"geometry":{
"type":"Point",
"coordinates":[
139.907811,
38.770515
]
}
},
{
"type":"Feature",
"properties":{
"Name":"藤島農村環境改善センター",
"Jusho":"山形県鶴岡市添川字新地315",
"Capacity":"169",
"la":"38.73664900000",
"ln":"139.96040300000"
},
"geometry":{
"type":"Point",
"coordinates":[
139.960403,
38.736649
]
}
},
{
"type":"Feature",
"properties":{
"Name":"藤島農村環境改善センター運動広場",
"Jusho":"山形県鶴岡市添川字新地307",
"Capacity":"9950",
"la":"38.73642042820",
"ln":"139.95995000600"
},
"geometry":{
"type":"Point",
"coordinates":[
139.959950006,
38.7364204282
]
}
},
{
"type":"Feature",
"properties":{
"Name":"峠ノ山集会センター",
"Jusho":"山形県鶴岡市小国字西山57－4",
"Capacity":"99",
"la":"38.58974100000",
"ln":"139.61762400000"
},
"geometry":{
"type":"Point",
"coordinates":[
139.617624,
38.589741
]
}
},
{
"type":"Feature",
"properties":{
"Name":"鳶ヶ坂トンネル付近",
"Jusho":"山形県鶴岡市",
"Capacity":"－",
"la":"38.67275183190",
"ln":"139.61656749700"
},
"geometry":{
"type":"Point",
"coordinates":[
139.616567497,
38.6727518319
]
}
},
{
"type":"Feature",
"properties":{
"Name":"内川河川緑地",
"Jusho":"山形県鶴岡市泉町9－",
"Capacity":"10300",
"la":"38.72963205360",
"ln":"139.83173026400"
},
"geometry":{
"type":"Point",
"coordinates":[
139.831730264,
38.7296320536
]
}
},
{
"type":"Feature",
"properties":{
"Name":"鍋倉集会センター",
"Jusho":"山形県鶴岡市鼠ヶ関字鍋倉82",
"Capacity":"97",
"la":"38.54912100000",
"ln":"139.59123200000"
},
"geometry":{
"type":"Point",
"coordinates":[
139.591232,
38.549121
]
}
},
{
"type":"Feature",
"properties":{
"Name":"南部地区構造改善センター",
"Jusho":"山形県鶴岡市渡前字中屋敷28",
"Capacity":"333",
"la":"38.75305265670",
"ln":"139.88688914500"
},
"geometry":{
"type":"Point",
"coordinates":[
139.886889145,
38.7530526567
]
}
},
{
"type":"Feature",
"properties":{
"Name":"南部保育園庭",
"Jusho":"山形県鶴岡市美原町13-33",
"Capacity":"1050",
"la":"38.71858400000",
"ln":"139.81864200000"
},
"geometry":{
"type":"Point",
"coordinates":[
139.818642,
38.718584
]
}
},
{
"type":"Feature",
"properties":{
"Name":"日枝神社",
"Jusho":"山形県鶴岡市山王町2",
"Capacity":"3950",
"la":"38.73282543360",
"ln":"139.83496964500"
},
"geometry":{
"type":"Point",
"coordinates":[
139.834969645,
38.7328254336
]
}
},
{
"type":"Feature",
"properties":{
"Name":"日枝神社",
"Jusho":"山形県鶴岡市日枝字宮脇3",
"Capacity":"300",
"la":"38.71191307290",
"ln":"139.82261948100"
},
"geometry":{
"type":"Point",
"coordinates":[
139.822619481,
38.7119130729
]
}
},
{
"type":"Feature",
"properties":{
"Name":"念珠の松庭園",
"Jusho":"山形県鶴岡市鼠ヶ関字興屋87",
"Capacity":"900",
"la":"38.55884400000",
"ln":"139.54170200000"
},
"geometry":{
"type":"Point",
"coordinates":[
139.541702,
38.558844
]
}
},
{
"type":"Feature",
"properties":{
"Name":"農村センター",
"Jusho":"山形県鶴岡市矢馳字上矢馳259-2",
"Capacity":"272",
"la":"38.72672593800",
"ln":"139.77863223700"
},
"geometry":{
"type":"Point",
"coordinates":[
139.778632237,
38.726725938
]
}
},
{
"type":"Feature",
"properties":{
"Name":"波渡崎トンネル入口",
"Jusho":"山形県鶴岡市",
"Capacity":"－",
"la":"38.68547503670",
"ln":"139.62741026400"
},
"geometry":{
"type":"Point",
"coordinates":[
139.627410264,
38.6854750367
]
}
},
{
"type":"Feature",
"properties":{
"Name":"馬渡地区広場",
"Jusho":"山形県鶴岡市馬渡字道東157-5",
"Capacity":"2350",
"la":"38.69119250560",
"ln":"139.86671984500"
},
"geometry":{
"type":"Point",
"coordinates":[
139.866719845,
38.6911925056
]
}
},
{
"type":"Feature",
"properties":{
"Name":"八栄島公民館",
"Jusho":"山形県鶴岡市八色木字西野102",
"Capacity":"138",
"la":"38.78791400000",
"ln":"139.89915615500"
},
"geometry":{
"type":"Point",
"coordinates":[
139.899156155,
38.787914
]
}
},
{
"type":"Feature",
"properties":{
"Name":"八乙女分譲地",
"Jusho":"山形県鶴岡市",
"Capacity":"－",
"la":"38.72326748010",
"ln":"139.69192301600"
},
"geometry":{
"type":"Point",
"coordinates":[
139.691923016,
38.7232674801
]
}
},
{
"type":"Feature",
"properties":{
"Name":"八幡神社（合祀の宮）",
"Jusho":"山形県鶴岡市",
"Capacity":"－",
"la":"38.72065305500",
"ln":"139.68641480800"
},
"geometry":{
"type":"Point",
"coordinates":[
139.686414808,
38.720653055
]
}
},
{
"type":"Feature",
"properties":{
"Name":"板井川地区広場",
"Jusho":"山形県鶴岡市板井川字宮の下55",
"Capacity":"750",
"la":"38.64177700000",
"ln":"139.84177080900"
},
"geometry":{
"type":"Point",
"coordinates":[
139.841770809,
38.641777
]
}
},
{
"type":"Feature",
"properties":{
"Name":"繁岡公民館",
"Jusho":"山形県鶴岡市大鳥字繁岡242",
"Capacity":"68",
"la":"38.47438800000",
"ln":"139.76709236200"
},
"geometry":{
"type":"Point",
"coordinates":[
139.767092362,
38.474388
]
}
},
{
"type":"Feature",
"properties":{
"Name":"浜中公民館",
"Jusho":"山形県鶴岡市大岩川字沢山767",
"Capacity":"86",
"la":"38.60433913720",
"ln":"139.57623610000"
},
"geometry":{
"type":"Point",
"coordinates":[
139.5762361,
38.6043391372
]
}
},
{
"type":"Feature",
"properties":{
"Name":"福栄保育園",
"Jusho":"山形県鶴岡市木野俣字前川原7－",
"Capacity":"128",
"la":"38.56258800000",
"ln":"139.68774300000"
},
"geometry":{
"type":"Point",
"coordinates":[
139.687743,
38.562588
]
}
},
{
"type":"Feature",
"properties":{
"Name":"平沢公民館",
"Jusho":"山形県鶴岡市小名部字平沢176",
"Capacity":"46",
"la":"38.53680290140",
"ln":"139.63032669600"
},
"geometry":{
"type":"Point",
"coordinates":[
139.630326696,
38.5368029014
]
}
},
{
"type":"Feature",
"properties":{
"Name":"平畑",
"Jusho":"山形県鶴岡市",
"Capacity":"－",
"la":"38.68747552140",
"ln":"139.64160609800"
},
"geometry":{
"type":"Point",
"coordinates":[
139.641606098,
38.6874755214
]
}
},
{
"type":"Feature",
"properties":{
"Name":"暮坪公民館",
"Jusho":"山形県鶴岡市温海字暮坪27",
"Capacity":"81",
"la":"38.64544885070",
"ln":"139.59685971100"
},
"geometry":{
"type":"Point",
"coordinates":[
139.596859711,
38.6454488507
]
}
},
{
"type":"Feature",
"properties":{
"Name":"宝泉寺",
"Jusho":"山形県鶴岡市",
"Capacity":"－",
"la":"38.65845708820",
"ln":"139.60602928200"
},
"geometry":{
"type":"Point",
"coordinates":[
139.606029282,
38.6584570882
]
}
},
{
"type":"Feature",
"properties":{
"Name":"宝谷地区広場",
"Jusho":"山形県鶴岡市宝谷字舞台192",
"Capacity":"2350",
"la":"38.64385985450",
"ln":"139.89705969700"
},
"geometry":{
"type":"Point",
"coordinates":[
139.897059697,
38.6438598545
]
}
},
{
"type":"Feature",
"properties":{
"Name":"北野公民館",
"Jusho":"山形県鶴岡市東岩本字北野29-2",
"Capacity":"57",
"la":"38.63191407490",
"ln":"139.85847214500"
},
"geometry":{
"type":"Point",
"coordinates":[
139.858472145,
38.6319140749
]
}
},
{
"type":"Feature",
"properties":{
"Name":"槙代公民館",
"Jusho":"山形県鶴岡市槙代字内沢98-2",
"Capacity":"137",
"la":"38.59086000000",
"ln":"139.60423000000"
},
"geometry":{
"type":"Point",
"coordinates":[
139.60423,
38.59086
]
}
},
{
"type":"Feature",
"properties":{
"Name":"鱒淵公民館",
"Jusho":"山形県鶴岡市荒沢字鱒淵119",
"Capacity":"33",
"la":"38.50186065010",
"ln":"139.80168372500"
},
"geometry":{
"type":"Point",
"coordinates":[
139.801683725,
38.5018606501
]
}
},
{
"type":"Feature",
"properties":{
"Name":"満光園駐車場",
"Jusho":"山形県鶴岡市",
"Capacity":"－",
"la":"38.78058647800",
"ln":"139.75800892500"
},
"geometry":{
"type":"Point",
"coordinates":[
139.758008925,
38.780586478
]
}
},
{
"type":"Feature",
"properties":{
"Name":"妙定寺下",
"Jusho":"山形県鶴岡市",
"Capacity":"－",
"la":"38.75993425150",
"ln":"139.73835484700"
},
"geometry":{
"type":"Point",
"coordinates":[
139.738354847,
38.7599342515
]
}
},
{
"type":"Feature",
"properties":{
"Name":"木野俣集落センター",
"Jusho":"山形県鶴岡市木野俣字木野俣241-5",
"Capacity":"168",
"la":"38.56693006390",
"ln":"139.69064548400"
},
"geometry":{
"type":"Point",
"coordinates":[
139.690645484,
38.5669300639
]
}
},
{
"type":"Feature",
"properties":{
"Name":"野中公民館",
"Jusho":"山形県鶴岡市東岩本字野中83",
"Capacity":"33",
"la":"38.62686500000",
"ln":"139.85042700000"
},
"geometry":{
"type":"Point",
"coordinates":[
139.850427,
38.626865
]
}
},
{
"type":"Feature",
"properties":{
"Name":"友愛の森広場",
"Jusho":"山形県鶴岡市大岩川字黒岩27",
"Capacity":"7150",
"la":"38.60449152060",
"ln":"139.59167166400"
},
"geometry":{
"type":"Point",
"coordinates":[
139.591671664,
38.6044915206
]
}
},
{
"type":"Feature",
"properties":{
"Name":"由良コミュニティセンター",
"Jusho":"山形県鶴岡市由良2丁目14-53",
"Capacity":"82",
"la":"38.72112700000",
"ln":"139.68546700000"
},
"geometry":{
"type":"Point",
"coordinates":[
139.685467,
38.721127
]
}
},
{
"type":"Feature",
"properties":{
"Name":"楯山",
"Jusho":"山形県鶴岡市",
"Capacity":"－",
"la":"38.71865474080",
"ln":"139.68568081700"
},
"geometry":{
"type":"Point",
"coordinates":[
139.685680817,
38.7186547408
]
}
},
{
"type":"Feature",
"properties":{
"Name":"遊園地",
"Jusho":"山形県鶴岡市",
"Capacity":"－",
"la":"38.57332455010",
"ln":"139.55657996100"
},
"geometry":{
"type":"Point",
"coordinates":[
139.556579961,
38.5733245501
]
}
},
{
"type":"Feature",
"properties":{
"Name":"立岩公民館",
"Jusho":"山形県鶴岡市越中山字立岩76－",
"Capacity":"49",
"la":"38.60832371350",
"ln":"139.84177413000"
},
"geometry":{
"type":"Point",
"coordinates":[
139.84177413,
38.6083237135
]
}
},
{
"type":"Feature",
"properties":{
"Name":"龍川寺",
"Jusho":"山形県鶴岡市",
"Capacity":"－",
"la":"38.60259300000",
"ln":"139.57150600000"
},
"geometry":{
"type":"Point",
"coordinates":[
139.571506,
38.602593
]
}
},
{
"type":"Feature",
"properties":{
"Name":"鈴公民館",
"Jusho":"山形県鶴岡市五十川字黒滝34",
"Capacity":"76",
"la":"38.65907573630",
"ln":"139.60620282500"
},
"geometry":{
"type":"Point",
"coordinates":[
139.606202825,
38.6590757363
]
}
},
{
"type":"Feature",
"properties":{
"Name":"鈴公民館裏",
"Jusho":"山形県鶴岡市",
"Capacity":"－",
"la":"38.65919479390",
"ln":"139.60625602800"
},
"geometry":{
"type":"Point",
"coordinates":[
139.606256028,
38.6591947939
]
}
},
{
"type":"Feature",
"properties":{
"Name":"旧酒田工業高等学校",
"Jusho":"山形県酒田市宮海字新林400",
"Capacity":"－",
"la":"38.95202900000",
"ln":"139.84163300000"
},
"geometry":{
"type":"Point",
"coordinates":[
139.841633,
38.952029
]
}
},
{
"type":"Feature",
"properties":{
"Name":"旧酒田北高等学校",
"Jusho":"山形県酒田市宮海字明治1",
"Capacity":"－",
"la":"38.95036300000",
"ln":"139.84302200000"
},
"geometry":{
"type":"Point",
"coordinates":[
139.843022,
38.950363
]
}
},
{
"type":"Feature",
"properties":{
"Name":"勤労者体育センター",
"Jusho":"山形県酒田市緑町19－5",
"Capacity":"－",
"la":"38.91018400000",
"ln":"139.85156700000"
},
"geometry":{
"type":"Point",
"coordinates":[
139.851567,
38.910184
]
}
},
{
"type":"Feature",
"properties":{
"Name":"勤労者福祉センター",
"Jusho":"山形県酒田市緑町19－0",
"Capacity":"－",
"la":"38.91067899910",
"ln":"139.85179800000"
},
"geometry":{
"type":"Point",
"coordinates":[
139.851798,
38.9106789991
]
}
},
{
"type":"Feature",
"properties":{
"Name":"港南学区コミュニティ防災センター",
"Jusho":"山形県酒田市入船町3－5",
"Capacity":"－",
"la":"38.90726100000",
"ln":"139.83194900000"
},
"geometry":{
"type":"Point",
"coordinates":[
139.831949,
38.907261
]
}
},
{
"type":"Feature",
"properties":{
"Name":"市体育館",
"Jusho":"山形県酒田市入船町3-20",
"Capacity":"－",
"la":"38.90696400000",
"ln":"139.83147100000"
},
"geometry":{
"type":"Point",
"coordinates":[
139.831471,
38.906964
]
}
},
{
"type":"Feature",
"properties":{
"Name":"若浜学区コミュニティ防災センター",
"Jusho":"山形県酒田市若浜町1-48",
"Capacity":"－",
"la":"38.91365300000",
"ln":"139.84817000000"
},
"geometry":{
"type":"Point",
"coordinates":[
139.84817,
38.913653
]
}
},
{
"type":"Feature",
"properties":{
"Name":"酒田光陵高等学校",
"Jusho":"山形県酒田市北千日町堂前字松境7-3",
"Capacity":"－",
"la":"38.93236459290",
"ln":"139.83442965600"
},
"geometry":{
"type":"Point",
"coordinates":[
139.834429656,
38.9323645929
]
}
},
{
"type":"Feature",
"properties":{
"Name":"酒田市武道館",
"Jusho":"山形県酒田市新町光ケ丘33-26",
"Capacity":"－",
"la":"38.93306200000",
"ln":"139.83314000000"
},
"geometry":{
"type":"Point",
"coordinates":[
139.83314,
38.933062
]
}
},
{
"type":"Feature",
"properties":{
"Name":"酒田西高等学校",
"Jusho":"山形県酒田市東泉町5-9-5",
"Capacity":"－",
"la":"38.93350700000",
"ln":"139.85141800000"
},
"geometry":{
"type":"Point",
"coordinates":[
139.851418,
38.933507
]
}
},
{
"type":"Feature",
"properties":{
"Name":"酒田西高等学校定時制校舎体育館",
"Jusho":"山形県酒田市北新町一丁目1-57",
"Capacity":"－",
"la":"38.92318641410",
"ln":"139.83304194500"
},
"geometry":{
"type":"Point",
"coordinates":[
139.833041945,
38.9231864141
]
}
},
{
"type":"Feature",
"properties":{
"Name":"酒田東高等学校",
"Jusho":"山形県酒田市亀ケ崎一丁目3-60",
"Capacity":"－",
"la":"38.90953300000",
"ln":"139.84163400000"
},
"geometry":{
"type":"Point",
"coordinates":[
139.841634,
38.909533
]
}
},
{
"type":"Feature",
"properties":{
"Name":"酒田南高等学校",
"Jusho":"山形県酒田市南千日町4-50",
"Capacity":"－",
"la":"38.92565980620",
"ln":"139.83841598000"
},
"geometry":{
"type":"Point",
"coordinates":[
139.83841598,
38.9256598062
]
}
},
{
"type":"Feature",
"properties":{
"Name":"松陵学区コミュニティ防災センター",
"Jusho":"山形県酒田市光ケ丘三丁目1－",
"Capacity":"－",
"la":"38.93179500000",
"ln":"139.83247300000"
},
"geometry":{
"type":"Point",
"coordinates":[
139.832473,
38.931795
]
}
},
{
"type":"Feature",
"properties":{
"Name":"新堀コミュニティ防災センター",
"Jusho":"山形県酒田市木川字アラコウヤ34",
"Capacity":"－",
"la":"38.86842800000",
"ln":"139.87698800000"
},
"geometry":{
"type":"Point",
"coordinates":[
139.876988,
38.868428
]
}
},
{
"type":"Feature",
"properties":{
"Name":"親子スポーツ会館",
"Jusho":"山形県酒田市光ケ丘二丁目1-27",
"Capacity":"－",
"la":"38.92558792500",
"ln":"139.83091218900"
},
"geometry":{
"type":"Point",
"coordinates":[
139.830912189,
38.925587925
]
}
},
{
"type":"Feature",
"properties":{
"Name":"西荒瀬コミュニティ防災センター",
"Jusho":"山形県酒田市宮海字新林660",
"Capacity":"－",
"la":"38.96201200000",
"ln":"139.85093400000"
},
"geometry":{
"type":"Point",
"coordinates":[
139.850934,
38.962012
]
}
},
{
"type":"Feature",
"properties":{
"Name":"泉学区コミュニティ防災センター",
"Jusho":"山形県酒田市ゆたか二丁目2－1",
"Capacity":"－",
"la":"38.93666700000",
"ln":"139.84466100000"
},
"geometry":{
"type":"Point",
"coordinates":[
139.844661,
38.936667
]
}
},
{
"type":"Feature",
"properties":{
"Name":"総合文化センター",
"Jusho":"山形県酒田市中央西町2-59",
"Capacity":"－",
"la":"38.92118837010",
"ln":"139.83713436300"
},
"geometry":{
"type":"Point",
"coordinates":[
139.837134363,
38.9211883701
]
}
},
{
"type":"Feature",
"properties":{
"Name":"琢成学区コミュニティ防災センター",
"Jusho":"山形県酒田市北新町一丁目1-60",
"Capacity":"－",
"la":"38.92279100000",
"ln":"139.83353800000"
},
"geometry":{
"type":"Point",
"coordinates":[
139.833538,
38.922791
]
}
},
{
"type":"Feature",
"properties":{
"Name":"天真学園高等学校",
"Jusho":"山形県酒田市浜田一丁目3-47",
"Capacity":"－",
"la":"38.91786600000",
"ln":"139.84774400000"
},
"geometry":{
"type":"Point",
"coordinates":[
139.847744,
38.917866
]
}
},
{
"type":"Feature",
"properties":{
"Name":"東禅寺コミュニティ防災センター",
"Jusho":"山形県酒田市みずほ二丁目8-7",
"Capacity":"－",
"la":"38.90365100000",
"ln":"139.85110900000"
},
"geometry":{
"type":"Point",
"coordinates":[
139.851109,
38.903651
]
}
},
{
"type":"Feature",
"properties":{
"Name":"浜田学区コミュニティ防災センター",
"Jusho":"山形県酒田市浜田一丁目10-3",
"Capacity":"－",
"la":"38.91699100000",
"ln":"139.84546800000"
},
"geometry":{
"type":"Point",
"coordinates":[
139.845468,
38.916991
]
}
},
{
"type":"Feature",
"properties":{
"Name":"富士見学区コミュニティ防災センター",
"Jusho":"山形県酒田市曙町二丁目68-3",
"Capacity":"－",
"la":"38.91907500000",
"ln":"139.86383000000"
},
"geometry":{
"type":"Point",
"coordinates":[
139.86383,
38.919075
]
}
},
{
"type":"Feature",
"properties":{
"Name":"あたご町公民館",
"Jusho":"山形県新庄市",
"Capacity":"－",
"la":"38.77799123170",
"ln":"140.27073962000"
},
"geometry":{
"type":"Point",
"coordinates":[
140.27073962,
38.7779912317
]
}
},
{
"type":"Feature",
"properties":{
"Name":"ふるさと歴史センター",
"Jusho":"山形県新庄市",
"Capacity":"－",
"la":"38.76695600000",
"ln":"140.29659900000"
},
"geometry":{
"type":"Point",
"coordinates":[
140.296599,
38.766956
]
}
},
{
"type":"Feature",
"properties":{
"Name":"わくわく新庄",
"Jusho":"山形県新庄市下金沢町15番11号",
"Capacity":"－",
"la":"38.75485600000",
"ln":"140.30018600000"
},
"geometry":{
"type":"Point",
"coordinates":[
140.300186,
38.754856
]
}
},
{
"type":"Feature",
"properties":{
"Name":"芦沢公民館",
"Jusho":"山形県新庄市角沢芦沢901－",
"Capacity":"－",
"la":"38.71235300000",
"ln":"140.27495200000"
},
"geometry":{
"type":"Point",
"coordinates":[
140.274952,
38.712353
]
}
},
{
"type":"Feature",
"properties":{
"Name":"駅前ふれあい広場",
"Jusho":"山形県新庄市多門町1146-4",
"Capacity":"－",
"la":"38.76131265560",
"ln":"140.30562326300"
},
"geometry":{
"type":"Point",
"coordinates":[
140.305623263,
38.7613126556
]
}
},
{
"type":"Feature",
"properties":{
"Name":"塩野公民館",
"Jusho":"山形県新庄市",
"Capacity":"－",
"la":"38.82861611680",
"ln":"140.34380455000"
},
"geometry":{
"type":"Point",
"coordinates":[
140.34380455,
38.8286161168
]
}
},
{
"type":"Feature",
"properties":{
"Name":"横根山運動広場",
"Jusho":"山形県新庄市大字泉田字高台新田4102－8",
"Capacity":"－",
"la":"38.81726056030",
"ln":"140.31795516900"
},
"geometry":{
"type":"Point",
"coordinates":[
140.317955169,
38.8172605603
]
}
},
{
"type":"Feature",
"properties":{
"Name":"屋内ゲートボール場",
"Jusho":"山形県新庄市十日町字小檜室2628-3",
"Capacity":"－",
"la":"38.77099247390",
"ln":"140.29211373800"
},
"geometry":{
"type":"Point",
"coordinates":[
140.292113738,
38.7709924739
]
}
},
{
"type":"Feature",
"properties":{
"Name":"休場公民館",
"Jusho":"山形県新庄市鳥越休場1845－",
"Capacity":"－",
"la":"38.74712500000",
"ln":"140.34517500000"
},
"geometry":{
"type":"Point",
"coordinates":[
140.345175,
38.747125
]
}
},
{
"type":"Feature",
"properties":{
"Name":"旧日新小柏木山分校跡地",
"Jusho":"山形県新庄市鳥越柏木山2675",
"Capacity":"－",
"la":"38.71349517220",
"ln":"140.31248754100"
},
"geometry":{
"type":"Point",
"coordinates":[
140.312487541,
38.7134951722
]
}
},
{
"type":"Feature",
"properties":{
"Name":"駒場公民館",
"Jusho":"山形県新庄市鳥越駒場1812-44",
"Capacity":"－",
"la":"38.73421400000",
"ln":"140.31426500000"
},
"geometry":{
"type":"Point",
"coordinates":[
140.314265,
38.734214
]
}
},
{
"type":"Feature",
"properties":{
"Name":"県立新庄神室産業高等学校",
"Jusho":"山形県新庄市松本370",
"Capacity":"－",
"la":"38.74873100000",
"ln":"140.29826400000"
},
"geometry":{
"type":"Point",
"coordinates":[
140.298264,
38.748731
]
}
},
{
"type":"Feature",
"properties":{
"Name":"県立新庄南高等学校",
"Jusho":"山形県新庄市城南町5-5",
"Capacity":"－",
"la":"38.76400700000",
"ln":"140.29354200000"
},
"geometry":{
"type":"Point",
"coordinates":[
140.293542,
38.764007
]
}
},
{
"type":"Feature",
"properties":{
"Name":"県立新庄北高等学校",
"Jusho":"山形県新庄市飛田字備前川61",
"Capacity":"－",
"la":"38.76484000000",
"ln":"140.28493100000"
},
"geometry":{
"type":"Point",
"coordinates":[
140.284931,
38.76484
]
}
},
{
"type":"Feature",
"properties":{
"Name":"県立新庄養護学校",
"Jusho":"山形県新庄市金沢字金沢山1894-4",
"Capacity":"－",
"la":"38.75048000000",
"ln":"140.31738500000"
},
"geometry":{
"type":"Point",
"coordinates":[
140.317385,
38.75048
]
}
},
{
"type":"Feature",
"properties":{
"Name":"市テニスコート（東山）",
"Jusho":"山形県新庄市",
"Capacity":"－",
"la":"38.76061640490",
"ln":"140.31601208200"
},
"geometry":{
"type":"Point",
"coordinates":[
140.316012082,
38.7606164049
]
}
},
{
"type":"Feature",
"properties":{
"Name":"市体育館（東山）",
"Jusho":"山形県新庄市金沢字金沢山3072番地の2",
"Capacity":"－",
"la":"38.75831100000",
"ln":"140.31972600000"
},
"geometry":{
"type":"Point",
"coordinates":[
140.319726,
38.758311
]
}
},
{
"type":"Feature",
"properties":{
"Name":"市民プラザ",
"Jusho":"山形県新庄市大手町1番60号",
"Capacity":"－",
"la":"38.76606000000",
"ln":"140.29957800000"
},
"geometry":{
"type":"Point",
"coordinates":[
140.299578,
38.76606
]
}
},
{
"type":"Feature",
"properties":{
"Name":"市民球場（東山）",
"Jusho":"山形県新庄市",
"Capacity":"－",
"la":"38.75946734940",
"ln":"140.31591959100"
},
"geometry":{
"type":"Point",
"coordinates":[
140.315919591,
38.7594673494
]
}
},
{
"type":"Feature",
"properties":{
"Name":"市民文化会館",
"Jusho":"山形県新庄市堀端町4番地",
"Capacity":"－",
"la":"38.76776300000",
"ln":"140.29648100000"
},
"geometry":{
"type":"Point",
"coordinates":[
140.296481,
38.767763
]
}
},
{
"type":"Feature",
"properties":{
"Name":"市野々公民館",
"Jusho":"山形県新庄市",
"Capacity":"－",
"la":"38.74804396690",
"ln":"140.32745449400"
},
"geometry":{
"type":"Point",
"coordinates":[
140.327454494,
38.7480439669
]
}
},
{
"type":"Feature",
"properties":{
"Name":"私立新庄東高等学校",
"Jusho":"山形県新庄市松本596",
"Capacity":"－",
"la":"38.74428700000",
"ln":"140.29159800000"
},
"geometry":{
"type":"Point",
"coordinates":[
140.291598,
38.744287
]
}
},
{
"type":"Feature",
"properties":{
"Name":"升形児童館",
"Jusho":"山形県新庄市升形797-6",
"Capacity":"－",
"la":"38.75228000000",
"ln":"140.23828400000"
},
"geometry":{
"type":"Point",
"coordinates":[
140.238284,
38.75228
]
}
},
{
"type":"Feature",
"properties":{
"Name":"小泉公民館",
"Jusho":"山形県新庄市",
"Capacity":"－",
"la":"38.79179500000",
"ln":"140.33399600000"
},
"geometry":{
"type":"Point",
"coordinates":[
140.333996,
38.791795
]
}
},
{
"type":"Feature",
"properties":{
"Name":"昭和活性化センター",
"Jusho":"山形県新庄市大字昭和字昭和659",
"Capacity":"－",
"la":"38.83645265010",
"ln":"140.31071299600"
},
"geometry":{
"type":"Point",
"coordinates":[
140.310712996,
38.8364526501
]
}
},
{
"type":"Feature",
"properties":{
"Name":"上野・蛇塚公民館",
"Jusho":"山形県新庄市",
"Capacity":"－",
"la":"38.75776610940",
"ln":"140.26078188800"
},
"geometry":{
"type":"Point",
"coordinates":[
140.260781888,
38.7577661094
]
}
},
{
"type":"Feature",
"properties":{
"Name":"仁田山公民館",
"Jusho":"山形県新庄市萩野仁田山3032-9",
"Capacity":"－",
"la":"38.82733300000",
"ln":"140.36396500000"
},
"geometry":{
"type":"Point",
"coordinates":[
140.363965,
38.827333
]
}
},
{
"type":"Feature",
"properties":{
"Name":"清水公民館",
"Jusho":"山形県新庄市角沢清水4912",
"Capacity":"－",
"la":"38.71942600000",
"ln":"140.27452000000"
},
"geometry":{
"type":"Point",
"coordinates":[
140.27452,
38.719426
]
}
},
{
"type":"Feature",
"properties":{
"Name":"西部運動広場",
"Jusho":"山形県新庄市",
"Capacity":"－",
"la":"38.77966881980",
"ln":"140.28749535500"
},
"geometry":{
"type":"Point",
"coordinates":[
140.287495355,
38.7796688198
]
}
},
{
"type":"Feature",
"properties":{
"Name":"雪の里情報館",
"Jusho":"山形県新庄市石川町4－5",
"Capacity":"－",
"la":"38.77097800000",
"ln":"140.29722500000"
},
"geometry":{
"type":"Point",
"coordinates":[
140.297225,
38.770978
]
}
},
{
"type":"Feature",
"properties":{
"Name":"泉田保育所",
"Jusho":"山形県新庄市大字泉田字往環東460",
"Capacity":"－",
"la":"38.81150200000",
"ln":"140.32639800000"
},
"geometry":{
"type":"Point",
"coordinates":[
140.326398,
38.811502
]
}
},
{
"type":"Feature",
"properties":{
"Name":"前波公民館",
"Jusho":"山形県新庄市升形前波1568-8",
"Capacity":"－",
"la":"38.74982400000",
"ln":"140.20864700000"
},
"geometry":{
"type":"Point",
"coordinates":[
140.208647,
38.749824
]
}
},
{
"type":"Feature",
"properties":{
"Name":"滝の倉公民館",
"Jusho":"山形県新庄市滝の倉5105-9",
"Capacity":"－",
"la":"38.78742200000",
"ln":"140.27920900000"
},
"geometry":{
"type":"Point",
"coordinates":[
140.279209,
38.787422
]
}
},
{
"type":"Feature",
"properties":{
"Name":"中川原公民館",
"Jusho":"山形県新庄市十日町中川原170",
"Capacity":"－",
"la":"38.79567900000",
"ln":"140.30421000000"
},
"geometry":{
"type":"Point",
"coordinates":[
140.30421,
38.795679
]
}
},
{
"type":"Feature",
"properties":{
"Name":"中部保育所",
"Jusho":"山形県新庄市大手町2-76",
"Capacity":"－",
"la":"38.76664600000",
"ln":"140.29837500000"
},
"geometry":{
"type":"Point",
"coordinates":[
140.298375,
38.766646
]
}
},
{
"type":"Feature",
"properties":{
"Name":"鳥越公民館",
"Jusho":"山形県新庄市",
"Capacity":"－",
"la":"38.74116183080",
"ln":"140.31519424600"
},
"geometry":{
"type":"Point",
"coordinates":[
140.315194246,
38.7411618308
]
}
},
{
"type":"Feature",
"properties":{
"Name":"東山スポーツハウス",
"Jusho":"山形県新庄市金沢3070番地の7",
"Capacity":"－",
"la":"38.75785800000",
"ln":"140.31847100000"
},
"geometry":{
"type":"Point",
"coordinates":[
140.318471,
38.757858
]
}
},
{
"type":"Feature",
"properties":{
"Name":"南部保育所",
"Jusho":"山形県新庄市下金沢町2-34",
"Capacity":"－",
"la":"38.75653600000",
"ln":"140.30254200000"
},
"geometry":{
"type":"Point",
"coordinates":[
140.302542,
38.756536
]
}
},
{
"type":"Feature",
"properties":{
"Name":"二ツ屋公民館",
"Jusho":"山形県新庄市鳥越二ツ屋2822-85",
"Capacity":"－",
"la":"38.72325900000",
"ln":"140.31716100000"
},
"geometry":{
"type":"Point",
"coordinates":[
140.317161,
38.723259
]
}
},
{
"type":"Feature",
"properties":{
"Name":"二枚橋公民館",
"Jusho":"山形県新庄市萩野二枚橋158",
"Capacity":"－",
"la":"38.84113900000",
"ln":"140.35360100000"
},
"geometry":{
"type":"Point",
"coordinates":[
140.353601,
38.841139
]
}
},
{
"type":"Feature",
"properties":{
"Name":"乳幼児保育所",
"Jusho":"山形県新庄市若葉町14-2",
"Capacity":"－",
"la":"38.76128500000",
"ln":"140.30218000000"
},
"geometry":{
"type":"Point",
"coordinates":[
140.30218,
38.761285
]
}
},
{
"type":"Feature",
"properties":{
"Name":"農村環境改善センター",
"Jusho":"山形県新庄市金沢字西の山3028番5",
"Capacity":"－",
"la":"38.76996200000",
"ln":"140.33715000000"
},
"geometry":{
"type":"Point",
"coordinates":[
140.33715,
38.769962
]
}
},
{
"type":"Feature",
"properties":{
"Name":"萩野児童センター",
"Jusho":"山形県新庄市大字萩野2652",
"Capacity":"－",
"la":"38.81361300000",
"ln":"140.36129600000"
},
"geometry":{
"type":"Point",
"coordinates":[
140.361296,
38.813613
]
}
},
{
"type":"Feature",
"properties":{
"Name":"萩野地区公民館",
"Jusho":"山形県新庄市泉田字泉田2番地",
"Capacity":"－",
"la":"38.81079400000",
"ln":"140.32254600000"
},
"geometry":{
"type":"Point",
"coordinates":[
140.322546,
38.810794
]
}
},
{
"type":"Feature",
"properties":{
"Name":"柏木山公民館",
"Jusho":"山形県新庄市鳥越柏木山1625-3",
"Capacity":"－",
"la":"38.70728700000",
"ln":"140.30365000000"
},
"geometry":{
"type":"Point",
"coordinates":[
140.30365,
38.707287
]
}
},
{
"type":"Feature",
"properties":{
"Name":"畑公民館",
"Jusho":"山形県新庄市本合海畑735-4",
"Capacity":"－",
"la":"38.72799700000",
"ln":"140.20901600000"
},
"geometry":{
"type":"Point",
"coordinates":[
140.209016,
38.727997
]
}
},
{
"type":"Feature",
"properties":{
"Name":"八向地区公民館",
"Jusho":"山形県新庄市本合海52番地の2",
"Capacity":"－",
"la":"38.72782600000",
"ln":"140.22732300000"
},
"geometry":{
"type":"Point",
"coordinates":[
140.227323,
38.727826
]
}
},
{
"type":"Feature",
"properties":{
"Name":"福宮公民館",
"Jusho":"山形県新庄市",
"Capacity":"－",
"la":"38.74239522870",
"ln":"140.25839666100"
},
"geometry":{
"type":"Point",
"coordinates":[
140.258396661,
38.7423952287
]
}
},
{
"type":"Feature",
"properties":{
"Name":"福田運動広場",
"Jusho":"山形県新庄市",
"Capacity":"－",
"la":"38.73541401180",
"ln":"140.27219588900"
},
"geometry":{
"type":"Point",
"coordinates":[
140.272195889,
38.7354140118
]
}
},
{
"type":"Feature",
"properties":{
"Name":"保健センター",
"Jusho":"山形県新庄市",
"Capacity":"－",
"la":"38.76607642140",
"ln":"140.29600371400"
},
"geometry":{
"type":"Point",
"coordinates":[
140.296003714,
38.7660764214
]
}
},
{
"type":"Feature",
"properties":{
"Name":"北部保育所",
"Jusho":"山形県新庄市檜町25-2",
"Capacity":"－",
"la":"38.77461700000",
"ln":"140.29531900000"
},
"geometry":{
"type":"Point",
"coordinates":[
140.295319,
38.774617
]
}
},
{
"type":"Feature",
"properties":{
"Name":"本合海児童センター",
"Jusho":"山形県新庄市大字本合海182",
"Capacity":"－",
"la":"38.72838055050",
"ln":"140.22914037500"
},
"geometry":{
"type":"Point",
"coordinates":[
140.229140375,
38.7283805505
]
}
},
{
"type":"Feature",
"properties":{
"Name":"野中公民館",
"Jusho":"山形県新庄市十日町野中4859-6",
"Capacity":"－",
"la":"38.79774500000",
"ln":"140.29233600000"
},
"geometry":{
"type":"Point",
"coordinates":[
140.292336,
38.797745
]
}
},
{
"type":"Feature",
"properties":{
"Name":"陸上競技場（東山）",
"Jusho":"山形県新庄市",
"Capacity":"－",
"la":"38.75979466570",
"ln":"140.31858434300"
},
"geometry":{
"type":"Point",
"coordinates":[
140.318584343,
38.7597946657
]
}
},
{
"type":"Feature",
"properties":{
"Name":"老人福祉センター",
"Jusho":"山形県新庄市",
"Capacity":"－",
"la":"38.76586800000",
"ln":"140.29545800000"
},
"geometry":{
"type":"Point",
"coordinates":[
140.295458,
38.765868
]
}
},
{
"type":"Feature",
"properties":{
"Name":"しばはし保育所",
"Jusho":"山形県寒河江市大字柴橋字金谷1984－",
"Capacity":"－",
"la":"38.36999700000",
"ln":"140.24206400000"
},
"geometry":{
"type":"Point",
"coordinates":[
140.242064,
38.369997
]
}
},
{
"type":"Feature",
"properties":{
"Name":"しらいわ保育所",
"Jusho":"山形県寒河江市大字白岩1296-2",
"Capacity":"－",
"la":"38.40824200000",
"ln":"140.22842400000"
},
"geometry":{
"type":"Point",
"coordinates":[
140.228424,
38.408242
]
}
},
{
"type":"Feature",
"properties":{
"Name":"たかまつ保育所",
"Jusho":"山形県寒河江市大字米沢643-2",
"Capacity":"－",
"la":"38.40068206030",
"ln":"140.24290116800"
},
"geometry":{
"type":"Point",
"coordinates":[
140.242901168,
38.4006820603
]
}
},
{
"type":"Feature",
"properties":{
"Name":"なか保育所",
"Jusho":"山形県寒河江市山岸町4－3",
"Capacity":"－",
"la":"38.37955200000",
"ln":"140.27489400000"
},
"geometry":{
"type":"Point",
"coordinates":[
140.274894,
38.379552
]
}
},
{
"type":"Feature",
"properties":{
"Name":"にしね保育所",
"Jusho":"山形県寒河江市大字西根169",
"Capacity":"－",
"la":"38.38335800000",
"ln":"140.29097600000"
},
"geometry":{
"type":"Point",
"coordinates":[
140.290976,
38.383358
]
}
},
{
"type":"Feature",
"properties":{
"Name":"みなみ保育所",
"Jusho":"山形県寒河江市大字島字島東181番地内",
"Capacity":"－",
"la":"38.35686100000",
"ln":"140.28025600000"
},
"geometry":{
"type":"Point",
"coordinates":[
140.280256,
38.356861
]
}
},
{
"type":"Feature",
"properties":{
"Name":"栄町ふれあい広場",
"Jusho":"山形県寒河江市栄町1番11号",
"Capacity":"－",
"la":"38.37008585930",
"ln":"140.27738584200"
},
"geometry":{
"type":"Point",
"coordinates":[
140.277385842,
38.3700858593
]
}
},
{
"type":"Feature",
"properties":{
"Name":"寒河江高等学校総合運動場",
"Jusho":"山形県寒河江市",
"Capacity":"－",
"la":"38.38065777500",
"ln":"140.26925353200"
},
"geometry":{
"type":"Point",
"coordinates":[
140.269253532,
38.380657775
]
}
},
{
"type":"Feature",
"properties":{
"Name":"県立寒河江工業高等学校",
"Jusho":"山形県寒河江市緑町148",
"Capacity":"－",
"la":"38.38516200000",
"ln":"140.25884000000"
},
"geometry":{
"type":"Point",
"coordinates":[
140.25884,
38.385162
]
}
},
{
"type":"Feature",
"properties":{
"Name":"県立寒河江高等学校",
"Jusho":"山形県寒河江市六供町2-3-9",
"Capacity":"－",
"la":"38.39849300000",
"ln":"140.24384000000"
},
"geometry":{
"type":"Point",
"coordinates":[
140.24384,
38.398493
]
}
},
{
"type":"Feature",
"properties":{
"Name":"県立寒河江高等学校農業校舎",
"Jusho":"山形県寒河江市高松49",
"Capacity":"－",
"la":"38.39824266750",
"ln":"140.24382797100"
},
"geometry":{
"type":"Point",
"coordinates":[
140.243827971,
38.3982426675
]
}
},
{
"type":"Feature",
"properties":{
"Name":"市民体育館",
"Jusho":"山形県寒河江市西根字石川西365",
"Capacity":"－",
"la":"38.39039100000",
"ln":"140.27539400000"
},
"geometry":{
"type":"Point",
"coordinates":[
140.275394,
38.390391
]
}
},
{
"type":"Feature",
"properties":{
"Name":"柴橋地区公民館",
"Jusho":"山形県寒河江市柴橋1988-6",
"Capacity":"－",
"la":"38.37001300000",
"ln":"140.24169000000"
},
"geometry":{
"type":"Point",
"coordinates":[
140.24169,
38.370013
]
}
},
{
"type":"Feature",
"properties":{
"Name":"西部地区公民館",
"Jusho":"山形県寒河江市清助新田930",
"Capacity":"－",
"la":"38.40519300000",
"ln":"140.23555700000"
},
"geometry":{
"type":"Point",
"coordinates":[
140.235557,
38.405193
]
}
},
{
"type":"Feature",
"properties":{
"Name":"南部地区公民館",
"Jusho":"山形県寒河江市島225",
"Capacity":"－",
"la":"38.35508300000",
"ln":"140.27905900000"
},
"geometry":{
"type":"Point",
"coordinates":[
140.279059,
38.355083
]
}
},
{
"type":"Feature",
"properties":{
"Name":"文化センター",
"Jusho":"山形県寒河江市",
"Capacity":"－",
"la":"38.38912471590",
"ln":"140.27583882400"
},
"geometry":{
"type":"Point",
"coordinates":[
140.275838824,
38.3891247159
]
}
},
{
"type":"Feature",
"properties":{
"Name":"老人福祉センター",
"Jusho":"山形県寒河江市白岩字大江寺415",
"Capacity":"－",
"la":"38.40964800000",
"ln":"140.22162500000"
},
"geometry":{
"type":"Point",
"coordinates":[
140.221625,
38.409648
]
}
},
{
"type":"Feature",
"properties":{
"Name":"あさひ保育園",
"Jusho":"山形県上山市旭町二丁目3-3",
"Capacity":"－",
"la":"38.16368500000",
"ln":"140.28717600000"
},
"geometry":{
"type":"Point",
"coordinates":[
140.287176,
38.163685
]
}
},
{
"type":"Feature",
"properties":{
"Name":"アビヤント・Ｋ駐車場",
"Jusho":"山形県上山市矢来一丁目1－",
"Capacity":"－",
"la":"38.15204747620",
"ln":"140.27801127800"
},
"geometry":{
"type":"Point",
"coordinates":[
140.278011278,
38.1520474762
]
}
},
{
"type":"Feature",
"properties":{
"Name":"ヴェンテンガルテン",
"Jusho":"山形県上山市弁天二丁目535－",
"Capacity":"－",
"la":"38.17018869510",
"ln":"140.29702991500"
},
"geometry":{
"type":"Point",
"coordinates":[
140.297029915,
38.1701886951
]
}
},