var k={
"type":"FeatureCollection",
"features":[
{
"type":"Feature",
"properties":{
"Name":"鴻ノ池運動公園",
"Jusho":"奈良県奈良市佐保山四丁目5-1",
"Capacity":"88610",
"la":"34.69849472000",
"ln":"135.82882991000"
},
"geometry":{
"type":"Point",
"coordinates":[
135.82882991,
34.69849472
]
}
},
{
"type":"Feature",
"properties":{
"Name":"黒谷公園",
"Jusho":"奈良県奈良市中町",
"Capacity":"9680",
"la":"34.67511174000",
"ln":"135.73177217000"
},
"geometry":{
"type":"Point",
"coordinates":[
135.73177217,
34.67511174
]
}
},
{
"type":"Feature",
"properties":{
"Name":"佐保山近隣公園",
"Jusho":"奈良県奈良市佐保台二丁目902番地の374",
"Capacity":"3490",
"la":"34.70692574000",
"ln":"135.81692856000"
},
"geometry":{
"type":"Point",
"coordinates":[
135.81692856,
34.70692574
]
}
},
{
"type":"Feature",
"properties":{
"Name":"西大寺近隣公園",
"Jusho":"奈良県奈良市西大寺東町一丁目",
"Capacity":"2960",
"la":"34.69674889000",
"ln":"135.78354692000"
},
"geometry":{
"type":"Point",
"coordinates":[
135.78354692,
34.69674889
]
}
},
{
"type":"Feature",
"properties":{
"Name":"青山近隣公園",
"Jusho":"奈良県奈良市青山三丁目",
"Capacity":"3460",
"la":"34.70735126000",
"ln":"135.83419720000"
},
"geometry":{
"type":"Point",
"coordinates":[
135.8341972,
34.70735126
]
}
},
{
"type":"Feature",
"properties":{
"Name":"大渕池公園",
"Jusho":"奈良県奈良市大渕町外",
"Capacity":"4870",
"la":"34.70801175790",
"ln":"135.74413653600"
},
"geometry":{
"type":"Point",
"coordinates":[
135.744136536,
34.7080117579
]
}
},
{
"type":"Feature",
"properties":{
"Name":"中登美ヶ丘近隣公園",
"Jusho":"奈良県奈良市中登美ヶ丘三丁目",
"Capacity":"4210",
"la":"34.72077625910",
"ln":"135.75034785000"
},
"geometry":{
"type":"Point",
"coordinates":[
135.75034785,
34.7207762591
]
}
},
{
"type":"Feature",
"properties":{
"Name":"登美ヶ丘近隣公園",
"Jusho":"奈良県奈良市北登美ヶ丘一丁目",
"Capacity":"1450",
"la":"34.72301875000",
"ln":"135.75426346000"
},
"geometry":{
"type":"Point",
"coordinates":[
135.75426346,
34.72301875
]
}
},
{
"type":"Feature",
"properties":{
"Name":"奈良公園",
"Jusho":"奈良県奈良市登大路町外",
"Capacity":"43290",
"la":"34.68529288000",
"ln":"135.84359610000"
},
"geometry":{
"type":"Point",
"coordinates":[
135.8435961,
34.68529288
]
}
},
{
"type":"Feature",
"properties":{
"Name":"柏木公園",
"Jusho":"奈良県奈良市柏木町255番地の1",
"Capacity":"10730",
"la":"34.66632810000",
"ln":"135.79684603000"
},
"geometry":{
"type":"Point",
"coordinates":[
135.79684603,
34.6663281
]
}
},
{
"type":"Feature",
"properties":{
"Name":"平城第１号近隣公園",
"Jusho":"奈良県奈良市左京二丁目1番地",
"Capacity":"7770",
"la":"34.71069088000",
"ln":"135.80400614000"
},
"geometry":{
"type":"Point",
"coordinates":[
135.80400614,
34.71069088
]
}
},
{
"type":"Feature",
"properties":{
"Name":"平城第２号公園",
"Jusho":"奈良県奈良市朱雀二丁目12番地",
"Capacity":"12400",
"la":"34.71881704000",
"ln":"135.79553803000"
},
"geometry":{
"type":"Point",
"coordinates":[
135.79553803,
34.71881704
]
}
},
{
"type":"Feature",
"properties":{
"Name":"平城第３号近隣公園",
"Jusho":"奈良県奈良市右京三丁目18番地",
"Capacity":"1370",
"la":"34.71898138000",
"ln":"135.78640386000"
},
"geometry":{
"type":"Point",
"coordinates":[
135.78640386,
34.71898138
]
}
},
{
"type":"Feature",
"properties":{
"Name":"総合公園コミュニティプール",
"Jusho":"奈良県大和高田市西坊城414",
"Capacity":"300",
"la":"34.49129902910",
"ln":"135.74743551000"
},
"geometry":{
"type":"Point",
"coordinates":[
135.74743551,
34.4912990291
]
}
},
{
"type":"Feature",
"properties":{
"Name":"額田部運動公園施設",
"Jusho":"奈良県大和郡山市額田部北町642",
"Capacity":"－",
"la":"34.60694154000",
"ln":"135.77617004000"
},
"geometry":{
"type":"Point",
"coordinates":[
135.77617004,
34.60694154
]
}
},
{
"type":"Feature",
"properties":{
"Name":"金魚スクエア（総合公園多目的体育館）",
"Jusho":"奈良県大和郡山市矢田山町2",
"Capacity":"－",
"la":"34.64638100000",
"ln":"135.74583500000"
},
"geometry":{
"type":"Point",
"coordinates":[
135.745835,
34.646381
]
}
},
{
"type":"Feature",
"properties":{
"Name":"城跡公園",
"Jusho":"奈良県大和郡山市城内町",
"Capacity":"－",
"la":"34.65060314910",
"ln":"135.77710947000"
},
"geometry":{
"type":"Point",
"coordinates":[
135.77710947,
34.6506031491
]
}
},
{
"type":"Feature",
"properties":{
"Name":"大和郡山市総合公園",
"Jusho":"奈良県大和郡山市矢田町",
"Capacity":"－",
"la":"34.64627335910",
"ln":"135.74592528000"
},
"geometry":{
"type":"Point",
"coordinates":[
135.74592528,
34.6462733591
]
}
},
{
"type":"Feature",
"properties":{
"Name":"長柄運動公園",
"Jusho":"奈良県天理市西長柄町595",
"Capacity":"－",
"la":"34.57512291880",
"ln":"135.81968850600"
},
"geometry":{
"type":"Point",
"coordinates":[
135.819688506,
34.5751229188
]
}
},
{
"type":"Feature",
"properties":{
"Name":"櫟本高塚公園",
"Jusho":"奈良県天理市櫟本町2608-1",
"Capacity":"－",
"la":"34.62350248000",
"ln":"135.83800642000"
},
"geometry":{
"type":"Point",
"coordinates":[
135.83800642,
34.62350248
]
}
},
{
"type":"Feature",
"properties":{
"Name":"安倍史跡公園",
"Jusho":"奈良県桜井市安倍木材団地1丁目8-6",
"Capacity":"－",
"la":"34.50158027000",
"ln":"135.83966953000"
},
"geometry":{
"type":"Point",
"coordinates":[
135.83966953,
34.50158027
]
}
},
{
"type":"Feature",
"properties":{
"Name":"桜井公園",
"Jusho":"奈良県桜井市谷565番地外",
"Capacity":"－",
"la":"34.50612476000",
"ln":"135.84545301000"
},
"geometry":{
"type":"Point",
"coordinates":[
135.84545301,
34.50612476
]
}
},
{
"type":"Feature",
"properties":{
"Name":"芝運動公園",
"Jusho":"奈良県桜井市芝32番地外",
"Capacity":"－",
"la":"34.53037112120",
"ln":"135.83950527400"
},
"geometry":{
"type":"Point",
"coordinates":[
135.839505274,
34.5303711212
]
}
},
{
"type":"Feature",
"properties":{
"Name":"朝倉台２号公園",
"Jusho":"奈良県桜井市慈恩寺1000-135、136",
"Capacity":"－",
"la":"34.51441270000",
"ln":"135.86912291000"
},
"geometry":{
"type":"Point",
"coordinates":[
135.86912291,
34.5144127
]
}
},
{
"type":"Feature",
"properties":{
"Name":"なつみ台近隣公園",
"Jusho":"奈良県五條市なつみ台1-140",
"Capacity":"－",
"la":"34.34740483000",
"ln":"135.66821472000"
},
"geometry":{
"type":"Point",
"coordinates":[
135.66821472,
34.34740483
]
}
},
{
"type":"Feature",
"properties":{
"Name":"葛城公園",
"Jusho":"奈良県御所市御所1-15",
"Capacity":"－",
"la":"34.46496342410",
"ln":"135.73948616200"
},
"geometry":{
"type":"Point",
"coordinates":[
135.739486162,
34.4649634241
]
}
},
{
"type":"Feature",
"properties":{
"Name":"市民運動公園",
"Jusho":"奈良県御所市朝町1337",
"Capacity":"－",
"la":"34.42873235530",
"ln":"135.73069251700"
},
"geometry":{
"type":"Point",
"coordinates":[
135.730692517,
34.4287323553
]
}
},
{
"type":"Feature",
"properties":{
"Name":"むかいやま公園体育館",
"Jusho":"奈良県生駒市萩原町673",
"Capacity":"－",
"la":"34.66327800000",
"ln":"135.69644700000"
},
"geometry":{
"type":"Point",
"coordinates":[
135.696447,
34.663278
]
}
},
{
"type":"Feature",
"properties":{
"Name":"総合公園体育館",
"Jusho":"奈良県生駒市小明町1807-1",
"Capacity":"－",
"la":"34.71170200000",
"ln":"135.71074600000"
},
"geometry":{
"type":"Point",
"coordinates":[
135.710746,
34.711702
]
}
},
{
"type":"Feature",
"properties":{
"Name":"旭ケ丘近隣公園",
"Jusho":"奈良県香芝市旭ケ丘2-5",
"Capacity":"－",
"la":"34.55203203000",
"ln":"135.69062952000"
},
"geometry":{
"type":"Point",
"coordinates":[
135.69062952,
34.55203203
]
}
},
{
"type":"Feature",
"properties":{
"Name":"観正山近隣公園",
"Jusho":"奈良県香芝市真美ヶ丘3-4",
"Capacity":"－",
"la":"34.53858403000",
"ln":"135.72478961000"
},
"geometry":{
"type":"Point",
"coordinates":[
135.72478961,
34.53858403
]
}
},
{
"type":"Feature",
"properties":{
"Name":"郡ヶ池近隣公園",
"Jusho":"奈良県香芝市高山台3-14-12",
"Capacity":"－",
"la":"34.54741166000",
"ln":"135.67512020000"
},
"geometry":{
"type":"Point",
"coordinates":[
135.6751202,
34.54741166
]
}
},
{
"type":"Feature",
"properties":{
"Name":"香芝総合公園",
"Jusho":"奈良県香芝市穴虫2864-1",
"Capacity":"－",
"la":"34.54650706000",
"ln":"135.66452796000"
},
"geometry":{
"type":"Point",
"coordinates":[
135.66452796,
34.54650706
]
}
},
{
"type":"Feature",
"properties":{
"Name":"高塚地区公園",
"Jusho":"奈良県香芝市真美ヶ丘6-11",
"Capacity":"－",
"la":"34.54505661000",
"ln":"135.72241151000"
},
"geometry":{
"type":"Point",
"coordinates":[
135.72241151,
34.54505661
]
}
},
{
"type":"Feature",
"properties":{
"Name":"城山児童公園",
"Jusho":"奈良県香芝市真美ヶ丘4-5",
"Capacity":"－",
"la":"34.53433544000",
"ln":"135.72646582000"
},
"geometry":{
"type":"Point",
"coordinates":[
135.72646582,
34.53433544
]
}
},
{
"type":"Feature",
"properties":{
"Name":"屋敷山公園",
"Jusho":"奈良県葛城市南藤井17",
"Capacity":"6910",
"la":"34.48613963030",
"ln":"135.71374776700"
},
"geometry":{
"type":"Point",
"coordinates":[
135.713747767,
34.4861396303
]
}
},
{
"type":"Feature",
"properties":{
"Name":"新町公園球技場",
"Jusho":"奈良県葛城市笛堂376",
"Capacity":"3240",
"la":"34.48069529150",
"ln":"135.74108159300"
},
"geometry":{
"type":"Point",
"coordinates":[
135.741081593,
34.4806952915
]
}
},
{
"type":"Feature",
"properties":{
"Name":"中央公園",
"Jusho":"奈良県生駒郡平群町若井",
"Capacity":"－",
"la":"34.62397633910",
"ln":"135.70124019000"
},
"geometry":{
"type":"Point",
"coordinates":[
135.70124019,
34.6239763391
]
}
},
{
"type":"Feature",
"properties":{
"Name":"北公園",
"Jusho":"奈良県生駒郡平群町菊美台1丁目11番",
"Capacity":"－",
"la":"34.64444917910",
"ln":"135.70776518000"
},
"geometry":{
"type":"Point",
"coordinates":[
135.70776518,
34.6444491791
]
}
},
{
"type":"Feature",
"properties":{
"Name":"みさと緑地公園",
"Jusho":"奈良県生駒郡三郷町立野北1-26-12",
"Capacity":"－",
"la":"34.59538027000",
"ln":"135.69214646000"
},
"geometry":{
"type":"Point",
"coordinates":[
135.69214646,
34.59538027
]
}
},
{
"type":"Feature",
"properties":{
"Name":"三郷中央公園",
"Jusho":"奈良県生駒郡三郷町勢野西1-2-3",
"Capacity":"－",
"la":"34.60223621230",
"ln":"135.69729823300"
},
"geometry":{
"type":"Point",
"coordinates":[
135.697298233,
34.6022362123
]
}
},
{
"type":"Feature",
"properties":{
"Name":"城山台第３児童公園",
"Jusho":"奈良県生駒郡三郷町城山台5-10-7",
"Capacity":"－",
"la":"34.60145433000",
"ln":"135.68501470000"
},
"geometry":{
"type":"Point",
"coordinates":[
135.6850147,
34.60145433
]
}
},
{
"type":"Feature",
"properties":{
"Name":"城山台第７児童公園",
"Jusho":"奈良県生駒郡三郷町城山台2-1-2",
"Capacity":"－",
"la":"34.59992421000",
"ln":"135.68857125000"
},
"geometry":{
"type":"Point",
"coordinates":[
135.68857125,
34.59992421
]
}
},
{
"type":"Feature",
"properties":{
"Name":"信貴ヶ丘児童公園",
"Jusho":"奈良県生駒郡三郷町信貴ヶ丘4-1-3",
"Capacity":"－",
"la":"34.60334784000",
"ln":"135.68919152000"
},
"geometry":{
"type":"Point",
"coordinates":[
135.68919152,
34.60334784
]
}
},
{
"type":"Feature",
"properties":{
"Name":"勢野東４丁目公園",
"Jusho":"奈良県生駒郡三郷町勢野東4-7-8",
"Capacity":"－",
"la":"34.60463162000",
"ln":"135.70285238000"
},
"geometry":{
"type":"Point",
"coordinates":[
135.70285238,
34.60463162
]
}
},
{
"type":"Feature",
"properties":{
"Name":"農住１号公園",
"Jusho":"奈良県生駒郡三郷町立野北2-16-1",
"Capacity":"－",
"la":"34.59582100000",
"ln":"135.68789831000"
},
"geometry":{
"type":"Point",
"coordinates":[
135.68789831,
34.595821
]
}
},
{
"type":"Feature",
"properties":{
"Name":"農住２号公園",
"Jusho":"奈良県生駒郡三郷町立野南2-21-20",
"Capacity":"－",
"la":"34.59230971000",
"ln":"135.68218786000"
},
"geometry":{
"type":"Point",
"coordinates":[
135.68218786,
34.59230971
]
}
},
{
"type":"Feature",
"properties":{
"Name":"農住３号公園",
"Jusho":"奈良県生駒郡三郷町立野南2-8-22",
"Capacity":"－",
"la":"34.58981494000",
"ln":"135.68648969000"
},
"geometry":{
"type":"Point",
"coordinates":[
135.68648969,
34.58981494
]
}
},
{
"type":"Feature",
"properties":{
"Name":"農住４号公園",
"Jusho":"奈良県生駒郡三郷町立野南3-11-51",
"Capacity":"－",
"la":"34.58618620000",
"ln":"135.68173109000"
},
"geometry":{
"type":"Point",
"coordinates":[
135.68173109,
34.5861862
]
}
},
{
"type":"Feature",
"properties":{
"Name":"美松ヶ丘第１児童公園",
"Jusho":"奈良県生駒郡三郷町美松ヶ丘西1-9-21",
"Capacity":"－",
"la":"34.60986961000",
"ln":"135.70059385000"
},
"geometry":{
"type":"Point",
"coordinates":[
135.70059385,
34.60986961
]
}
},
{
"type":"Feature",
"properties":{
"Name":"里ヶ丘・緑ヶ丘第１児童公園",
"Jusho":"奈良県生駒郡三郷町勢野西5-4-1",
"Capacity":"－",
"la":"34.60685553000",
"ln":"135.69013397000"
},
"geometry":{
"type":"Point",
"coordinates":[
135.69013397,
34.60685553
]
}
},
{
"type":"Feature",
"properties":{
"Name":"中央公園体育館",
"Jusho":"奈良県生駒郡安堵町窪田628-1",
"Capacity":"－",
"la":"34.59757000000",
"ln":"135.75746400000"
},
"geometry":{
"type":"Point",
"coordinates":[
135.757464,
34.59757
]
}
},
{
"type":"Feature",
"properties":{
"Name":"国営飛鳥歴史公園甘樫丘地区",
"Jusho":"奈良県高市郡明日香村豊浦",
"Capacity":"－",
"la":"34.47914400000",
"ln":"135.81496200000"
},
"geometry":{
"type":"Point",
"coordinates":[
135.814962,
34.479144
]
}
},
{
"type":"Feature",
"properties":{
"Name":"国営飛鳥歴史公園高松塚周辺地区",
"Jusho":"奈良県高市郡明日香村平田",
"Capacity":"－",
"la":"34.46389886510",
"ln":"135.80502846100"
},
"geometry":{
"type":"Point",
"coordinates":[
135.805028461,
34.4638988651
]
}
},
{
"type":"Feature",
"properties":{
"Name":"国営飛鳥歴史公園石舞台地区",
"Jusho":"奈良県高市郡明日香村島庄",
"Capacity":"－",
"la":"34.46680686580",
"ln":"135.82622296600"
},
"geometry":{
"type":"Point",
"coordinates":[
135.826222966,
34.4668068658
]
}
},
{
"type":"Feature",
"properties":{
"Name":"かつらぎ台１号公園",
"Jusho":"奈良県北葛城郡上牧町葛城台2-1200-2",
"Capacity":"－",
"la":"34.55843598000",
"ln":"135.72535239000"
},
"geometry":{
"type":"Point",
"coordinates":[
135.72535239,
34.55843598
]
}
},
{
"type":"Feature",
"properties":{
"Name":"かつらぎ台２号公園",
"Jusho":"奈良県北葛城郡上牧町葛城台3-1250-132",
"Capacity":"－",
"la":"34.55599280000",
"ln":"135.72432988000"
},
"geometry":{
"type":"Point",
"coordinates":[
135.72432988,
34.5559928
]
}
},
{
"type":"Feature",
"properties":{
"Name":"かつらぎ台３号公園",
"Jusho":"奈良県北葛城郡上牧町葛城台1-1200-102",
"Capacity":"－",
"la":"34.55795460000",
"ln":"135.72309649000"
},
"geometry":{
"type":"Point",
"coordinates":[
135.72309649,
34.5579546
]
}
},
{
"type":"Feature",
"properties":{
"Name":"ゆりが丘１号公園",
"Jusho":"奈良県北葛城郡上牧町下牧952-12",
"Capacity":"－",
"la":"34.57168049000",
"ln":"135.71968045000"
},
"geometry":{
"type":"Point",
"coordinates":[
135.71968045,
34.57168049
]
}
},
{
"type":"Feature",
"properties":{
"Name":"貴船台公園",
"Jusho":"奈良県北葛城郡上牧町上牧4116-13",
"Capacity":"－",
"la":"34.56310778000",
"ln":"135.71070338000"
},
"geometry":{
"type":"Point",
"coordinates":[
135.71070338,
34.56310778
]
}
},
{
"type":"Feature",
"properties":{
"Name":"久渡公園",
"Jusho":"奈良県北葛城郡上牧町松里園2-2",
"Capacity":"－",
"la":"34.55065888000",
"ln":"135.70975419000"
},
"geometry":{
"type":"Point",
"coordinates":[
135.70975419,
34.55065888
]
}
},
{
"type":"Feature",
"properties":{
"Name":"五軒屋児童公園",
"Jusho":"奈良県北葛城郡上牧町上牧1170",
"Capacity":"－",
"la":"34.55567198610",
"ln":"135.72091916500"
},
"geometry":{
"type":"Point",
"coordinates":[
135.720919165,
34.5556719861
]
}
},
{
"type":"Feature",
"properties":{
"Name":"桜ヶ丘１号公園",
"Jusho":"奈良県北葛城郡上牧町桜ヶ丘1-4",
"Capacity":"－",
"la":"34.57634188000",
"ln":"135.72388580000"
},
"geometry":{
"type":"Point",
"coordinates":[
135.7238858,
34.57634188
]
}
},
{
"type":"Feature",
"properties":{
"Name":"桜ヶ丘２号公園",
"Jusho":"奈良県北葛城郡上牧町桜ヶ丘1-17",
"Capacity":"－",
"la":"34.57711149000",
"ln":"135.72116144000"
},
"geometry":{
"type":"Point",
"coordinates":[
135.72116144,
34.57711149
]
}
},
{
"type":"Feature",
"properties":{
"Name":"桜ヶ丘３号公園",
"Jusho":"奈良県北葛城郡上牧町桜ヶ丘2-23",
"Capacity":"－",
"la":"34.57270425000",
"ln":"135.72411406000"
},
"geometry":{
"type":"Point",
"coordinates":[
135.72411406,
34.57270425
]
}
},
{
"type":"Feature",
"properties":{
"Name":"桜ヶ丘公園",
"Jusho":"奈良県北葛城郡上牧町桜ヶ丘3-34-1",
"Capacity":"－",
"la":"34.57495771000",
"ln":"135.72136483000"
},
"geometry":{
"type":"Point",
"coordinates":[
135.72136483,
34.57495771
]
}
},
{
"type":"Feature",
"properties":{
"Name":"桜ヶ丘東公園",
"Jusho":"奈良県北葛城郡上牧町桜ヶ丘2-15",
"Capacity":"－",
"la":"34.57380304000",
"ln":"135.72649550000"
},
"geometry":{
"type":"Point",
"coordinates":[
135.7264955,
34.57380304
]
}
},
{
"type":"Feature",
"properties":{
"Name":"三軒屋公園",
"Jusho":"奈良県北葛城郡上牧町上牧3207-1",
"Capacity":"－",
"la":"34.56360299000",
"ln":"135.71968578000"
},
"geometry":{
"type":"Point",
"coordinates":[
135.71968578,
34.56360299
]
}
},
{
"type":"Feature",
"properties":{
"Name":"松ヶ丘公園",
"Jusho":"奈良県北葛城郡上牧町朋部台2-3553-22",
"Capacity":"－",
"la":"34.56896375000",
"ln":"135.71194510000"
},
"geometry":{
"type":"Point",
"coordinates":[
135.7119451,
34.56896375
]
}
},
{
"type":"Feature",
"properties":{
"Name":"松里園児童公園",
"Jusho":"奈良県北葛城郡上牧町松里園1-4347-42",
"Capacity":"－",
"la":"34.55150875000",
"ln":"135.71134257000"
},
"geometry":{
"type":"Point",
"coordinates":[
135.71134257,
34.55150875
]
}
},
{
"type":"Feature",
"properties":{
"Name":"上牧第１児童公園",
"Jusho":"奈良県北葛城郡上牧町上牧3799-4",
"Capacity":"－",
"la":"34.56279360000",
"ln":"135.70560064000"
},
"geometry":{
"type":"Point",
"coordinates":[
135.70560064,
34.5627936
]
}
},
{
"type":"Feature",
"properties":{
"Name":"大平公園",
"Jusho":"奈良県北葛城郡上牧町松里園3-3",
"Capacity":"－",
"la":"34.54998993000",
"ln":"135.70903377000"
},
"geometry":{
"type":"Point",
"coordinates":[
135.70903377,
34.54998993
]
}
},
{
"type":"Feature",
"properties":{
"Name":"大和団地公園",
"Jusho":"奈良県北葛城郡上牧町朋部台4-843-41",
"Capacity":"－",
"la":"34.57167686000",
"ln":"135.71465253000"
},
"geometry":{
"type":"Point",
"coordinates":[
135.71465253,
34.57167686
]
}
},
{
"type":"Feature",
"properties":{
"Name":"滝川第１児童公園",
"Jusho":"奈良県北葛城郡上牧町滝川台2-945-2",
"Capacity":"－",
"la":"34.57015762000",
"ln":"135.71742643000"
},
"geometry":{
"type":"Point",
"coordinates":[
135.71742643,
34.57015762
]
}
},
{
"type":"Feature",
"properties":{
"Name":"南上牧児童公園",
"Jusho":"奈良県北葛城郡上牧町中筋出作42、45-3",
"Capacity":"－",
"la":"34.55680124000",
"ln":"135.70723943000"
},
"geometry":{
"type":"Point",
"coordinates":[
135.70723943,
34.55680124
]
}
},
{
"type":"Feature",
"properties":{
"Name":"梅の木公園",
"Jusho":"奈良県北葛城郡上牧町下牧22-23",
"Capacity":"－",
"la":"34.57057392730",
"ln":"135.70494127200"
},
"geometry":{
"type":"Point",
"coordinates":[
135.704941272,
34.5705739273
]
}
},
{
"type":"Feature",
"properties":{
"Name":"米山台東公園",
"Jusho":"奈良県北葛城郡上牧町米山台5-3376-4",
"Capacity":"－",
"la":"34.56338875000",
"ln":"135.71491588000"
},
"geometry":{
"type":"Point",
"coordinates":[
135.71491588,
34.56338875
]
}
},
{
"type":"Feature",
"properties":{
"Name":"片岡台１号公園",
"Jusho":"奈良県北葛城郡上牧町片岡台1-5-1",
"Capacity":"－",
"la":"34.58111482000",
"ln":"135.71490153000"
},
"geometry":{
"type":"Point",
"coordinates":[
135.71490153,
34.58111482
]
}
},
{
"type":"Feature",
"properties":{
"Name":"片岡台２号公園",
"Jusho":"奈良県北葛城郡上牧町片岡台2-10-1",
"Capacity":"－",
"la":"34.57873358000",
"ln":"135.71824832000"
},
"geometry":{
"type":"Point",
"coordinates":[
135.71824832,
34.57873358
]
}
},
{
"type":"Feature",
"properties":{
"Name":"朋部児童公園",
"Jusho":"奈良県北葛城郡上牧町上牧3491-1",
"Capacity":"－",
"la":"34.56889226060",
"ln":"135.71411376500"
},
"geometry":{
"type":"Point",
"coordinates":[
135.714113765,
34.5688922606
]
}
},
{
"type":"Feature",
"properties":{
"Name":"友が丘西公園",
"Jusho":"奈良県北葛城郡上牧町友が丘1-7",
"Capacity":"－",
"la":"34.57129980000",
"ln":"135.71071884000"
},
"geometry":{
"type":"Point",
"coordinates":[
135.71071884,
34.5712998
]
}
},
{
"type":"Feature",
"properties":{
"Name":"友が丘東公園",
"Jusho":"奈良県北葛城郡上牧町友が丘1-726-64",
"Capacity":"－",
"la":"34.57240816000",
"ln":"135.71312799000"
},
"geometry":{
"type":"Point",
"coordinates":[
135.71312799,
34.57240816
]
}
},
{
"type":"Feature",
"properties":{
"Name":"２号児童公園",
"Jusho":"奈良県北葛城郡広陵町馬見北4丁目地内",
"Capacity":"－",
"la":"34.55495880000",
"ln":"135.72608446000"
},
"geometry":{
"type":"Point",
"coordinates":[
135.72608446,
34.5549588
]
}
},
{
"type":"Feature",
"properties":{
"Name":"３号児童公園",
"Jusho":"奈良県北葛城郡広陵町馬見北9丁目地内",
"Capacity":"－",
"la":"34.55186768000",
"ln":"135.72039415000"
},
"geometry":{
"type":"Point",
"coordinates":[
135.72039415,
34.55186768
]
}
},
{
"type":"Feature",
"properties":{
"Name":"４号児童公園",
"Jusho":"奈良県北葛城郡広陵町馬見北3丁目地内",
"Capacity":"－",
"la":"34.55443090000",
"ln":"135.73021066000"
},
"geometry":{
"type":"Point",
"coordinates":[
135.73021066,
34.5544309
]
}
},
{
"type":"Feature",
"properties":{
"Name":"５号児童公園",
"Jusho":"奈良県北葛城郡広陵町馬見北1丁目地内",
"Capacity":"－",
"la":"34.55267020000",
"ln":"135.73380350000"
},
"geometry":{
"type":"Point",
"coordinates":[
135.7338035,
34.5526702
]
}
},
{
"type":"Feature",
"properties":{
"Name":"６号児童公園",
"Jusho":"奈良県北葛城郡広陵町馬見北2丁目地内",
"Capacity":"－",
"la":"34.55068403000",
"ln":"135.73075044000"
},
"geometry":{
"type":"Point",
"coordinates":[
135.73075044,
34.55068403
]
}
},
{
"type":"Feature",
"properties":{
"Name":"７号児童公園",
"Jusho":"奈良県北葛城郡広陵町馬見中5丁目地内",
"Capacity":"－",
"la":"34.54854690000",
"ln":"135.72107358000"
},
"geometry":{
"type":"Point",
"coordinates":[
135.72107358,
34.5485469
]
}
},
{
"type":"Feature",
"properties":{
"Name":"８号児童公園",
"Jusho":"奈良県北葛城郡広陵町馬見南1丁目地内",
"Capacity":"－",
"la":"34.54181692000",
"ln":"135.73045009000"
},
"geometry":{
"type":"Point",
"coordinates":[
135.73045009,
34.54181692
]
}
},
{
"type":"Feature",
"properties":{
"Name":"９号児童公園",
"Jusho":"奈良県北葛城郡広陵町馬見南3丁目地内",
"Capacity":"－",
"la":"34.53571415000",
"ln":"135.72994637000"
},
"geometry":{
"type":"Point",
"coordinates":[
135.72994637,
34.53571415
]
}
},
{
"type":"Feature",
"properties":{
"Name":"みささぎ公園",
"Jusho":"奈良県北葛城郡広陵町みささぎ台22番地地内",
"Capacity":"－",
"la":"34.53143188000",
"ln":"135.73264008000"
},
"geometry":{
"type":"Point",
"coordinates":[
135.73264008,
34.53143188
]
}
},
{
"type":"Feature",
"properties":{
"Name":"横峰近隣公園",
"Jusho":"奈良県北葛城郡広陵町馬見北6丁目地内",
"Capacity":"－",
"la":"34.55153102000",
"ln":"135.72781053000"
},
"geometry":{
"type":"Point",
"coordinates":[
135.72781053,
34.55153102
]
}
},
{
"type":"Feature",
"properties":{
"Name":"見立山近隣公園",
"Jusho":"奈良県北葛城郡広陵町馬見中1丁目地内",
"Capacity":"－",
"la":"34.54640074000",
"ln":"135.72976010000"
},
"geometry":{
"type":"Point",
"coordinates":[
135.7297601,
34.54640074
]
}
},
{
"type":"Feature",
"properties":{
"Name":"交通公園",
"Jusho":"奈良県北葛城郡広陵町大字古寺地内",
"Capacity":"－",
"la":"34.54671814160",
"ln":"135.75533081900"
},
"geometry":{
"type":"Point",
"coordinates":[
135.755330819,
34.5467181416
]
}
},
{
"type":"Feature",
"properties":{
"Name":"広陵運動公園",
"Jusho":"奈良県北葛城郡広陵町大字古寺、百済地内",
"Capacity":"－",
"la":"34.54478232910",
"ln":"135.75568273000"
},
"geometry":{
"type":"Point",
"coordinates":[
135.75568273,
34.5447823291
]
}
},
{
"type":"Feature",
"properties":{
"Name":"広陵第１号近隣公園",
"Jusho":"奈良県北葛城郡広陵町大字三吉、疋相地内",
"Capacity":"－",
"la":"34.54569348000",
"ln":"135.74148846000"
},
"geometry":{
"type":"Point",
"coordinates":[
135.74148846,
34.54569348
]
}
},
{
"type":"Feature",
"properties":{
"Name":"黒石公園",
"Jusho":"奈良県北葛城郡広陵町みささぎ台33番地地内",
"Capacity":"－",
"la":"34.53147428000",
"ln":"135.73066734000"
},
"geometry":{
"type":"Point",
"coordinates":[
135.73066734,
34.53147428
]
}
},
{
"type":"Feature",
"properties":{
"Name":"西谷近隣公園",
"Jusho":"奈良県北葛城郡広陵町馬見南2丁目地内",
"Capacity":"－",
"la":"34.53584855670",
"ln":"135.73221453900"
},
"geometry":{
"type":"Point",
"coordinates":[
135.732214539,
34.5358485567
]
}
},
{
"type":"Feature",
"properties":{
"Name":"石ケ谷古墳公園",
"Jusho":"奈良県北葛城郡広陵町馬見北7丁目地内",
"Capacity":"－",
"la":"34.55098012910",
"ln":"135.72306395000"
},
"geometry":{
"type":"Point",
"coordinates":[
135.72306395,
34.5509801291
]
}
},
{
"type":"Feature",
"properties":{
"Name":"大福寺街区公園",
"Jusho":"奈良県北葛城郡広陵町大字的場地内",
"Capacity":"－",
"la":"34.56605103910",
"ln":"135.75281027000"
},
"geometry":{
"type":"Point",
"coordinates":[
135.75281027,
34.5660510391
]
}
},
{
"type":"Feature",
"properties":{
"Name":"竹取公園",
"Jusho":"奈良県北葛城郡広陵町大字三吉地内",
"Capacity":"－",
"la":"34.55529190920",
"ln":"135.73658489800"
},
"geometry":{
"type":"Point",
"coordinates":[
135.736584898,
34.5552919092
]
}
},
{
"type":"Feature",
"properties":{
"Name":"百済寺公園",
"Jusho":"奈良県北葛城郡広陵町大字百済地内",
"Capacity":"－",
"la":"34.54395553000",
"ln":"135.76279275000"
},
"geometry":{
"type":"Point",
"coordinates":[
135.76279275,
34.54395553
]
}
},
{
"type":"Feature",
"properties":{
"Name":"牧野史跡公園",
"Jusho":"奈良県北葛城郡広陵町馬見北8丁目地内",
"Capacity":"－",
"la":"34.55431489000",
"ln":"135.72398177000"
},
"geometry":{
"type":"Point",
"coordinates":[
135.72398177,
34.55431489
]
}
},
{
"type":"Feature",
"properties":{
"Name":"ゲンジ坂公園",
"Jusho":"奈良県北葛城郡河合町西穴闇365-1他",
"Capacity":"－",
"la":"34.58599890540",
"ln":"135.73526275000"
},
"geometry":{
"type":"Point",
"coordinates":[
135.73526275,
34.5859989054
]
}
},
{
"type":"Feature",
"properties":{
"Name":"ほのぼの公園",
"Jusho":"奈良県北葛城郡河合町佐味田944",
"Capacity":"－",
"la":"34.55921685000",
"ln":"135.72661359000"
},
"geometry":{
"type":"Point",
"coordinates":[
135.72661359,
34.55921685
]
}
},
{
"type":"Feature",
"properties":{
"Name":"旭団地西側公園",
"Jusho":"奈良県北葛城郡河合町西穴闇342-1",
"Capacity":"－",
"la":"34.58361557910",
"ln":"135.73356401000"
},
"geometry":{
"type":"Point",
"coordinates":[
135.73356401,
34.5836155791
]
}
},
{
"type":"Feature",
"properties":{
"Name":"旭団地東側公園",
"Jusho":"奈良県北葛城郡河合町西穴闇350-3",
"Capacity":"－",
"la":"34.58418873910",
"ln":"135.73431249000"
},
"geometry":{
"type":"Point",
"coordinates":[
135.73431249,
34.5841887391
]
}
},
{
"type":"Feature",
"properties":{
"Name":"河合町総合スポーツ公園（ヘリポート）",
"Jusho":"奈良県北葛城郡河合町山坊85",
"Capacity":"－",
"la":"34.57573853910",
"ln":"135.73744934000"
},
"geometry":{
"type":"Point",
"coordinates":[
135.73744934,
34.5757385391
]
}
},
{
"type":"Feature",
"properties":{
"Name":"久美ヶ丘東公園",
"Jusho":"奈良県北葛城郡河合町久美ヶ丘2丁目16",
"Capacity":"－",
"la":"34.57754798000",
"ln":"135.73254309000"
},
"geometry":{
"type":"Point",
"coordinates":[
135.73254309,
34.57754798
]
}
},
{
"type":"Feature",
"properties":{
"Name":"月谷公園",
"Jusho":"奈良県北葛城郡河合町広瀬台1丁目9-1",
"Capacity":"－",
"la":"34.58594488000",
"ln":"135.72658225000"
},
"geometry":{
"type":"Point",
"coordinates":[
135.72658225,
34.58594488
]
}
},
{
"type":"Feature",
"properties":{
"Name":"県立馬見丘陵公園",
"Jusho":"奈良県北葛城郡河合町佐味田2202",
"Capacity":"－",
"la":"34.56273330910",
"ln":"135.73671234000"
},
"geometry":{
"type":"Point",
"coordinates":[
135.73671234,
34.5627333091
]
}
},
{
"type":"Feature",
"properties":{
"Name":"古池児童公園",
"Jusho":"奈良県北葛城郡河合町穴闇162-6、164-3",
"Capacity":"－",
"la":"34.58676031000",
"ln":"135.73924759000"
},
"geometry":{
"type":"Point",
"coordinates":[
135.73924759,
34.58676031
]
}
},
{
"type":"Feature",
"properties":{
"Name":"向ヶ丘公園",
"Jusho":"奈良県北葛城郡河合町大輪田1198-55",
"Capacity":"－",
"la":"34.58699850000",
"ln":"135.72309466000"
},
"geometry":{
"type":"Point",
"coordinates":[
135.72309466,
34.5869985
]
}
},
{
"type":"Feature",
"properties":{
"Name":"広瀬台公園",
"Jusho":"奈良県北葛城郡河合町広瀬台2丁目9",
"Capacity":"－",
"la":"34.58438975000",
"ln":"135.72429880000"
},
"geometry":{
"type":"Point",
"coordinates":[
135.7242988,
34.58438975
]
}
},
{
"type":"Feature",
"properties":{
"Name":"高塚台公園",
"Jusho":"奈良県北葛城郡河合町高塚台3丁目15",
"Capacity":"－",
"la":"34.57908584000",
"ln":"135.72632824000"
},
"geometry":{
"type":"Point",
"coordinates":[
135.72632824,
34.57908584
]
}
},
{
"type":"Feature",
"properties":{
"Name":"高塚台第１公園",
"Jusho":"奈良県北葛城郡河合町高塚台1丁目21",
"Capacity":"－",
"la":"34.58112179910",
"ln":"135.72425125000"
},
"geometry":{
"type":"Point",
"coordinates":[
135.72425125,
34.5811217991
]
}
},
{
"type":"Feature",
"properties":{
"Name":"高塚台第２公園",
"Jusho":"奈良県北葛城郡河合町高塚台2丁目35-2",
"Capacity":"－",
"la":"34.58232247910",
"ln":"135.72680156000"
},
"geometry":{
"type":"Point",
"coordinates":[
135.72680156,
34.5823224791
]
}
},
{
"type":"Feature",
"properties":{
"Name":"上ノ山公園",
"Jusho":"奈良県北葛城郡河合町穴闇992-5",
"Capacity":"－",
"la":"34.58431963000",
"ln":"135.73634883000"
},
"geometry":{
"type":"Point",
"coordinates":[
135.73634883,
34.58431963
]
}
},
{
"type":"Feature",
"properties":{
"Name":"星和台公園",
"Jusho":"奈良県北葛城郡河合町星和台1丁目13",
"Capacity":"－",
"la":"34.58739704000",
"ln":"135.71603903000"
},
"geometry":{
"type":"Point",
"coordinates":[
135.71603903,
34.58739704
]
}
},
{
"type":"Feature",
"properties":{
"Name":"西穴闇児童公園",
"Jusho":"奈良県北葛城郡河合町穴闇135-4",
"Capacity":"－",
"la":"34.58581857910",
"ln":"135.73742054000"
},
"geometry":{
"type":"Point",
"coordinates":[
135.73742054,
34.5858185791
]
}
},
{
"type":"Feature",
"properties":{
"Name":"西穴闇児童公園（旧）",
"Jusho":"奈良県北葛城郡河合町穴闇135-2",
"Capacity":"－",
"la":"34.58612356000",
"ln":"135.73785133000"
},
"geometry":{
"type":"Point",
"coordinates":[
135.73785133,
34.58612356
]
}
},
{
"type":"Feature",
"properties":{
"Name":"赤田池公園",
"Jusho":"奈良県北葛城郡河合町広瀬台3丁目7",
"Capacity":"－",
"la":"34.58643393000",
"ln":"135.71900081000"
},
"geometry":{
"type":"Point",
"coordinates":[
135.71900081,
34.58643393
]
}
},
{
"type":"Feature",
"properties":{
"Name":"泉台第１公園",
"Jusho":"奈良県北葛城郡河合町泉台2丁目1-2",
"Capacity":"－",
"la":"34.58723486910",
"ln":"135.73168260000"
},
"geometry":{
"type":"Point",
"coordinates":[
135.7316826,
34.5872348691
]
}
},
{
"type":"Feature",
"properties":{
"Name":"泉台第２公園",
"Jusho":"奈良県北葛城郡河合町泉台2丁目1-365",
"Capacity":"－",
"la":"34.58935813260",
"ln":"135.73175543700"
},
"geometry":{
"type":"Point",
"coordinates":[
135.731755437,
34.5893581326
]
}
},
{
"type":"Feature",
"properties":{
"Name":"泉台第３公園",
"Jusho":"奈良県北葛城郡河合町泉台3丁目1-516",
"Capacity":"－",
"la":"34.58942949250",
"ln":"135.73536933000"
},
"geometry":{
"type":"Point",
"coordinates":[
135.73536933,
34.5894294925
]
}
},
{
"type":"Feature",
"properties":{
"Name":"泉台第４公園",
"Jusho":"奈良県北葛城郡河合町泉台3丁目1-552",
"Capacity":"－",
"la":"34.59114335690",
"ln":"135.73624655500"
},
"geometry":{
"type":"Point",
"coordinates":[
135.736246555,
34.5911433569
]
}
},
{
"type":"Feature",
"properties":{
"Name":"大塚山児童公園",
"Jusho":"奈良県北葛城郡河合町川合935-6",
"Capacity":"－",
"la":"34.58728196000",
"ln":"135.74230772000"
},
"geometry":{
"type":"Point",
"coordinates":[
135.74230772,
34.58728196
]
}
},
{
"type":"Feature",
"properties":{
"Name":"大塚台公園",
"Jusho":"奈良県北葛城郡河合町穴闇67-21",
"Capacity":"－",
"la":"34.58402729000",
"ln":"135.74143104000"
},
"geometry":{
"type":"Point",
"coordinates":[
135.74143104,
34.58402729
]
}
},
{
"type":"Feature",
"properties":{
"Name":"大和川河川敷公園",
"Jusho":"奈良県北葛城郡河合町穴闇地先",
"Capacity":"－",
"la":"34.59252313000",
"ln":"135.74065447000"
},
"geometry":{
"type":"Point",
"coordinates":[
135.74065447,
34.59252313
]
}
},
{
"type":"Feature",
"properties":{
"Name":"中山台公園",
"Jusho":"奈良県北葛城郡河合町中山台1丁目12",
"Capacity":"－",
"la":"34.58251637000",
"ln":"135.72221208000"
},
"geometry":{
"type":"Point",
"coordinates":[
135.72221208,
34.58251637
]
}
},
{
"type":"Feature",
"properties":{
"Name":"中山田池公園",
"Jusho":"奈良県北葛城郡河合町中山台1丁目16",
"Capacity":"－",
"la":"34.58091460000",
"ln":"135.72077901000"
},
"geometry":{
"type":"Point",
"coordinates":[
135.72077901,
34.5809146
]
}
},
{
"type":"Feature",
"properties":{
"Name":"釘池公園",
"Jusho":"奈良県北葛城郡河合町高塚台1丁目18",
"Capacity":"－",
"la":"34.57874580000",
"ln":"135.72128191000"
},
"geometry":{
"type":"Point",
"coordinates":[
135.72128191,
34.5787458
]
}
},
{
"type":"Feature",
"properties":{
"Name":"南山西公園",
"Jusho":"奈良県北葛城郡河合町西穴闇456-13",
"Capacity":"－",
"la":"34.58543674030",
"ln":"135.73607717900"
},
"geometry":{
"type":"Point",
"coordinates":[
135.736077179,
34.5854367403
]
}
},
{
"type":"Feature",
"properties":{
"Name":"薬井北山公園",
"Jusho":"奈良県北葛城郡河合町薬井428-37",
"Capacity":"－",
"la":"34.58909268000",
"ln":"135.71271798000"
},
"geometry":{
"type":"Point",
"coordinates":[
135.71271798,
34.58909268
]
}
},
{
"type":"Feature",
"properties":{
"Name":"吉野運動公園総合体育館",
"Jusho":"奈良県吉野郡吉野町大字山口910外",
"Capacity":"－",
"la":"34.41184500000",
"ln":"135.89209300000"
},
"geometry":{
"type":"Point",
"coordinates":[
135.892093,
34.411845
]
}
},
{
"type":"Feature",
"properties":{
"Name":"福神中央公園",
"Jusho":"奈良県吉野郡大淀町福神350-5",
"Capacity":"－",
"la":"34.39309787000",
"ln":"135.74602223000"
},
"geometry":{
"type":"Point",
"coordinates":[
135.74602223,
34.39309787
]
}
},
{
"type":"Feature",
"properties":{
"Name":"森林公園やすらぎ村",
"Jusho":"奈良県吉野郡下市町西山550",
"Capacity":"－",
"la":"34.29447332400",
"ln":"135.78983102300"
},
"geometry":{
"type":"Point",
"coordinates":[
135.789831023,
34.294473324
]
}
},
{
"type":"Feature",
"properties":{
"Name":"下北山スポーツ公園多目的グラウンド",
"Jusho":"奈良県吉野郡下北山村大字上池原",
"Capacity":"－",
"la":"34.04690793480",
"ln":"135.96120484000"
},
"geometry":{
"type":"Point",
"coordinates":[
135.96120484,
34.0469079348
]
}
},
{
"type":"Feature",
"properties":{
"Name":"池の平公園グラウンド",
"Jusho":"奈良県吉野郡下北山村大字池峰",
"Capacity":"－",
"la":"34.03077102390",
"ln":"135.95545378500"
},
"geometry":{
"type":"Point",
"coordinates":[
135.955453785,
34.0307710239
]
}
},
{
"type":"Feature",
"properties":{
"Name":"東吉野村運動公園体育館",
"Jusho":"奈良県吉野郡東吉野村大字中黒1222",
"Capacity":"－",
"la":"34.38095228920",
"ln":"135.94233795600"
},
"geometry":{
"type":"Point",
"coordinates":[
135.942337956,
34.3809522892
]
}
}
]
};