var st={
"type":"FeatureCollection",
"features":[
{
"type":"Feature",
"properties":{
"Name":"（旧）水間小学校体育館",
"Jusho":"奈良県奈良市水間町450番地の2",
"Capacity":"200",
"la":"34.67163651040",
"ln":"135.94451553900"
},
"geometry":{
"type":"Point",
"coordinates":[
135.944515539,
34.6716365104
]
}
},
{
"type":"Feature",
"properties":{
"Name":"あやめ池小学校体育館",
"Jusho":"奈良県奈良市あやめ池南九丁目939番地の39",
"Capacity":"300",
"la":"34.69325700000",
"ln":"135.75758400000"
},
"geometry":{
"type":"Point",
"coordinates":[
135.757584,
34.693257
]
}
},
{
"type":"Feature",
"properties":{
"Name":"右京小学校体育館",
"Jusho":"奈良県奈良市右京四丁目11番地の1",
"Capacity":"360",
"la":"34.72161500000",
"ln":"135.78649800000"
},
"geometry":{
"type":"Point",
"coordinates":[
135.786498,
34.721615
]
}
},
{
"type":"Feature",
"properties":{
"Name":"興東小学校体育館",
"Jusho":"奈良県奈良市須川町1424番地",
"Capacity":"300",
"la":"34.71664500000",
"ln":"135.91165300000"
},
"geometry":{
"type":"Point",
"coordinates":[
135.911653,
34.716645
]
}
},
{
"type":"Feature",
"properties":{
"Name":"近畿大学附属小学校",
"Jusho":"奈良県奈良市あやめ池北1-33-3",
"Capacity":"－",
"la":"34.69917800000",
"ln":"135.76232700000"
},
"geometry":{
"type":"Point",
"coordinates":[
135.762327,
34.699178
]
}
},
{
"type":"Feature",
"properties":{
"Name":"月ヶ瀬小学校体育館",
"Jusho":"奈良県奈良市月ヶ瀬尾山2350番地の1",
"Capacity":"170",
"la":"34.71003099910",
"ln":"136.04333400000"
},
"geometry":{
"type":"Point",
"coordinates":[
136.043334,
34.7100309991
]
}
},
{
"type":"Feature",
"properties":{
"Name":"鼓阪小学校体育館",
"Jusho":"奈良県奈良市雑司町97番地",
"Capacity":"370",
"la":"34.69228600000",
"ln":"135.83602200000"
},
"geometry":{
"type":"Point",
"coordinates":[
135.836022,
34.692286
]
}
},
{
"type":"Feature",
"properties":{
"Name":"鼓阪北小学校体育館",
"Jusho":"奈良県奈良市青山九丁目3番地の1",
"Capacity":"400",
"la":"34.70867300000",
"ln":"135.83749300000"
},
"geometry":{
"type":"Point",
"coordinates":[
135.837493,
34.708673
]
}
},
{
"type":"Feature",
"properties":{
"Name":"佐保小学校体育館",
"Jusho":"奈良県奈良市法蓮町280番地の1",
"Capacity":"400",
"la":"34.69106399910",
"ln":"135.82080100000"
},
"geometry":{
"type":"Point",
"coordinates":[
135.820801,
34.6910639991
]
}
},
{
"type":"Feature",
"properties":{
"Name":"佐保川小学校体育館",
"Jusho":"奈良県奈良市法蓮町229番地の1",
"Capacity":"410",
"la":"34.68853599910",
"ln":"135.81557900000"
},
"geometry":{
"type":"Point",
"coordinates":[
135.815579,
34.6885359991
]
}
},
{
"type":"Feature",
"properties":{
"Name":"佐保台小学校体育館",
"Jusho":"奈良県奈良市佐保台三丁目902番地の341",
"Capacity":"400",
"la":"34.71000600000",
"ln":"135.81682900000"
},
"geometry":{
"type":"Point",
"coordinates":[
135.816829,
34.710006
]
}
},
{
"type":"Feature",
"properties":{
"Name":"左京小学校体育館",
"Jusho":"奈良県奈良市左京三丁目1番地の1",
"Capacity":"400",
"la":"34.71375500000",
"ln":"135.80608000000"
},
"geometry":{
"type":"Point",
"coordinates":[
135.80608,
34.713755
]
}
},
{
"type":"Feature",
"properties":{
"Name":"済美小学校体育館",
"Jusho":"奈良県奈良市西木辻町5番地の2",
"Capacity":"400",
"la":"34.67534400000",
"ln":"135.82366200000"
},
"geometry":{
"type":"Point",
"coordinates":[
135.823662,
34.675344
]
}
},
{
"type":"Feature",
"properties":{
"Name":"済美南小学校体育館",
"Jusho":"奈良県奈良市南京終町676番地",
"Capacity":"400",
"la":"34.66409500000",
"ln":"135.82158000000"
},
"geometry":{
"type":"Point",
"coordinates":[
135.82158,
34.664095
]
}
},
{
"type":"Feature",
"properties":{
"Name":"三碓小学校体育館",
"Jusho":"奈良県奈良市西千代ヶ丘一丁目20番9号",
"Capacity":"370",
"la":"34.68336899910",
"ln":"135.74166900000"
},
"geometry":{
"type":"Point",
"coordinates":[
135.741669,
34.6833689991
]
}
},
{
"type":"Feature",
"properties":{
"Name":"朱雀小学校体育館",
"Jusho":"奈良県奈良市朱雀六丁目10番地の1",
"Capacity":"400",
"la":"34.71619899910",
"ln":"135.79808000000"
},
"geometry":{
"type":"Point",
"coordinates":[
135.79808,
34.7161989991
]
}
},
{
"type":"Feature",
"properties":{
"Name":"神功小学校体育館",
"Jusho":"奈良県奈良市神功二丁目2番地",
"Capacity":"290",
"la":"34.71986500000",
"ln":"135.77833200000"
},
"geometry":{
"type":"Point",
"coordinates":[
135.778332,
34.719865
]
}
},
{
"type":"Feature",
"properties":{
"Name":"西大寺北小学校体育館",
"Jusho":"奈良県奈良市西大寺赤田町一丁目6番1号",
"Capacity":"380",
"la":"34.69911800000",
"ln":"135.77338800000"
},
"geometry":{
"type":"Point",
"coordinates":[
135.773388,
34.699118
]
}
},
{
"type":"Feature",
"properties":{
"Name":"青和小学校体育館",
"Jusho":"奈良県奈良市百楽園四丁目1番1号",
"Capacity":"350",
"la":"34.70028400000",
"ln":"135.74308500000"
},
"geometry":{
"type":"Point",
"coordinates":[
135.743085,
34.700284
]
}
},
{
"type":"Feature",
"properties":{
"Name":"帯解小学校体育館",
"Jusho":"奈良県奈良市柴屋町9番地",
"Capacity":"240",
"la":"34.64467999910",
"ln":"135.82907900000"
},
"geometry":{
"type":"Point",
"coordinates":[
135.829079,
34.6446799991
]
}
},
{
"type":"Feature",
"properties":{
"Name":"大安寺小学校体育館",
"Jusho":"奈良県奈良市大安寺二丁目15番1号",
"Capacity":"400",
"la":"34.66878799910",
"ln":"135.81146900000"
},
"geometry":{
"type":"Point",
"coordinates":[
135.811469,
34.6687879991
]
}
},
{
"type":"Feature",
"properties":{
"Name":"大安寺西小学校体育館",
"Jusho":"奈良県奈良市大安寺西一丁目342番地",
"Capacity":"390",
"la":"34.67414899910",
"ln":"135.80569200000"
},
"geometry":{
"type":"Point",
"coordinates":[
135.805692,
34.6741489991
]
}
},
{
"type":"Feature",
"properties":{
"Name":"大宮小学校体育館",
"Jusho":"奈良県奈良市大宮町四丁目223番地の1",
"Capacity":"290",
"la":"34.68364800000",
"ln":"135.81085800000"
},
"geometry":{
"type":"Point",
"coordinates":[
135.810858,
34.683648
]
}
},
{
"type":"Feature",
"properties":{
"Name":"大柳生小学校体育館",
"Jusho":"奈良県奈良市大柳生町832番地",
"Capacity":"310",
"la":"34.71284100000",
"ln":"135.93401100000"
},
"geometry":{
"type":"Point",
"coordinates":[
135.934011,
34.712841
]
}
},
{
"type":"Feature",
"properties":{
"Name":"辰市小学校体育館",
"Jusho":"奈良県奈良市西九条町一丁目7番地の1",
"Capacity":"320",
"la":"34.65901199910",
"ln":"135.80697000000"
},
"geometry":{
"type":"Point",
"coordinates":[
135.80697,
34.6590119991
]
}
},
{
"type":"Feature",
"properties":{
"Name":"鳥見小学校体育館",
"Jusho":"奈良県奈良市鳥見町三丁目11番地の2",
"Capacity":"370",
"la":"34.69514600000",
"ln":"135.72511500000"
},
"geometry":{
"type":"Point",
"coordinates":[
135.725115,
34.695146
]
}
},
{
"type":"Feature",
"properties":{
"Name":"椿井小学校体育館",
"Jusho":"奈良県奈良市椿井町25番地",
"Capacity":"370",
"la":"34.68045400000",
"ln":"135.82813400000"
},
"geometry":{
"type":"Point",
"coordinates":[
135.828134,
34.680454
]
}
},
{
"type":"Feature",
"properties":{
"Name":"鶴舞小学校体育館",
"Jusho":"奈良県奈良市鶴舞東町2番1号",
"Capacity":"300",
"la":"34.70672799910",
"ln":"135.75300100000"
},
"geometry":{
"type":"Point",
"coordinates":[
135.753001,
34.7067279991
]
}
},
{
"type":"Feature",
"properties":{
"Name":"田原小学校体育館",
"Jusho":"奈良県奈良市横田町199番地の1",
"Capacity":"300",
"la":"34.65945800000",
"ln":"135.91112600000"
},
"geometry":{
"type":"Point",
"coordinates":[
135.911126,
34.659458
]
}
},
{
"type":"Feature",
"properties":{
"Name":"吐山小学校体育館",
"Jusho":"奈良県奈良市都祁吐山町3939番地",
"Capacity":"420",
"la":"34.57375900000",
"ln":"135.96482900000"
},
"geometry":{
"type":"Point",
"coordinates":[
135.964829,
34.573759
]
}
},
{
"type":"Feature",
"properties":{
"Name":"登美ヶ丘小学校体育館",
"Jusho":"奈良県奈良市西登美ヶ丘四丁目21番1号",
"Capacity":"320",
"la":"34.71986499910",
"ln":"135.73933500000"
},
"geometry":{
"type":"Point",
"coordinates":[
135.739335,
34.7198649991
]
}
},
{
"type":"Feature",
"properties":{
"Name":"都祁小学校体育館",
"Jusho":"奈良県奈良市都祁白石町974番地",
"Capacity":"410",
"la":"34.60483300000",
"ln":"135.95848100000"
},
"geometry":{
"type":"Point",
"coordinates":[
135.958481,
34.604833
]
}
},
{
"type":"Feature",
"properties":{
"Name":"都跡小学校体育館",
"Jusho":"奈良県奈良市四条大路五丁目6番1号",
"Capacity":"400",
"la":"34.68017599910",
"ln":"135.78794300000"
},
"geometry":{
"type":"Point",
"coordinates":[
135.787943,
34.6801759991
]
}
},
{
"type":"Feature",
"properties":{
"Name":"東市小学校体育館",
"Jusho":"奈良県奈良市古市町268番地",
"Capacity":"390",
"la":"34.65606799910",
"ln":"135.84180000000"
},
"geometry":{
"type":"Point",
"coordinates":[
135.8418,
34.6560679991
]
}
},
{
"type":"Feature",
"properties":{
"Name":"東登美ヶ丘小学校体育館",
"Jusho":"奈良県奈良市東登美ヶ丘四丁目21番33号",
"Capacity":"380",
"la":"34.72042099910",
"ln":"135.75633400000"
},
"geometry":{
"type":"Point",
"coordinates":[
135.756334,
34.7204209991
]
}
},
{
"type":"Feature",
"properties":{
"Name":"奈良女子大学附属小学校",
"Jusho":"奈良県奈良市百楽園1-7-28",
"Capacity":"－",
"la":"34.69875600000",
"ln":"135.74658500000"
},
"geometry":{
"type":"Point",
"coordinates":[
135.746585,
34.698756
]
}
},
{
"type":"Feature",
"properties":{
"Name":"二名小学校体育館",
"Jusho":"奈良県奈良市二名一丁目3716番地の1",
"Capacity":"390",
"la":"34.70803299910",
"ln":"135.73711400000"
},
"geometry":{
"type":"Point",
"coordinates":[
135.737114,
34.7080329991
]
}
},
{
"type":"Feature",
"properties":{
"Name":"飛鳥小学校体育館",
"Jusho":"奈良県奈良市紀寺町785番地",
"Capacity":"440",
"la":"34.67492700000",
"ln":"135.83591100000"
},
"geometry":{
"type":"Point",
"coordinates":[
135.835911,
34.674927
]
}
},
{
"type":"Feature",
"properties":{
"Name":"富雄第三小学校体育館",
"Jusho":"奈良県奈良市帝塚山南二丁目11番1号",
"Capacity":"400",
"la":"34.67561999910",
"ln":"135.73283700000"
},
"geometry":{
"type":"Point",
"coordinates":[
135.732837,
34.6756199991
]
}
},
{
"type":"Feature",
"properties":{
"Name":"富雄南小学校体育館",
"Jusho":"奈良県奈良市中町4185番地",
"Capacity":"410",
"la":"34.67439799910",
"ln":"135.74953000000"
},
"geometry":{
"type":"Point",
"coordinates":[
135.74953,
34.6743979991
]
}
},
{
"type":"Feature",
"properties":{
"Name":"富雄北小学校体育館",
"Jusho":"奈良県奈良市富雄北一丁目13番6号",
"Capacity":"420",
"la":"34.69686799910",
"ln":"135.73269800000"
},
"geometry":{
"type":"Point",
"coordinates":[
135.732698,
34.6968679991
]
}
},
{
"type":"Feature",
"properties":{
"Name":"伏見小学校体育館",
"Jusho":"奈良県奈良市菅原町370番地",
"Capacity":"390",
"la":"34.68784100000",
"ln":"135.77488800000"
},
"geometry":{
"type":"Point",
"coordinates":[
135.774888,
34.687841
]
}
},
{
"type":"Feature",
"properties":{
"Name":"伏見南小学校体育館",
"Jusho":"奈良県奈良市宝来五丁目2番1号",
"Capacity":"390",
"la":"34.68062000000",
"ln":"135.77016600000"
},
"geometry":{
"type":"Point",
"coordinates":[
135.770166,
34.68062
]
}
},
{
"type":"Feature",
"properties":{
"Name":"平城小学校体育館",
"Jusho":"奈良県奈良市秋篠町1394番地",
"Capacity":"370",
"la":"34.71092199910",
"ln":"135.77822100000"
},
"geometry":{
"type":"Point",
"coordinates":[
135.778221,
34.7109219991
]
}
},
{
"type":"Feature",
"properties":{
"Name":"平城西小学校体育館",
"Jusho":"奈良県奈良市東登美ヶ丘三丁目1093番地の1",
"Capacity":"390",
"la":"34.71372700000",
"ln":"135.76369400000"
},
"geometry":{
"type":"Point",
"coordinates":[
135.763694,
34.713727
]
}
},
{
"type":"Feature",
"properties":{
"Name":"並松小学校体育館",
"Jusho":"奈良県奈良市藺生町1894番地",
"Capacity":"420",
"la":"34.59359199910",
"ln":"135.94183200000"
},
"geometry":{
"type":"Point",
"coordinates":[
135.941832,
34.5935919991
]
}
},
{
"type":"Feature",
"properties":{
"Name":"明治小学校体育館",
"Jusho":"奈良県奈良市北永井町414番地",
"Capacity":"340",
"la":"34.65623400000",
"ln":"135.82252400000"
},
"geometry":{
"type":"Point",
"coordinates":[
135.822524,
34.656234
]
}
},
{
"type":"Feature",
"properties":{
"Name":"柳生小学校体育館",
"Jusho":"奈良県奈良市柳生下町138番地",
"Capacity":"190",
"la":"34.73805999910",
"ln":"135.95128700000"
},
"geometry":{
"type":"Point",
"coordinates":[
135.951287,
34.7380599991
]
}
},
{
"type":"Feature",
"properties":{
"Name":"六郷小学校体育館",
"Jusho":"奈良県奈良市針ヶ別所町812、820番地",
"Capacity":"360",
"la":"34.62488200000",
"ln":"135.97205300000"
},
"geometry":{
"type":"Point",
"coordinates":[
135.972053,
34.624882
]
}
},
{
"type":"Feature",
"properties":{
"Name":"六条小学校体育館",
"Jusho":"奈良県奈良市六条二丁目14番1号",
"Capacity":"330",
"la":"34.67070400000",
"ln":"135.77161100000"
},
"geometry":{
"type":"Point",
"coordinates":[
135.771611,
34.670704
]
}
},
{
"type":"Feature",
"properties":{
"Name":"高田小学校",
"Jusho":"奈良県大和高田市大中東町5-15",
"Capacity":"1000",
"la":"34.51308200000",
"ln":"135.74070000000"
},
"geometry":{
"type":"Point",
"coordinates":[
135.7407,
34.513082
]
}
},
{
"type":"Feature",
"properties":{
"Name":"菅原小学校",
"Jusho":"奈良県大和高田市根成柿436",
"Capacity":"1000",
"la":"34.48267000000",
"ln":"135.75828200000"
},
"geometry":{
"type":"Point",
"coordinates":[
135.758282,
34.48267
]
}
},
{
"type":"Feature",
"properties":{
"Name":"土庫小学校",
"Jusho":"奈良県大和高田市土庫3-2-61",
"Capacity":"800",
"la":"34.52121084560",
"ln":"135.75619818800"
},
"geometry":{
"type":"Point",
"coordinates":[
135.756198188,
34.5212108456
]
}
},
{
"type":"Feature",
"properties":{
"Name":"磐園小学校",
"Jusho":"奈良県大和高田市有井1",
"Capacity":"800",
"la":"34.51852600000",
"ln":"135.73911600000"
},
"geometry":{
"type":"Point",
"coordinates":[
135.739116,
34.518526
]
}
},
{
"type":"Feature",
"properties":{
"Name":"浮孔小学校",
"Jusho":"奈良県大和高田市中三倉堂2-5-43",
"Capacity":"900",
"la":"34.50219500000",
"ln":"135.74592200000"
},
"geometry":{
"type":"Point",
"coordinates":[
135.745922,
34.502195
]
}
},
{
"type":"Feature",
"properties":{
"Name":"浮孔西小学校",
"Jusho":"奈良県大和高田市曽大根1丁目5-1",
"Capacity":"1000",
"la":"34.49889000000",
"ln":"135.73917300000"
},
"geometry":{
"type":"Point",
"coordinates":[
135.739173,
34.49889
]
}
},
{
"type":"Feature",
"properties":{
"Name":"片塩小学校",
"Jusho":"奈良県大和高田市旭北町2-1",
"Capacity":"1000",
"la":"34.51191600000",
"ln":"135.74758800000"
},
"geometry":{
"type":"Point",
"coordinates":[
135.747588,
34.511916
]
}
},
{
"type":"Feature",
"properties":{
"Name":"陵西小学校",
"Jusho":"奈良県大和高田市池田3",
"Capacity":"1000",
"la":"34.51880300000",
"ln":"135.72456200000"
},
"geometry":{
"type":"Point",
"coordinates":[
135.724562,
34.518803
]
}
},
{
"type":"Feature",
"properties":{
"Name":"郡山西小学校",
"Jusho":"奈良県大和郡山市田中町632",
"Capacity":"－",
"la":"34.64842900000",
"ln":"135.77019500000"
},
"geometry":{
"type":"Point",
"coordinates":[
135.770195,
34.648429
]
}
},
{
"type":"Feature",
"properties":{
"Name":"郡山南小学校",
"Jusho":"奈良県大和郡山市柳町85",
"Capacity":"－",
"la":"34.64562400000",
"ln":"135.78730500000"
},
"geometry":{
"type":"Point",
"coordinates":[
135.787305,
34.645624
]
}
},
{
"type":"Feature",
"properties":{
"Name":"郡山北小学校",
"Jusho":"奈良県大和郡山市北郡山町115",
"Capacity":"－",
"la":"34.65359500000",
"ln":"135.78669400000"
},
"geometry":{
"type":"Point",
"coordinates":[
135.786694,
34.653595
]
}
},
{
"type":"Feature",
"properties":{
"Name":"治道小学校",
"Jusho":"奈良県大和郡山市横田町254",
"Capacity":"－",
"la":"34.62387600000",
"ln":"135.80594200000"
},
"geometry":{
"type":"Point",
"coordinates":[
135.805942,
34.623876
]
}
},
{
"type":"Feature",
"properties":{
"Name":"昭和小学校",
"Jusho":"奈良県大和郡山市額田部北町555",
"Capacity":"－",
"la":"34.60823900000",
"ln":"135.78013900000"
},
"geometry":{
"type":"Point",
"coordinates":[
135.780139,
34.608239
]
}
},
{
"type":"Feature",
"properties":{
"Name":"筒井小学校",
"Jusho":"奈良県大和郡山市筒井町120",
"Capacity":"－",
"la":"34.62701400000",
"ln":"135.78194400000"
},
"geometry":{
"type":"Point",
"coordinates":[
135.781944,
34.627014
]
}
},
{
"type":"Feature",
"properties":{
"Name":"平和小学校",
"Jusho":"奈良県大和郡山市美濃庄町262",
"Capacity":"－",
"la":"34.63973600000",
"ln":"135.80508100000"
},
"geometry":{
"type":"Point",
"coordinates":[
135.805081,
34.639736
]
}
},
{
"type":"Feature",
"properties":{
"Name":"片桐小学校",
"Jusho":"奈良県大和郡山市池ノ内町117",
"Capacity":"－",
"la":"34.62987500000",
"ln":"135.76494600000"
},
"geometry":{
"type":"Point",
"coordinates":[
135.764946,
34.629875
]
}
},
{
"type":"Feature",
"properties":{
"Name":"片桐西小学校",
"Jusho":"奈良県大和郡山市小泉町1618",
"Capacity":"－",
"la":"34.63051300000",
"ln":"135.75603000000"
},
"geometry":{
"type":"Point",
"coordinates":[
135.75603,
34.630513
]
}
},
{
"type":"Feature",
"properties":{
"Name":"矢田小学校",
"Jusho":"奈良県大和郡山市矢田町966-2",
"Capacity":"－",
"la":"34.65165500000",
"ln":"135.74912200000"
},
"geometry":{
"type":"Point",
"coordinates":[
135.749122,
34.651655
]
}
},
{
"type":"Feature",
"properties":{
"Name":"矢田南小学校",
"Jusho":"奈良県大和郡山市山田町83",
"Capacity":"－",
"la":"34.63154000000",
"ln":"135.74364200000"
},
"geometry":{
"type":"Point",
"coordinates":[
135.743642,
34.63154
]
}
},
{
"type":"Feature",
"properties":{
"Name":"井戸堂小学校",
"Jusho":"奈良県天理市西井戸堂町301",
"Capacity":"－",
"la":"34.58707500000",
"ln":"135.81477600000"
},
"geometry":{
"type":"Point",
"coordinates":[
135.814776,
34.587075
]
}
},
{
"type":"Feature",
"properties":{
"Name":"山の辺小学校",
"Jusho":"奈良県天理市別所町380",
"Capacity":"－",
"la":"34.60907300000",
"ln":"135.83707800000"
},
"geometry":{
"type":"Point",
"coordinates":[
135.837078,
34.609073
]
}
},
{
"type":"Feature",
"properties":{
"Name":"前栽小学校",
"Jusho":"奈良県天理市前栽町329",
"Capacity":"－",
"la":"34.59849400000",
"ln":"135.81864800000"
},
"geometry":{
"type":"Point",
"coordinates":[
135.818648,
34.598494
]
}
},
{
"type":"Feature",
"properties":{
"Name":"丹波市小学校",
"Jusho":"奈良県天理市丹波市町180",
"Capacity":"－",
"la":"34.59468600000",
"ln":"135.83019100000"
},
"geometry":{
"type":"Point",
"coordinates":[
135.830191,
34.594686
]
}
},
{
"type":"Feature",
"properties":{
"Name":"朝和小学校",
"Jusho":"奈良県天理市成願寺町420",
"Capacity":"－",
"la":"34.57210500000",
"ln":"135.84238400000"
},
"geometry":{
"type":"Point",
"coordinates":[
135.842384,
34.572105
]
}
},
{
"type":"Feature",
"properties":{
"Name":"二階堂小学校",
"Jusho":"奈良県天理市二階堂南菅田町640-1",
"Capacity":"－",
"la":"34.59454600000",
"ln":"135.79602700000"
},
"geometry":{
"type":"Point",
"coordinates":[
135.796027,
34.594546
]
}
},
{
"type":"Feature",
"properties":{
"Name":"福住小学校",
"Jusho":"奈良県天理市福住町1954-1",
"Capacity":"－",
"la":"34.61318500000",
"ln":"135.91751600000"
},
"geometry":{
"type":"Point",
"coordinates":[
135.917516,
34.613185
]
}
},
{
"type":"Feature",
"properties":{
"Name":"柳本小学校",
"Jusho":"奈良県天理市柳本町1213",
"Capacity":"－",
"la":"34.55880100000",
"ln":"135.84399600000"
},
"geometry":{
"type":"Point",
"coordinates":[
135.843996,
34.558801
]
}
},
{
"type":"Feature",
"properties":{
"Name":"櫟本小学校",
"Jusho":"奈良県天理市櫟本町2426-1",
"Capacity":"－",
"la":"34.62012700000",
"ln":"135.83105100000"
},
"geometry":{
"type":"Point",
"coordinates":[
135.831051,
34.620127
]
}
},
{
"type":"Feature",
"properties":{
"Name":"鴨公小学校体育館",
"Jusho":"奈良県橿原市縄手町324",
"Capacity":"－",
"la":"34.50094600000",
"ln":"135.80375000000"
},
"geometry":{
"type":"Point",
"coordinates":[
135.80375,
34.500946
]
}
},
{
"type":"Feature",
"properties":{
"Name":"金橋小学校体育館",
"Jusho":"奈良県橿原市雲梯町216-1",
"Capacity":"－",
"la":"34.50008399910",
"ln":"135.76655900000"
},
"geometry":{
"type":"Point",
"coordinates":[
135.766559,
34.5000839991
]
}
},
{
"type":"Feature",
"properties":{
"Name":"香久山小学校体育館",
"Jusho":"奈良県橿原市膳夫町98-1",
"Capacity":"－",
"la":"34.50416800000",
"ln":"135.82116500000"
},
"geometry":{
"type":"Point",
"coordinates":[
135.821165,
34.504168
]
}
},
{
"type":"Feature",
"properties":{
"Name":"今井小学校体育館",
"Jusho":"奈良県橿原市今井町3-4-46",
"Capacity":"－",
"la":"34.50514500000",
"ln":"135.78637700000"
},
"geometry":{
"type":"Point",
"coordinates":[
135.786377,
34.505145
]
}
},
{
"type":"Feature",
"properties":{
"Name":"耳成小学校体育館",
"Jusho":"奈良県橿原市葛本町625",
"Capacity":"－",
"la":"34.52244299910",
"ln":"135.80622100000"
},
"geometry":{
"type":"Point",
"coordinates":[
135.806221,
34.5224429991
]
}
},
{
"type":"Feature",
"properties":{
"Name":"耳成西小学校体育館",
"Jusho":"奈良県橿原市上品寺町455-1",
"Capacity":"－",
"la":"34.52174800000",
"ln":"135.78908400000"
},
"geometry":{
"type":"Point",
"coordinates":[
135.789084,
34.521748
]
}
},
{
"type":"Feature",
"properties":{
"Name":"耳成南小学校体育館",
"Jusho":"奈良県橿原市常磐町3",
"Capacity":"－",
"la":"34.51838800000",
"ln":"135.80911000000"
},
"geometry":{
"type":"Point",
"coordinates":[
135.80911,
34.518388
]
}
},
{
"type":"Feature",
"properties":{
"Name":"新沢小学校体育館",
"Jusho":"奈良県橿原市一町1296",
"Capacity":"－",
"la":"34.47497599910",
"ln":"135.77047500000"
},
"geometry":{
"type":"Point",
"coordinates":[
135.770475,
34.4749759991
]
}
},
{
"type":"Feature",
"properties":{
"Name":"真菅小学校体育館",
"Jusho":"奈良県橿原市曽我町710",
"Capacity":"－",
"la":"34.51424900000",
"ln":"135.77825200000"
},
"geometry":{
"type":"Point",
"coordinates":[
135.778252,
34.514249
]
}
},
{
"type":"Feature",
"properties":{
"Name":"真菅北小学校体育館",
"Jusho":"奈良県橿原市大垣町220-1",
"Capacity":"－",
"la":"34.52847000000",
"ln":"135.77941800000"
},
"geometry":{
"type":"Point",
"coordinates":[
135.779418,
34.52847
]
}
},
{
"type":"Feature",
"properties":{
"Name":"畝傍東小学校体育館",
"Jusho":"奈良県橿原市大軽町283",
"Capacity":"－",
"la":"34.47942099910",
"ln":"135.80125000000"
},
"geometry":{
"type":"Point",
"coordinates":[
135.80125,
34.4794209991
]
}
},
{
"type":"Feature",
"properties":{
"Name":"畝傍南小学校体育館",
"Jusho":"奈良県橿原市見瀬町164",
"Capacity":"－",
"la":"34.48053199910",
"ln":"135.79319500000"
},
"geometry":{
"type":"Point",
"coordinates":[
135.793195,
34.4805319991
]
}
},
{
"type":"Feature",
"properties":{
"Name":"畝傍北小学校体育館",
"Jusho":"奈良県橿原市大久保町156",
"Capacity":"－",
"la":"34.49689100000",
"ln":"135.79483400000"
},
"geometry":{
"type":"Point",
"coordinates":[
135.794834,
34.496891
]
}
},
{
"type":"Feature",
"properties":{
"Name":"白橿南小学校体育館",
"Jusho":"奈良県橿原市白橿町8-19-1",
"Capacity":"－",
"la":"34.46990600000",
"ln":"135.79077200000"
},
"geometry":{
"type":"Point",
"coordinates":[
135.790772,
34.469906
]
}
},
{
"type":"Feature",
"properties":{
"Name":"白橿北小学校体育館",
"Jusho":"奈良県橿原市白橿町3-10-2",
"Capacity":"－",
"la":"34.47919300000",
"ln":"135.78559600000"
},
"geometry":{
"type":"Point",
"coordinates":[
135.785596,
34.479193
]
}
},
{
"type":"Feature",
"properties":{
"Name":"晩成小学校体育館",
"Jusho":"奈良県橿原市小房町1-54",
"Capacity":"－",
"la":"34.50544899910",
"ln":"135.79677600000"
},
"geometry":{
"type":"Point",
"coordinates":[
135.796776,
34.5054489991
]
}
},
{
"type":"Feature",
"properties":{
"Name":"安倍小学校",
"Jusho":"奈良県桜井市生田578",
"Capacity":"218",
"la":"34.49569700000",
"ln":"135.83860800000"
},
"geometry":{
"type":"Point",
"coordinates":[
135.838608,
34.495697
]
}
},
{
"type":"Feature",
"properties":{
"Name":"桜井小学校",
"Jusho":"奈良県桜井市谷957",
"Capacity":"205",
"la":"34.50550100000",
"ln":"135.84594100000"
},
"geometry":{
"type":"Point",
"coordinates":[
135.845941,
34.505501
]
}
},
{
"type":"Feature",
"properties":{
"Name":"桜井西小学校",
"Jusho":"奈良県桜井市上之庄594-1",
"Capacity":"426",
"la":"34.51880500000",
"ln":"135.83905200000"
},
"geometry":{
"type":"Point",
"coordinates":[
135.839052,
34.518805
]
}
},
{
"type":"Feature",
"properties":{
"Name":"桜井南小学校",
"Jusho":"奈良県桜井市浅古21",
"Capacity":"532",
"la":"34.50294600000",
"ln":"135.85185700000"
},
"geometry":{
"type":"Point",
"coordinates":[
135.851857,
34.502946
]
}
},
{
"type":"Feature",
"properties":{
"Name":"三輪小学校",
"Jusho":"奈良県桜井市三輪324",
"Capacity":"373",
"la":"34.52580500000",
"ln":"135.85005100000"
},
"geometry":{
"type":"Point",
"coordinates":[
135.850051,
34.525805
]
}
},
{
"type":"Feature",
"properties":{
"Name":"初瀬小学校",
"Jusho":"奈良県桜井市初瀬1556",
"Capacity":"373",
"la":"34.52744400000",
"ln":"135.89921400000"
},
"geometry":{
"type":"Point",
"coordinates":[
135.899214,
34.527444
]
}
},
{
"type":"Feature",
"properties":{
"Name":"上之郷体育館（旧上之郷小学校）",
"Jusho":"奈良県桜井市笠82",
"Capacity":"247",
"la":"34.56809100000",
"ln":"135.90856900000"
},
"geometry":{
"type":"Point",
"coordinates":[
135.908569,
34.568091
]
}
},
{
"type":"Feature",
"properties":{
"Name":"城島小学校",
"Jusho":"奈良県桜井市外山330",
"Capacity":"394",
"la":"34.51558399910",
"ln":"135.85749500000"
},
"geometry":{
"type":"Point",
"coordinates":[
135.857495,
34.5155839991
]
}
},
{
"type":"Feature",
"properties":{
"Name":"織田小学校",
"Jusho":"奈良県桜井市芝1177",
"Capacity":"126",
"la":"34.53610900000",
"ln":"135.84338500000"
},
"geometry":{
"type":"Point",
"coordinates":[
135.843385,
34.536109
]
}
},
{
"type":"Feature",
"properties":{
"Name":"大福小学校",
"Jusho":"奈良県桜井市大福820",
"Capacity":"420",
"la":"34.51874900000",
"ln":"135.82566400000"
},
"geometry":{
"type":"Point",
"coordinates":[
135.825664,
34.518749
]
}
},
{
"type":"Feature",
"properties":{
"Name":"朝倉小学校",
"Jusho":"奈良県桜井市黒崎626",
"Capacity":"416",
"la":"34.52197200000",
"ln":"135.87613300000"
},
"geometry":{
"type":"Point",
"coordinates":[
135.876133,
34.521972
]
}
},
{
"type":"Feature",
"properties":{
"Name":"纒向小学校",
"Jusho":"奈良県桜井市東田339",
"Capacity":"247",
"la":"34.54644100000",
"ln":"135.83502400000"
},
"geometry":{
"type":"Point",
"coordinates":[
135.835024,
34.546441
]
}
},
{
"type":"Feature",
"properties":{
"Name":"阿太小学校",
"Jusho":"奈良県五條市原町225",
"Capacity":"－",
"la":"34.36321000000",
"ln":"135.74673000000"
},
"geometry":{
"type":"Point",
"coordinates":[
135.74673,
34.36321
]
}
},
{
"type":"Feature",
"properties":{
"Name":"宇智小学校",
"Jusho":"奈良県五條市今井町1153",
"Capacity":"－",
"la":"34.36151500000",
"ln":"135.70959400000"
},
"geometry":{
"type":"Point",
"coordinates":[
135.709594,
34.361515
]
}
},
{
"type":"Feature",
"properties":{
"Name":"旧西吉野小学校",
"Jusho":"奈良県五條市西吉野町宗川野77-1",
"Capacity":"－",
"la":"34.26375621560",
"ln":"135.74861098600"
},
"geometry":{
"type":"Point",
"coordinates":[
135.748610986,
34.2637562156
]
}
},
{
"type":"Feature",
"properties":{
"Name":"旧大深小学校",
"Jusho":"奈良県五條市大深町621",
"Capacity":"－",
"la":"34.28705017530",
"ln":"135.67896371000"
},
"geometry":{
"type":"Point",
"coordinates":[
135.67896371,
34.2870501753
]
}
},
{
"type":"Feature",
"properties":{
"Name":"五條小学校",
"Jusho":"奈良県五條市本町1-1-4",
"Capacity":"－",
"la":"34.35171100000",
"ln":"135.69254000000"
},
"geometry":{
"type":"Point",
"coordinates":[
135.69254,
34.351711
]
}
},
{
"type":"Feature",
"properties":{
"Name":"阪合部小学校",
"Jusho":"奈良県五條市中町31",
"Capacity":"－",
"la":"34.33515700000",
"ln":"135.67873600000"
},
"geometry":{
"type":"Point",
"coordinates":[
135.678736,
34.335157
]
}
},
{
"type":"Feature",
"properties":{
"Name":"北宇智小学校",
"Jusho":"奈良県五條市近内町1158-2",
"Capacity":"－",
"la":"34.38931800000",
"ln":"135.70476100000"
},
"geometry":{
"type":"Point",
"coordinates":[
135.704761,
34.389318
]
}
},
{
"type":"Feature",
"properties":{
"Name":"牧野小学校",
"Jusho":"奈良県五條市中之町921",
"Capacity":"－",
"la":"34.36640300000",
"ln":"135.67773600000"
},
"geometry":{
"type":"Point",
"coordinates":[
135.677736,
34.366403
]
}
},
{
"type":"Feature",
"properties":{
"Name":"野原小学校",
"Jusho":"奈良県五條市野原中3-8-38",
"Capacity":"－",
"la":"34.33932000000",
"ln":"135.70142700000"
},
"geometry":{
"type":"Point",
"coordinates":[
135.701427,
34.33932
]
}
},
{
"type":"Feature",
"properties":{
"Name":"葛小学校",
"Jusho":"奈良県御所市樋野270",
"Capacity":"－",
"la":"34.42201000000",
"ln":"135.75367300000"
},
"geometry":{
"type":"Point",
"coordinates":[
135.753673,
34.42201
]
}
},
{
"type":"Feature",
"properties":{
"Name":"葛城小学校",
"Jusho":"奈良県御所市林329",
"Capacity":"－",
"la":"34.41948200000",
"ln":"135.71801000000"
},
"geometry":{
"type":"Point",
"coordinates":[
135.71801,
34.419482
]
}
},
{
"type":"Feature",
"properties":{
"Name":"元葛城南小学校",
"Jusho":"奈良県御所市鴨神775",
"Capacity":"－",
"la":"34.40327460640",
"ln":"135.70777996300"
},
"geometry":{
"type":"Point",
"coordinates":[
135.707779963,
34.4032746064
]
}
},
{
"type":"Feature",
"properties":{
"Name":"御所小学校",
"Jusho":"奈良県御所市御所610",
"Capacity":"－",
"la":"34.46391600000",
"ln":"135.74146000000"
},
"geometry":{
"type":"Point",
"coordinates":[
135.74146,
34.463916
]
}
},
{
"type":"Feature",
"properties":{
"Name":"秋津小学校",
"Jusho":"奈良県御所市池之内459-3",
"Capacity":"－",
"la":"34.44845100000",
"ln":"135.73759000000"
},
"geometry":{
"type":"Point",
"coordinates":[
135.73759,
34.448451
]
}
},
{
"type":"Feature",
"properties":{
"Name":"大正小学校",
"Jusho":"奈良県御所市櫛羅2198",
"Capacity":"－",
"la":"34.46161500000",
"ln":"135.72417500000"
},
"geometry":{
"type":"Point",
"coordinates":[
135.724175,
34.461615
]
}
},
{
"type":"Feature",
"properties":{
"Name":"名柄小学校",
"Jusho":"奈良県御所市名柄185",
"Capacity":"－",
"la":"34.44106300000",
"ln":"135.71559300000"
},
"geometry":{
"type":"Point",
"coordinates":[
135.715593,
34.441063
]
}
},
{
"type":"Feature",
"properties":{
"Name":"掖上小学校",
"Jusho":"奈良県御所市東寺田55",
"Capacity":"－",
"la":"34.46044500000",
"ln":"135.75727900000"
},
"geometry":{
"type":"Point",
"coordinates":[
135.757279,
34.460445
]
}
},
{
"type":"Feature",
"properties":{
"Name":"あすか野小学校",
"Jusho":"奈良県生駒市あすか野南2丁目5-1",
"Capacity":"－",
"la":"34.70989400000",
"ln":"135.71658700000"
},
"geometry":{
"type":"Point",
"coordinates":[
135.716587,
34.709894
]
}
},
{
"type":"Feature",
"properties":{
"Name":"壱分小学校",
"Jusho":"奈良県生駒市壱分町356-1",
"Capacity":"－",
"la":"34.67198100000",
"ln":"135.71533800000"
},
"geometry":{
"type":"Point",
"coordinates":[
135.715338,
34.671981
]
}
},
{
"type":"Feature",
"properties":{
"Name":"桜ヶ丘小学校",
"Jusho":"奈良県生駒市桜ヶ丘7-15",
"Capacity":"－",
"la":"34.69853400000",
"ln":"135.70489400000"
},
"geometry":{
"type":"Point",
"coordinates":[
135.704894,
34.698534
]
}
},
{
"type":"Feature",
"properties":{
"Name":"鹿ノ台小学校",
"Jusho":"奈良県生駒市鹿ノ台西1丁目5-2",
"Capacity":"－",
"la":"34.73489100000",
"ln":"135.74655700000"
},
"geometry":{
"type":"Point",
"coordinates":[
135.746557,
34.734891
]
}
},
{
"type":"Feature",
"properties":{
"Name":"真弓小学校",
"Jusho":"奈良県生駒市真弓1丁目11-15",
"Capacity":"－",
"la":"34.72008800000",
"ln":"135.72617000000"
},
"geometry":{
"type":"Point",
"coordinates":[
135.72617,
34.720088
]
}
},
{
"type":"Feature",
"properties":{
"Name":"生駒小学校",
"Jusho":"奈良県生駒市山崎町4-44",
"Capacity":"－",
"la":"34.69134000000",
"ln":"135.70597700000"
},
"geometry":{
"type":"Point",
"coordinates":[
135.705977,
34.69134
]
}
},
{
"type":"Feature",
"properties":{
"Name":"生駒台小学校",
"Jusho":"奈良県生駒市新生駒台1-33",
"Capacity":"－",
"la":"34.70956100000",
"ln":"135.70236600000"
},
"geometry":{
"type":"Point",
"coordinates":[
135.702366,
34.709561
]
}
},
{
"type":"Feature",
"properties":{
"Name":"生駒東小学校",
"Jusho":"奈良県生駒市東生駒4丁目398-110",
"Capacity":"－",
"la":"34.68048000000",
"ln":"135.71575500000"
},
"geometry":{
"type":"Point",
"coordinates":[
135.715755,
34.68048
]
}
},
{
"type":"Feature",
"properties":{
"Name":"生駒南小学校",
"Jusho":"奈良県生駒市萩原町335",
"Capacity":"－",
"la":"34.66548100000",
"ln":"135.70583900000"
},
"geometry":{
"type":"Point",
"coordinates":[
135.705839,
34.665481
]
}
},
{
"type":"Feature",
"properties":{
"Name":"生駒南第二小学校",
"Jusho":"奈良県生駒市小平尾町927",
"Capacity":"－",
"la":"34.65459300000",
"ln":"135.70761700000"
},
"geometry":{
"type":"Point",
"coordinates":[
135.707617,
34.654593
]
}
},
{
"type":"Feature",
"properties":{
"Name":"生駒北小学校",
"Jusho":"奈良県生駒市高山町12595",
"Capacity":"－",
"la":"34.74125200000",
"ln":"135.72292000000"
},
"geometry":{
"type":"Point",
"coordinates":[
135.72292,
34.741252
]
}
},
{
"type":"Feature",
"properties":{
"Name":"俵口小学校",
"Jusho":"奈良県生駒市俵口町614-1",
"Capacity":"－",
"la":"34.70590300000",
"ln":"135.68931100000"
},
"geometry":{
"type":"Point",
"coordinates":[
135.689311,
34.705903
]
}
},
{
"type":"Feature",
"properties":{
"Name":"旭ケ丘小学校体育館",
"Jusho":"奈良県香芝市旭ケ丘3-1-3",
"Capacity":"－",
"la":"34.55588100000",
"ln":"135.69514700000"
},
"geometry":{
"type":"Point",
"coordinates":[
135.695147,
34.555881
]
}
},
{
"type":"Feature",
"properties":{
"Name":"下田小学校体育館",
"Jusho":"奈良県香芝市下田西2-9-41",
"Capacity":"－",
"la":"34.54554900000",
"ln":"135.70109200000"
},
"geometry":{
"type":"Point",
"coordinates":[
135.701092,
34.545549
]
}
},
{
"type":"Feature",
"properties":{
"Name":"鎌田小学校体育館",
"Jusho":"奈良県香芝市鎌田370",
"Capacity":"－",
"la":"34.52491300000",
"ln":"135.70656400000"
},
"geometry":{
"type":"Point",
"coordinates":[
135.706564,
34.524913
]
}
},
{
"type":"Feature",
"properties":{
"Name":"関屋小学校体育館",
"Jusho":"奈良県香芝市関屋北5-7-1",
"Capacity":"－",
"la":"34.56068600000",
"ln":"135.66728900000"
},
"geometry":{
"type":"Point",
"coordinates":[
135.667289,
34.560686
]
}
},
{
"type":"Feature",
"properties":{
"Name":"五位堂小学校体育館",
"Jusho":"奈良県香芝市五位堂2-300-1",
"Capacity":"－",
"la":"34.53232900000",
"ln":"135.71520200000"
},
"geometry":{
"type":"Point",
"coordinates":[
135.715202,
34.532329
]
}
},
{
"type":"Feature",
"properties":{
"Name":"三和小学校体育館",
"Jusho":"奈良県香芝市良福寺665-2",
"Capacity":"－",
"la":"34.53027400000",
"ln":"135.70528600000"
},
"geometry":{
"type":"Point",
"coordinates":[
135.705286,
34.530274
]
}
},
{
"type":"Feature",
"properties":{
"Name":"志都美小学校体育館",
"Jusho":"奈良県香芝市今泉104-1",
"Capacity":"－",
"la":"34.56749100000",
"ln":"135.70003500000"
},
"geometry":{
"type":"Point",
"coordinates":[
135.700035,
34.567491
]
}
},
{
"type":"Feature",
"properties":{
"Name":"真美ヶ丘西小学校体育館",
"Jusho":"奈良県香芝市真美ヶ丘5-4-20",
"Capacity":"－",
"la":"34.54652200000",
"ln":"135.72039500000"
},
"geometry":{
"type":"Point",
"coordinates":[
135.720395,
34.546522
]
}
},
{
"type":"Feature",
"properties":{
"Name":"真美ヶ丘東小学校体育館",
"Jusho":"奈良県香芝市真美ヶ丘3-2-70",
"Capacity":"－",
"la":"34.53943900000",
"ln":"135.72284000000"
},
"geometry":{
"type":"Point",
"coordinates":[
135.72284,
34.539439
]
}
},
{
"type":"Feature",
"properties":{
"Name":"二上小学校体育館",
"Jusho":"奈良県香芝市畑4-573",
"Capacity":"－",
"la":"34.54005000000",
"ln":"135.68759300000"
},
"geometry":{
"type":"Point",
"coordinates":[
135.687593,
34.54005
]
}
},
{
"type":"Feature",
"properties":{
"Name":"新庄小学校体育館",
"Jusho":"奈良県葛城市南道穗176-1",
"Capacity":"640",
"la":"34.49008500000",
"ln":"135.72036900000"
},
"geometry":{
"type":"Point",
"coordinates":[
135.720369,
34.490085
]
}
},
{
"type":"Feature",
"properties":{
"Name":"新庄北小学校体育館",
"Jusho":"奈良県葛城市疋田612",
"Capacity":"310",
"la":"34.49997300000",
"ln":"135.72525700000"
},
"geometry":{
"type":"Point",
"coordinates":[
135.725257,
34.499973
]
}
},
{
"type":"Feature",
"properties":{
"Name":"忍海小学校体育館",
"Jusho":"奈良県葛城市忍海338-1",
"Capacity":"590",
"la":"34.47511399910",
"ln":"135.73114600000"
},
"geometry":{
"type":"Point",
"coordinates":[
135.731146,
34.4751139991
]
}
},
{
"type":"Feature",
"properties":{
"Name":"磐城小学校体育館",
"Jusho":"奈良県葛城市南今市61",
"Capacity":"660",
"la":"34.50599900000",
"ln":"135.70964700000"
},
"geometry":{
"type":"Point",
"coordinates":[
135.709647,
34.505999
]
}
},
{
"type":"Feature",
"properties":{
"Name":"當麻小学校体育館",
"Jusho":"奈良県葛城市染野32",
"Capacity":"520",
"la":"34.52105300000",
"ln":"135.69528700000"
},
"geometry":{
"type":"Point",
"coordinates":[
135.695287,
34.521053
]
}
},
{
"type":"Feature",
"properties":{
"Name":"旧伊那佐小学校",
"Jusho":"奈良県宇陀市榛原山路491番地",
"Capacity":"－",
"la":"34.49500733770",
"ln":"135.95841101400"
},
"geometry":{
"type":"Point",
"coordinates":[
135.958411014,
34.4950073377
]
}
},
{
"type":"Feature",
"properties":{
"Name":"旧笠間小学校",
"Jusho":"奈良県宇陀市室生上笠間444番地1",
"Capacity":"－",
"la":"34.61149321100",
"ln":"136.02949675100"
},
"geometry":{
"type":"Point",
"coordinates":[
136.029496751,
34.611493211
]
}
},
{
"type":"Feature",
"properties":{
"Name":"旧多田小学校",
"Jusho":"奈良県宇陀市室生多田415番地",
"Capacity":"－",
"la":"34.59465130350",
"ln":"135.98275024900"
},
"geometry":{
"type":"Point",
"coordinates":[
135.982750249,
34.5946513035
]
}
},
{
"type":"Feature",
"properties":{
"Name":"室生西小学校",
"Jusho":"奈良県宇陀市室生大野1912番地",
"Capacity":"－",
"la":"34.56383000000",
"ln":"136.01337200000"
},
"geometry":{
"type":"Point",
"coordinates":[
136.013372,
34.56383
]
}
},
{
"type":"Feature",
"properties":{
"Name":"室生東小学校",
"Jusho":"奈良県宇陀市室生三本松2138番地",
"Capacity":"－",
"la":"34.57271900000",
"ln":"136.02728800000"
},
"geometry":{
"type":"Point",
"coordinates":[
136.027288,
34.572719
]
}
},
{
"type":"Feature",
"properties":{
"Name":"守道小学校",
"Jusho":"奈良県宇陀市大宇陀守道857番地1",
"Capacity":"－",
"la":"34.46943100000",
"ln":"135.95379600000"
},
"geometry":{
"type":"Point",
"coordinates":[
135.953796,
34.469431
]
}
},
{
"type":"Feature",
"properties":{
"Name":"榛原小学校",
"Jusho":"奈良県宇陀市榛原萩原2145番地",
"Capacity":"－",
"la":"34.53183800000",
"ln":"135.95491900000"
},
"geometry":{
"type":"Point",
"coordinates":[
135.954919,
34.531838
]
}
},
{
"type":"Feature",
"properties":{
"Name":"榛原西小学校",
"Jusho":"奈良県宇陀市榛原下井足1061番地",
"Capacity":"－",
"la":"34.52155200000",
"ln":"135.94671700000"
},
"geometry":{
"type":"Point",
"coordinates":[
135.946717,
34.521552
]
}
},
{
"type":"Feature",
"properties":{
"Name":"榛原東小学校",
"Jusho":"奈良県宇陀市榛原赤瀬190番地",
"Capacity":"－",
"la":"34.54516000000",
"ln":"135.96439000000"
},
"geometry":{
"type":"Point",
"coordinates":[
135.96439,
34.54516
]
}
},
{
"type":"Feature",
"properties":{
"Name":"大宇陀小学校",
"Jusho":"奈良県宇陀市大宇陀西山72番地2",
"Capacity":"－",
"la":"34.48310100000",
"ln":"135.92904200000"
},
"geometry":{
"type":"Point",
"coordinates":[
135.929042,
34.483101
]
}
},
{
"type":"Feature",
"properties":{
"Name":"田原小学校",
"Jusho":"奈良県宇陀市大宇田原727番地",
"Capacity":"－",
"la":"34.44504200000",
"ln":"135.95384600000"
},
"geometry":{
"type":"Point",
"coordinates":[
135.953846,
34.445042
]
}
},
{
"type":"Feature",
"properties":{
"Name":"菟田野小学校",
"Jusho":"奈良県宇陀市菟田野古市場672番地",
"Capacity":"－",
"la":"34.46967231650",
"ln":"135.97405610600"
},
"geometry":{
"type":"Point",
"coordinates":[
135.974056106,
34.4696723165
]
}
},
{
"type":"Feature",
"properties":{
"Name":"野依小学校",
"Jusho":"奈良県宇陀市大宇陀野依1240番地",
"Capacity":"－",
"la":"34.50076400000",
"ln":"135.93133700000"
},
"geometry":{
"type":"Point",
"coordinates":[
135.931337,
34.500764
]
}
},
{
"type":"Feature",
"properties":{
"Name":"やまぞえ小学校",
"Jusho":"奈良県山辺郡山添村春日1770番地の1",
"Capacity":"500",
"la":"34.68086800000",
"ln":"136.05178200000"
},
"geometry":{
"type":"Point",
"coordinates":[
136.051782,
34.680868
]
}
},
{
"type":"Feature",
"properties":{
"Name":"西小学校（体育館）",
"Jusho":"奈良県生駒郡平群町福貴691",
"Capacity":"－",
"la":"34.62429000000",
"ln":"135.68831300000"
},
"geometry":{
"type":"Point",
"coordinates":[
135.688313,
34.62429
]
}
},
{
"type":"Feature",
"properties":{
"Name":"東小学校（体育館）",
"Jusho":"奈良県生駒郡平群町吉新2-2-13",
"Capacity":"－",
"la":"34.63140100000",
"ln":"135.70006200000"
},
"geometry":{
"type":"Point",
"coordinates":[
135.700062,
34.631401
]
}
},
{
"type":"Feature",
"properties":{
"Name":"南小学校（体育館）",
"Jusho":"奈良県生駒郡平群町椿井820",
"Capacity":"－",
"la":"34.61498600000",
"ln":"135.70964400000"
},
"geometry":{
"type":"Point",
"coordinates":[
135.709644,
34.614986
]
}
},
{
"type":"Feature",
"properties":{
"Name":"北小学校（体育館）",
"Jusho":"奈良県生駒郡平群町緑ヶ丘1-4-1",
"Capacity":"－",
"la":"34.64456600000",
"ln":"135.69756200000"
},
"geometry":{
"type":"Point",
"coordinates":[
135.697562,
34.644566
]
}
},
{
"type":"Feature",
"properties":{
"Name":"三郷小学校体育館",
"Jusho":"奈良県生駒郡三郷町勢野西1-6-1",
"Capacity":"－",
"la":"34.60032100000",
"ln":"135.69295200000"
},
"geometry":{
"type":"Point",
"coordinates":[
135.692952,
34.600321
]
}
},
{
"type":"Feature",
"properties":{
"Name":"三郷北小学校体育館",
"Jusho":"奈良県生駒郡三郷町美松ヶ丘西2-11-1",
"Capacity":"－",
"la":"34.61151400000",
"ln":"135.69742300000"
},
"geometry":{
"type":"Point",
"coordinates":[
135.697423,
34.611514
]
}
},
{
"type":"Feature",
"properties":{
"Name":"斑鳩小学校",
"Jusho":"奈良県生駒郡斑鳩町法隆寺南1-13-46",
"Capacity":"－",
"la":"34.60787600000",
"ln":"135.73172600000"
},
"geometry":{
"type":"Point",
"coordinates":[
135.731726,
34.607876
]
}
},
{
"type":"Feature",
"properties":{
"Name":"斑鳩西小学校",
"Jusho":"奈良県生駒郡斑鳩町神南2-4-25",
"Capacity":"－",
"la":"34.59765400000",
"ln":"135.71889400000"
},
"geometry":{
"type":"Point",
"coordinates":[
135.718894,
34.597654
]
}
},
{
"type":"Feature",
"properties":{
"Name":"斑鳩東小学校",
"Jusho":"奈良県生駒郡斑鳩町法隆寺南2-11-5",
"Capacity":"－",
"la":"34.61007000000",
"ln":"135.74403100000"
},
"geometry":{
"type":"Point",
"coordinates":[
135.744031,
34.61007
]
}
},
{
"type":"Feature",
"properties":{
"Name":"安堵町立安堵小学校",
"Jusho":"奈良県生駒郡安堵町東安堵1469-3",
"Capacity":"－",
"la":"34.60312700000",
"ln":"135.75589200000"
},
"geometry":{
"type":"Point",
"coordinates":[
135.755892,
34.603127
]
}
},
{
"type":"Feature",
"properties":{
"Name":"結崎小学校（体育館）",
"Jusho":"奈良県磯城郡川西町結崎255",
"Capacity":"－",
"la":"34.58457400000",
"ln":"135.77677900000"
},
"geometry":{
"type":"Point",
"coordinates":[
135.776779,
34.584574
]
}
},
{
"type":"Feature",
"properties":{
"Name":"唐院小学校（体育館）",
"Jusho":"奈良県磯城郡川西町唐院21",
"Capacity":"－",
"la":"34.58332400000",
"ln":"135.75980800000"
},
"geometry":{
"type":"Point",
"coordinates":[
135.759808,
34.583324
]
}
},
{
"type":"Feature",
"properties":{
"Name":"三宅小学校",
"Jusho":"奈良県磯城郡三宅町伴堂769",
"Capacity":"－",
"la":"34.57401600000",
"ln":"135.77182700000"
},
"geometry":{
"type":"Point",
"coordinates":[
135.771827,
34.574016
]
}
},
{
"type":"Feature",
"properties":{
"Name":"田原本小学校",
"Jusho":"奈良県磯城郡田原本町新町48",
"Capacity":"428",
"la":"34.55799400000",
"ln":"135.79138900000"
},
"geometry":{
"type":"Point",
"coordinates":[
135.791389,
34.557994
]
}
},
{
"type":"Feature",
"properties":{
"Name":"東小学校",
"Jusho":"奈良県磯城郡田原本町大木1-1",
"Capacity":"381",
"la":"34.54907900000",
"ln":"135.81472100000"
},
"geometry":{
"type":"Point",
"coordinates":[
135.814721,
34.549079
]
}
},
{
"type":"Feature",
"properties":{
"Name":"南小学校",
"Jusho":"奈良県磯城郡田原本町千代306",
"Capacity":"368",
"la":"34.54180200000",
"ln":"135.79644500000"
},
"geometry":{
"type":"Point",
"coordinates":[
135.796445,
34.541802
]
}
},
{
"type":"Feature",
"properties":{
"Name":"平野小学校",
"Jusho":"奈良県磯城郡田原本町平野62-3",
"Capacity":"390",
"la":"34.55002300000",
"ln":"135.77455800000"
},
"geometry":{
"type":"Point",
"coordinates":[
135.774558,
34.550023
]
}
},
{
"type":"Feature",
"properties":{
"Name":"北小学校",
"Jusho":"奈良県磯城郡田原本町鍵155",
"Capacity":"362",
"la":"34.56691000000",
"ln":"135.80136100000"
},
"geometry":{
"type":"Point",
"coordinates":[
135.801361,
34.56691
]
}
},
{
"type":"Feature",
"properties":{
"Name":"旧下曽爾小学校体育館",
"Jusho":"奈良県宇陀郡曽爾村大字伊賀見39",
"Capacity":"－",
"la":"34.52832680520",
"ln":"136.14265319000"
},
"geometry":{
"type":"Point",
"coordinates":[
136.14265319,
34.5283268052
]
}
},
{
"type":"Feature",
"properties":{
"Name":"曽爾小学校体育館",
"Jusho":"奈良県宇陀郡曽爾村大字長野62",
"Capacity":"－",
"la":"34.50642500000",
"ln":"136.11658700000"
},
"geometry":{
"type":"Point",
"coordinates":[
136.116587,
34.506425
]
}
},
{
"type":"Feature",
"properties":{
"Name":"御杖小学校",
"Jusho":"奈良県宇陀郡御杖村大字菅野47",
"Capacity":"－",
"la":"34.48778900000",
"ln":"136.15541600000"
},
"geometry":{
"type":"Point",
"coordinates":[
136.155416,
34.487789
]
}
},
{
"type":"Feature",
"properties":{
"Name":"たかむち小学校",
"Jusho":"奈良県高市郡高取町清水谷205",
"Capacity":"－",
"la":"34.44284200000",
"ln":"135.79650200000"
},
"geometry":{
"type":"Point",
"coordinates":[
135.796502,
34.442842
]
}
},
{
"type":"Feature",
"properties":{
"Name":"旧育成小学校",
"Jusho":"奈良県高市郡高取町兵庫201",
"Capacity":"－",
"la":"34.44734100000",
"ln":"135.77639200000"
},
"geometry":{
"type":"Point",
"coordinates":[
135.776392,
34.447341
]
}
},
{
"type":"Feature",
"properties":{
"Name":"旧高市小学校跡",
"Jusho":"奈良県高市郡明日香村島庄",
"Capacity":"－",
"la":"34.46701084160",
"ln":"135.82409371500"
},
"geometry":{
"type":"Point",
"coordinates":[
135.824093715,
34.4670108416
]
}
},
{
"type":"Feature",
"properties":{
"Name":"旧阪合小学校跡",
"Jusho":"奈良県高市郡明日香村檜前",
"Capacity":"－",
"la":"34.46017873980",
"ln":"135.80260540100"
},
"geometry":{
"type":"Point",
"coordinates":[
135.802605401,
34.4601787398
]
}
},
{
"type":"Feature",
"properties":{
"Name":"旧飛鳥小学校跡",
"Jusho":"奈良県高市郡明日香村飛鳥",
"Capacity":"－",
"la":"34.48094909700",
"ln":"135.81802722400"
},
"geometry":{
"type":"Point",
"coordinates":[
135.818027224,
34.480949097
]
}
},
{
"type":"Feature",
"properties":{
"Name":"明日香小学校",
"Jusho":"奈良県高市郡明日香村橘86",
"Capacity":"－",
"la":"34.46917200000",
"ln":"135.81233300000"
},
"geometry":{
"type":"Point",
"coordinates":[
135.812333,
34.469172
]
}
},
{
"type":"Feature",
"properties":{
"Name":"上牧小学校体育館",
"Jusho":"奈良県北葛城郡上牧町大字上牧1866",
"Capacity":"－",
"la":"34.56135300000",
"ln":"135.71717300000"
},
"geometry":{
"type":"Point",
"coordinates":[
135.717173,
34.561353
]
}
},
{
"type":"Feature",
"properties":{
"Name":"上牧第２小学校体育館",
"Jusho":"奈良県北葛城郡上牧町片岡台3-2",
"Capacity":"－",
"la":"34.57535199910",
"ln":"135.71561700000"
},
"geometry":{
"type":"Point",
"coordinates":[
135.715617,
34.5753519991
]
}
},
{
"type":"Feature",
"properties":{
"Name":"上牧第３小学校体育館",
"Jusho":"奈良県北葛城郡上牧町大字上牧3100",
"Capacity":"－",
"la":"34.57065800000",
"ln":"135.72153400000"
},
"geometry":{
"type":"Point",
"coordinates":[
135.721534,
34.570658
]
}
},
{
"type":"Feature",
"properties":{
"Name":"王寺小学校",
"Jusho":"奈良県北葛城郡王寺町本町2丁目6番16号",
"Capacity":"－",
"la":"34.58885000000",
"ln":"135.70489600000"
},
"geometry":{
"type":"Point",
"coordinates":[
135.704896,
34.58885
]
}
},
{
"type":"Feature",
"properties":{
"Name":"王寺南小学校",
"Jusho":"奈良県北葛城郡王寺町太子2丁目1番30号",
"Capacity":"－",
"la":"34.58193400000",
"ln":"135.69217500000"
},
"geometry":{
"type":"Point",
"coordinates":[
135.692175,
34.581934
]
}
},
{
"type":"Feature",
"properties":{
"Name":"王寺北小学校",
"Jusho":"奈良県北葛城郡王寺町舟戸3丁目7番18号",
"Capacity":"－",
"la":"34.59157200000",
"ln":"135.71256200000"
},
"geometry":{
"type":"Point",
"coordinates":[
135.712562,
34.591572
]
}
},
{
"type":"Feature",
"properties":{
"Name":"広陵西小学校",
"Jusho":"奈良県北葛城郡広陵町大字平尾542",
"Capacity":"－",
"la":"34.54116200000",
"ln":"135.73595000000"
},
"geometry":{
"type":"Point",
"coordinates":[
135.73595,
34.541162
]
}
},
{
"type":"Feature",
"properties":{
"Name":"広陵東小学校",
"Jusho":"奈良県北葛城郡広陵町大字百済1625-1",
"Capacity":"－",
"la":"34.54588400000",
"ln":"135.75736500000"
},
"geometry":{
"type":"Point",
"coordinates":[
135.757365,
34.545884
]
}
},
{
"type":"Feature",
"properties":{
"Name":"広陵北小学校",
"Jusho":"奈良県北葛城郡広陵町大字弁財天303",
"Capacity":"－",
"la":"34.56371500000",
"ln":"135.74925400000"
},
"geometry":{
"type":"Point",
"coordinates":[
135.749254,
34.563715
]
}
},
{
"type":"Feature",
"properties":{
"Name":"真美ケ丘第一小学校",
"Jusho":"奈良県北葛城郡広陵町馬見南2-1-30",
"Capacity":"－",
"la":"34.53963399910",
"ln":"135.73225600000"
},
"geometry":{
"type":"Point",
"coordinates":[
135.732256,
34.5396339991
]
}
},
{
"type":"Feature",
"properties":{
"Name":"真美ケ丘第二小学校",
"Jusho":"奈良県北葛城郡広陵町馬見北7-1-32",
"Capacity":"－",
"la":"34.55138199910",
"ln":"135.72370100000"
},
"geometry":{
"type":"Point",
"coordinates":[
135.723701,
34.5513819991
]
}
},
{
"type":"Feature",
"properties":{
"Name":"河合第一小学校",
"Jusho":"奈良県北葛城郡河合町池部1-15-10",
"Capacity":"558",
"la":"34.58004800000",
"ln":"135.73540400000"
},
"geometry":{
"type":"Point",
"coordinates":[
135.735404,
34.580048
]
}
},
{
"type":"Feature",
"properties":{
"Name":"河合第三小学校",
"Jusho":"奈良県北葛城郡河合町高塚台3-4-2",
"Capacity":"645",
"la":"34.58024000000",
"ln":"135.72733800000"
},
"geometry":{
"type":"Point",
"coordinates":[
135.727338,
34.58024
]
}
},
{
"type":"Feature",
"properties":{
"Name":"河合第二小学校",
"Jusho":"奈良県北葛城郡河合町星和台2-7-1",
"Capacity":"671",
"la":"34.58408300000",
"ln":"135.71538600000"
},
"geometry":{
"type":"Point",
"coordinates":[
135.715386,
34.584083
]
}
},
{
"type":"Feature",
"properties":{
"Name":"（旧）国栖小学校",
"Jusho":"奈良県吉野郡吉野町大字窪垣内46-1",
"Capacity":"－",
"la":"34.38849096520",
"ln":"135.92711213300"
},
"geometry":{
"type":"Point",
"coordinates":[
135.927112133,
34.3884909652
]
}
},
{
"type":"Feature",
"properties":{
"Name":"（旧）中竜門小学校",
"Jusho":"奈良県吉野郡吉野町大字柳1395",
"Capacity":"－",
"la":"34.41794462460",
"ln":"135.91853875100"
},
"geometry":{
"type":"Point",
"coordinates":[
135.918538751,
34.4179446246
]
}
},
{
"type":"Feature",
"properties":{
"Name":"吉野小学校",
"Jusho":"奈良県吉野郡吉野町大字上市2298",
"Capacity":"－",
"la":"34.39254300000",
"ln":"135.85072100000"
},
"geometry":{
"type":"Point",
"coordinates":[
135.850721,
34.392543
]
}
},
{
"type":"Feature",
"properties":{
"Name":"吉野北小学校",
"Jusho":"奈良県吉野郡吉野町大字平尾87",
"Capacity":"－",
"la":"34.41104100000",
"ln":"135.88471800000"
},
"geometry":{
"type":"Point",
"coordinates":[
135.884718,
34.411041
]
}
},
{
"type":"Feature",
"properties":{
"Name":"希望ヶ丘小学校体育館",
"Jusho":"奈良県吉野郡大淀町北野54-1",
"Capacity":"－",
"la":"34.39751400000",
"ln":"135.82041800000"
},
"geometry":{
"type":"Point",
"coordinates":[
135.820418,
34.397514
]
}
},
{
"type":"Feature",
"properties":{
"Name":"旧旭ヶ丘小学校体育館",
"Jusho":"奈良県吉野郡大淀町北六田44-2",
"Capacity":"－",
"la":"34.39569034210",
"ln":"135.82977142800"
},
"geometry":{
"type":"Point",
"coordinates":[
135.829771428,
34.3956903421
]
}
},
{
"type":"Feature",
"properties":{
"Name":"桜ヶ丘小学校体育館",
"Jusho":"奈良県吉野郡大淀町下渕959",
"Capacity":"－",
"la":"34.38415400000",
"ln":"135.79228200000"
},
"geometry":{
"type":"Point",
"coordinates":[
135.792282,
34.384154
]
}
},
{
"type":"Feature",
"properties":{
"Name":"緑ヶ丘小学校体育館",
"Jusho":"奈良県吉野郡大淀町土田365",
"Capacity":"－",
"la":"34.39095900000",
"ln":"135.80003100000"
},
"geometry":{
"type":"Point",
"coordinates":[
135.800031,
34.390959
]
}
},
{
"type":"Feature",
"properties":{
"Name":"阿知賀小学校",
"Jusho":"奈良県吉野郡下市町阿知賀2010",
"Capacity":"－",
"la":"34.37959900000",
"ln":"135.80222500000"
},
"geometry":{
"type":"Point",
"coordinates":[
135.802225,
34.379599
]
}
},
{
"type":"Feature",
"properties":{
"Name":"下市小学校",
"Jusho":"奈良県吉野郡下市町下市3060",
"Capacity":"－",
"la":"34.36879400000",
"ln":"135.78933800000"
},
"geometry":{
"type":"Point",
"coordinates":[
135.789338,
34.368794
]
}
},
{
"type":"Feature",
"properties":{
"Name":"下市南小学校",
"Jusho":"奈良県吉野郡下市町善城664-1",
"Capacity":"－",
"la":"34.35416400000",
"ln":"135.80083300000"
},
"geometry":{
"type":"Point",
"coordinates":[
135.800833,
34.354164
]
}
},
{
"type":"Feature",
"properties":{
"Name":"元才谷小学校跡集会所",
"Jusho":"奈良県吉野郡下市町才谷480-1",
"Capacity":"－",
"la":"34.34948389760",
"ln":"135.84776753200"
},
"geometry":{
"type":"Point",
"coordinates":[
135.847767532,
34.3494838976
]
}
},
{
"type":"Feature",
"properties":{
"Name":"丹生小学校",
"Jusho":"奈良県吉野郡下市町谷18",
"Capacity":"－",
"la":"34.30826606160",
"ln":"135.80121082900"
},
"geometry":{
"type":"Point",
"coordinates":[
135.801210829,
34.3082660616
]
}
},
{
"type":"Feature",
"properties":{
"Name":"黒滝小学校",
"Jusho":"奈良県吉野郡黒滝村大字寺戸41",
"Capacity":"－",
"la":"34.31055100000",
"ln":"135.85238900000"
},
"geometry":{
"type":"Point",
"coordinates":[
135.852389,
34.310551
]
}
},
{
"type":"Feature",
"properties":{
"Name":"旧天川西小学校",
"Jusho":"奈良県吉野郡天川村和田489",
"Capacity":"－",
"la":"34.19458877460",
"ln":"135.81896238700"
},
"geometry":{
"type":"Point",
"coordinates":[
135.818962387,
34.1945887746
]
}
},
{
"type":"Feature",
"properties":{
"Name":"天川小学校",
"Jusho":"奈良県吉野郡天川村中谷111",
"Capacity":"－",
"la":"34.23972600000",
"ln":"135.84950000000"
},
"geometry":{
"type":"Point",
"coordinates":[
135.8495,
34.239726
]
}
},
{
"type":"Feature",
"properties":{
"Name":"洞川小学校・洞川中学校",
"Jusho":"奈良県吉野郡天川村洞川410",
"Capacity":"－",
"la":"34.27000000000",
"ln":"135.88377500000"
},
"geometry":{
"type":"Point",
"coordinates":[
135.883775,
34.27
]
}
},
{
"type":"Feature",
"properties":{
"Name":"（旧）今井小学校",
"Jusho":"奈良県吉野郡野迫川村今井105",
"Capacity":"－",
"la":"34.20350049220",
"ln":"135.69469259000"
},
"geometry":{
"type":"Point",
"coordinates":[
135.69469259,
34.2035004922
]
}
},
{
"type":"Feature",
"properties":{
"Name":"（旧）北股小学校",
"Jusho":"奈良県吉野郡野迫川村北股539",
"Capacity":"－",
"la":"34.14504894880",
"ln":"135.63836484600"
},
"geometry":{
"type":"Point",
"coordinates":[
135.638364846,
34.1450489488
]
}
},
{
"type":"Feature",
"properties":{
"Name":"（旧）野川小学校",
"Jusho":"奈良県吉野郡野迫川村中369",
"Capacity":"－",
"la":"34.20925898780",
"ln":"135.66638707800"
},
"geometry":{
"type":"Point",
"coordinates":[
135.666387078,
34.2092589878
]
}
},
{
"type":"Feature",
"properties":{
"Name":"野迫川小学校",
"Jusho":"奈良県吉野郡野迫川村吉野郡野迫川北股51",
"Capacity":"－",
"la":"34.17397400000",
"ln":"135.63659200000"
},
"geometry":{
"type":"Point",
"coordinates":[
135.636592,
34.173974
]
}
},
{
"type":"Feature",
"properties":{
"Name":"旧五百瀬小学校",
"Jusho":"奈良県吉野郡十津川村大字五百瀬95",
"Capacity":"－",
"la":"34.03472623180",
"ln":"135.69510271900"
},
"geometry":{
"type":"Point",
"coordinates":[
135.695102719,
34.0347262318
]
}
},
{
"type":"Feature",
"properties":{
"Name":"三村小学校",
"Jusho":"奈良県吉野郡十津川村大字小原707",
"Capacity":"－",
"la":"33.98367000000",
"ln":"135.79073200000"
},
"geometry":{
"type":"Point",
"coordinates":[
135.790732,
33.98367
]
}
},
{
"type":"Feature",
"properties":{
"Name":"上野地小学校",
"Jusho":"奈良県吉野郡十津川村大字上野地221",
"Capacity":"－",
"la":"34.09924000000",
"ln":"135.76006600000"
},
"geometry":{
"type":"Point",
"coordinates":[
135.760066,
34.09924
]
}
},
{
"type":"Feature",
"properties":{
"Name":"西川第一小学校体育館",
"Jusho":"奈良県吉野郡十津川村大字永井239",
"Capacity":"－",
"la":"33.96997700000",
"ln":"135.73579200000"
},
"geometry":{
"type":"Point",
"coordinates":[
135.735792,
33.969977
]
}
},
{
"type":"Feature",
"properties":{
"Name":"西川第二小学校体育館",
"Jusho":"奈良県吉野郡十津川村大字出谷416-2",
"Capacity":"－",
"la":"33.92476000000",
"ln":"135.71460000000"
},
"geometry":{
"type":"Point",
"coordinates":[
135.7146,
33.92476
]
}
},
{
"type":"Feature",
"properties":{
"Name":"二村小学校",
"Jusho":"奈良県吉野郡十津川村大字滝川188",
"Capacity":"－",
"la":"34.05144000000",
"ln":"135.79242500000"
},
"geometry":{
"type":"Point",
"coordinates":[
135.792425,
34.05144
]
}
},
{
"type":"Feature",
"properties":{
"Name":"迫西川小学校",
"Jusho":"奈良県吉野郡十津川村大字迫西川115-6",
"Capacity":"－",
"la":"33.96647119160",
"ln":"135.65007650800"
},
"geometry":{
"type":"Point",
"coordinates":[
135.650076508,
33.9664711916
]
}
},
{
"type":"Feature",
"properties":{
"Name":"平谷小学校",
"Jusho":"奈良県吉野郡十津川村大字平谷256",
"Capacity":"－",
"la":"33.93937000000",
"ln":"135.77037200000"
},
"geometry":{
"type":"Point",
"coordinates":[
135.770372,
33.93937
]
}
},
{
"type":"Feature",
"properties":{
"Name":"下北山小学校体育館",
"Jusho":"奈良県吉野郡下北山村寺垣内1002",
"Capacity":"－",
"la":"34.00486500000",
"ln":"135.95407800000"
},
"geometry":{
"type":"Point",
"coordinates":[
135.954078,
34.004865
]
}
},
{
"type":"Feature",
"properties":{
"Name":"上北山小学校体育館",
"Jusho":"奈良県吉野郡上北山村河合280",
"Capacity":"－",
"la":"34.13582299910",
"ln":"136.00015500000"
},
"geometry":{
"type":"Point",
"coordinates":[
136.000155,
34.1358229991
]
}
},
{
"type":"Feature",
"properties":{
"Name":"旧川上東小学校",
"Jusho":"奈良県吉野郡川上村北和田134",
"Capacity":"－",
"la":"34.29256019240",
"ln":"136.00329657700"
},
"geometry":{
"type":"Point",
"coordinates":[
136.003296577,
34.2925601924
]
}
},
{
"type":"Feature",
"properties":{
"Name":"川上小学校",
"Jusho":"奈良県吉野郡川上村西河105-1",
"Capacity":"－",
"la":"34.35974300000",
"ln":"135.92421500000"
},
"geometry":{
"type":"Point",
"coordinates":[
135.924215,
34.359743
]
}
},
{
"type":"Feature",
"properties":{
"Name":"旧四郷小学校体育館",
"Jusho":"奈良県吉野郡東吉野村大字三尾51-1",
"Capacity":"－",
"la":"34.37689711480",
"ln":"135.99359336200"
},
"geometry":{
"type":"Point",
"coordinates":[
135.993593362,
34.3768971148
]
}
},
{
"type":"Feature",
"properties":{
"Name":"高見小学校体育館",
"Jusho":"奈良県吉野郡東吉野村大字木津319",
"Capacity":"－",
"la":"34.42318127080",
"ln":"136.03085237200"
},
"geometry":{
"type":"Point",
"coordinates":[
136.030852372,
34.4231812708
]
}
},
{
"type":"Feature",
"properties":{
"Name":"東吉野小学校体育館",
"Jusho":"奈良県吉野郡東吉野村大字小川604",
"Capacity":"－",
"la":"34.40268494930",
"ln":"135.97044576100"
},
"geometry":{
"type":"Point",
"coordinates":[
135.970445761,
34.4026849493
]
}
},
{
"type":"Feature",
"properties":{
"Name":"京西中学校体育館",
"Jusho":"奈良県奈良市平松四丁目3番1号",
"Capacity":"540",
"la":"34.67431500000",
"ln":"135.77616600000"
},
"geometry":{
"type":"Point",
"coordinates":[
135.776166,
34.674315
]
}
},
{
"type":"Feature",
"properties":{
"Name":"興東中学校体育館",
"Jusho":"奈良県奈良市大柳生町4736番地",
"Capacity":"270",
"la":"34.71628500000",
"ln":"135.92229100000"
},
"geometry":{
"type":"Point",
"coordinates":[
135.922291,
34.716285
]
}
},
{
"type":"Feature",
"properties":{
"Name":"月ヶ瀬中学校及び月ヶ瀬体育館",
"Jusho":"奈良県奈良市月ヶ瀬尾山2551番地",
"Capacity":"520",
"la":"34.71149400000",
"ln":"136.04313300000"
},
"geometry":{
"type":"Point",
"coordinates":[
136.043133,
34.711494
]
}
},
{
"type":"Feature",
"properties":{
"Name":"三笠中学校",
"Jusho":"奈良県奈良市三条川西町3番1号",
"Capacity":"750",
"la":"34.67978700000",
"ln":"135.80641400000"
},
"geometry":{
"type":"Point",
"coordinates":[
135.806414,
34.679787
]
}
},
{
"type":"Feature",
"properties":{
"Name":"若草中学校体育館",
"Jusho":"奈良県奈良市法蓮町1416番地の1",
"Capacity":"550",
"la":"34.69514700000",
"ln":"135.83157800000"
},
"geometry":{
"type":"Point",
"coordinates":[
135.831578,
34.695147
]
}
},
{
"type":"Feature",
"properties":{
"Name":"春日中学校体育館",
"Jusho":"奈良県奈良市西木辻町67番地",
"Capacity":"550",
"la":"34.67359399910",
"ln":"135.82007900000"
},
"geometry":{
"type":"Point",
"coordinates":[
135.820079,
34.6735939991
]
}
},
{
"type":"Feature",
"properties":{
"Name":"田原中学校体育館",
"Jusho":"奈良県奈良市横田町295番地の1",
"Capacity":"350",
"la":"34.65973100000",
"ln":"135.91219300000"
},
"geometry":{
"type":"Point",
"coordinates":[
135.912193,
34.659731
]
}
},
{
"type":"Feature",
"properties":{
"Name":"登美ヶ丘中学校体育館",
"Jusho":"奈良県奈良市東登美ヶ丘三丁目1059番地",
"Capacity":"550",
"la":"34.71361599910",
"ln":"135.76213900000"
},
"geometry":{
"type":"Point",
"coordinates":[
135.762139,
34.7136159991
]
}
},
{
"type":"Feature",
"properties":{
"Name":"登美ヶ丘北中学校体育館",
"Jusho":"奈良県奈良市北登美ヶ丘一丁目1番1号",
"Capacity":"490",
"la":"34.72339300000",
"ln":"135.75294500000"
},
"geometry":{
"type":"Point",
"coordinates":[
135.752945,
34.723393
]
}
},
{
"type":"Feature",
"properties":{
"Name":"都祁中学校体育館",
"Jusho":"奈良県奈良市針町2554番地",
"Capacity":"640",
"la":"34.60682900000",
"ln":"135.95447700000"
},
"geometry":{
"type":"Point",
"coordinates":[
135.954477,
34.606829
]
}
},
{
"type":"Feature",
"properties":{
"Name":"都跡中学校体育館",
"Jusho":"奈良県奈良市柏木町13番地",
"Capacity":"540",
"la":"34.67637100000",
"ln":"135.79599800000"
},
"geometry":{
"type":"Point",
"coordinates":[
135.795998,
34.676371
]
}
},
{
"type":"Feature",
"properties":{
"Name":"都南中学校体育館",
"Jusho":"奈良県奈良市南永井町98番地の1",
"Capacity":"680",
"la":"34.64859599910",
"ln":"135.82452400000"
},
"geometry":{
"type":"Point",
"coordinates":[
135.824524,
34.6485959991
]
}
},
{
"type":"Feature",
"properties":{
"Name":"奈良教育大学付属中学校",
"Jusho":"奈良県奈良市法蓮町2058-2",
"Capacity":"－",
"la":"34.69698000000",
"ln":"135.81713500000"
},
"geometry":{
"type":"Point",
"coordinates":[
135.817135,
34.69698
]
}
},
{
"type":"Feature",
"properties":{
"Name":"二名中学校体育館",
"Jusho":"奈良県奈良市二名一丁目3667番地の2",
"Capacity":"540",
"la":"34.70625600000",
"ln":"135.73769700000"
},
"geometry":{
"type":"Point",
"coordinates":[
135.737697,
34.706256
]
}
},
{
"type":"Feature",
"properties":{
"Name":"飛鳥中学校体育館",
"Jusho":"奈良県奈良市高畑町1475番地の1",
"Capacity":"500",
"la":"34.67528800000",
"ln":"135.84907700000"
},
"geometry":{
"type":"Point",
"coordinates":[
135.849077,
34.675288
]
}
},
{
"type":"Feature",
"properties":{
"Name":"富雄中学校体育館",
"Jusho":"奈良県奈良市三碓二丁目3番12号",
"Capacity":"500",
"la":"34.68959100000",
"ln":"135.73586400000"
},
"geometry":{
"type":"Point",
"coordinates":[
135.735864,
34.689591
]
}
},
{
"type":"Feature",
"properties":{
"Name":"富雄南中学校体育館",
"Jusho":"奈良県奈良市藤ノ木台一丁目5番13号",
"Capacity":"490",
"la":"34.68231399910",
"ln":"135.75314000000"
},
"geometry":{
"type":"Point",
"coordinates":[
135.75314,
34.6823139991
]
}
},
{
"type":"Feature",
"properties":{
"Name":"伏見中学校体育館",
"Jusho":"奈良県奈良市西大寺野神町一丁目6番1号",
"Capacity":"550",
"la":"34.69589600000",
"ln":"135.77408300000"
},
"geometry":{
"type":"Point",
"coordinates":[
135.774083,
34.695896
]
}
},
{
"type":"Feature",
"properties":{
"Name":"平城西中学校体育館",
"Jusho":"奈良県奈良市神功二丁目1番地",
"Capacity":"550",
"la":"34.71961500000",
"ln":"135.78044300000"
},
"geometry":{
"type":"Point",
"coordinates":[
135.780443,
34.719615
]
}
},
{
"type":"Feature",
"properties":{
"Name":"平城中学校体育館",
"Jusho":"奈良県奈良市秋篠町1333番地",
"Capacity":"450",
"la":"34.70895000000",
"ln":"135.77374900000"
},
"geometry":{
"type":"Point",
"coordinates":[
135.773749,
34.70895
]
}
},
{
"type":"Feature",
"properties":{
"Name":"平城東中学校体育館",
"Jusho":"奈良県奈良市朱雀六丁目11番地",
"Capacity":"550",
"la":"34.71547700000",
"ln":"135.79996900000"
},
"geometry":{
"type":"Point",
"coordinates":[
135.799969,
34.715477
]
}
},
{
"type":"Feature",
"properties":{
"Name":"柳生中学校体育館",
"Jusho":"奈良県奈良市柳生町212番地の2",
"Capacity":"350",
"la":"34.73111699910",
"ln":"135.95189800000"
},
"geometry":{
"type":"Point",
"coordinates":[
135.951898,
34.7311169991
]
}
},
{
"type":"Feature",
"properties":{
"Name":"高田西中学校",
"Jusho":"奈良県大和高田市池田330",
"Capacity":"1100",
"la":"34.51666500000",
"ln":"135.72928400000"
},
"geometry":{
"type":"Point",
"coordinates":[
135.729284,
34.516665
]
}
},
{
"type":"Feature",
"properties":{
"Name":"高田中学校",
"Jusho":"奈良県大和高田市大中東町5-48",
"Capacity":"1100",
"la":"34.51327700000",
"ln":"135.73922800000"
},
"geometry":{
"type":"Point",
"coordinates":[
135.739228,
34.513277
]
}
},
{
"type":"Feature",
"properties":{
"Name":"片塩中学校",
"Jusho":"奈良県大和高田市中三倉堂2丁目9-28",
"Capacity":"1100",
"la":"34.50111200000",
"ln":"135.74606100000"
},
"geometry":{
"type":"Point",
"coordinates":[
135.746061,
34.501112
]
}
},
{
"type":"Feature",
"properties":{
"Name":"郡山西中学校",
"Jusho":"奈良県大和郡山市田中町767",
"Capacity":"－",
"la":"34.64370700000",
"ln":"135.76472300000"
},
"geometry":{
"type":"Point",
"coordinates":[
135.764723,
34.643707
]
}
},
{
"type":"Feature",
"properties":{
"Name":"郡山中学校",
"Jusho":"奈良県大和郡山市柳町404",
"Capacity":"－",
"la":"34.65417800000",
"ln":"135.77161100000"
},
"geometry":{
"type":"Point",
"coordinates":[
135.771611,
34.654178
]
}
},
{
"type":"Feature",
"properties":{
"Name":"郡山東中学校",
"Jusho":"奈良県大和郡山市若槻町134-2",
"Capacity":"－",
"la":"34.63548600000",
"ln":"135.79733200000"
},
"geometry":{
"type":"Point",
"coordinates":[
135.797332,
34.635486
]
}
},
{
"type":"Feature",
"properties":{
"Name":"郡山南中学校",
"Jusho":"奈良県大和郡山市筒井町398",
"Capacity":"－",
"la":"34.62368100000",
"ln":"135.77888900000"
},
"geometry":{
"type":"Point",
"coordinates":[
135.778889,
34.623681
]
}
},
{
"type":"Feature",
"properties":{
"Name":"片桐中学校",
"Jusho":"奈良県大和郡山市小泉町173-1",
"Capacity":"－",
"la":"34.62813300000",
"ln":"135.76084000000"
},
"geometry":{
"type":"Point",
"coordinates":[
135.76084,
34.628133
]
}
},
{
"type":"Feature",
"properties":{
"Name":"西中学校",
"Jusho":"奈良県天理市二階堂上ノ庄町210-1",
"Capacity":"－",
"la":"34.60026800000",
"ln":"135.80311000000"
},
"geometry":{
"type":"Point",
"coordinates":[
135.80311,
34.600268
]
}
},
{
"type":"Feature",
"properties":{
"Name":"南中学校",
"Jusho":"奈良県天理市兵庫町336-2",
"Capacity":"－",
"la":"34.57141100000",
"ln":"135.83458000000"
},
"geometry":{
"type":"Point",
"coordinates":[
135.83458,
34.571411
]
}
},
{
"type":"Feature",
"properties":{
"Name":"福住中学校",
"Jusho":"奈良県天理市福住町2105",
"Capacity":"－",
"la":"34.61296299910",
"ln":"135.91479500000"
},
"geometry":{
"type":"Point",
"coordinates":[
135.914795,
34.6129629991
]
}
},
{
"type":"Feature",
"properties":{
"Name":"北中学校",
"Jusho":"奈良県天理市石上町777",
"Capacity":"－",
"la":"34.61296200000",
"ln":"135.83602300000"
},
"geometry":{
"type":"Point",
"coordinates":[
135.836023,
34.612962
]
}
},
{
"type":"Feature",
"properties":{
"Name":"橿原中学校体育館",
"Jusho":"奈良県橿原市西新堂町26-1",
"Capacity":"－",
"la":"34.52974700000",
"ln":"135.78741800000"
},
"geometry":{
"type":"Point",
"coordinates":[
135.787418,
34.529747
]
}
},
{
"type":"Feature",
"properties":{
"Name":"光陽中学校体育館",
"Jusho":"奈良県橿原市古川町20",
"Capacity":"－",
"la":"34.48816900000",
"ln":"135.77166900000"
},
"geometry":{
"type":"Point",
"coordinates":[
135.771669,
34.488169
]
}
},
{
"type":"Feature",
"properties":{
"Name":"畝傍中学校体育館",
"Jusho":"奈良県橿原市石川町204",
"Capacity":"－",
"la":"34.48436499910",
"ln":"135.80141700000"
},
"geometry":{
"type":"Point",
"coordinates":[
135.801417,
34.4843649991
]
}
},
{
"type":"Feature",
"properties":{
"Name":"大成中学校体育館",
"Jusho":"奈良県橿原市小綱町77-2",
"Capacity":"－",
"la":"34.50988900000",
"ln":"135.78322300000"
},
"geometry":{
"type":"Point",
"coordinates":[
135.783223,
34.509889
]
}
},
{
"type":"Feature",
"properties":{
"Name":"白橿中学校体育館",
"Jusho":"奈良県橿原市白橿町8-12-1",
"Capacity":"－",
"la":"34.46882100000",
"ln":"135.79253000000"
},
"geometry":{
"type":"Point",
"coordinates":[
135.79253,
34.468821
]
}
},
{
"type":"Feature",
"properties":{
"Name":"八木中学校体育館",
"Jusho":"奈良県橿原市新賀町33",
"Capacity":"－",
"la":"34.51944300000",
"ln":"135.80533300000"
},
"geometry":{
"type":"Point",
"coordinates":[
135.805333,
34.519443
]
}
},
{
"type":"Feature",
"properties":{
"Name":"桜井西中学校",
"Jusho":"奈良県桜井市大福747",
"Capacity":"594",
"la":"34.51841600000",
"ln":"135.83135800000"
},
"geometry":{
"type":"Point",
"coordinates":[
135.831358,
34.518416
]
}
},
{
"type":"Feature",
"properties":{
"Name":"桜井中学校",
"Jusho":"奈良県桜井市浅古593",
"Capacity":"563",
"la":"34.49880800000",
"ln":"135.86157800000"
},
"geometry":{
"type":"Point",
"coordinates":[
135.861578,
34.498808
]
}
},
{
"type":"Feature",
"properties":{
"Name":"桜井東中学校",
"Jusho":"奈良県桜井市初瀬1655",
"Capacity":"812",
"la":"34.52572200000",
"ln":"135.89690900000"
},
"geometry":{
"type":"Point",
"coordinates":[
135.896909,
34.525722
]
}
},
{
"type":"Feature",
"properties":{
"Name":"大三輪中学校",
"Jusho":"奈良県桜井市芝1401",
"Capacity":"542",
"la":"34.53192200000",
"ln":"135.84281700000"
},
"geometry":{
"type":"Point",
"coordinates":[
135.842817,
34.531922
]
}
},
{
"type":"Feature",
"properties":{
"Name":"旧白銀北中学校",
"Jusho":"奈良県五條市西吉野町平沼田1684",
"Capacity":"－",
"la":"34.32643184450",
"ln":"135.74643133600"
},
"geometry":{
"type":"Point",
"coordinates":[
135.746431336,
34.3264318445
]
}
},
{
"type":"Feature",
"properties":{
"Name":"五條西中学校",
"Jusho":"奈良県五條市大沢町374",
"Capacity":"－",
"la":"34.36392500000",
"ln":"135.66637100000"
},
"geometry":{
"type":"Point",
"coordinates":[
135.666371,
34.363925
]
}
},
{
"type":"Feature",
"properties":{
"Name":"五條中学校",
"Jusho":"奈良県五條市下之町50",
"Capacity":"－",
"la":"34.35296000000",
"ln":"135.68951300000"
},
"geometry":{
"type":"Point",
"coordinates":[
135.689513,
34.35296
]
}
},
{
"type":"Feature",
"properties":{
"Name":"五條東中学校",
"Jusho":"奈良県五條市今井5-7-12",
"Capacity":"－",
"la":"34.35782100000",
"ln":"135.71084400000"
},
"geometry":{
"type":"Point",
"coordinates":[
135.710844,
34.357821
]
}
},
{
"type":"Feature",
"properties":{
"Name":"野原中学校",
"Jusho":"奈良県五條市野原中3-5-43",
"Capacity":"－",
"la":"34.34044800000",
"ln":"135.70235400000"
},
"geometry":{
"type":"Point",
"coordinates":[
135.702354,
34.340448
]
}
},
{
"type":"Feature",
"properties":{
"Name":"葛上中学校",
"Jusho":"奈良県御所市佐田1",
"Capacity":"－",
"la":"34.43378600000",
"ln":"135.71514900000"
},
"geometry":{
"type":"Point",
"coordinates":[
135.715149,
34.433786
]
}
},
{
"type":"Feature",
"properties":{
"Name":"葛中学校",
"Jusho":"奈良県御所市古瀬341",
"Capacity":"－",
"la":"34.42209299910",
"ln":"135.75175600000"
},
"geometry":{
"type":"Point",
"coordinates":[
135.751756,
34.4220929991
]
}
},
{
"type":"Feature",
"properties":{
"Name":"御所中学校",
"Jusho":"奈良県御所市御所665-1",
"Capacity":"－",
"la":"34.46586600000",
"ln":"135.74145100000"
},
"geometry":{
"type":"Point",
"coordinates":[
135.741451,
34.465866
]
}
},
{
"type":"Feature",
"properties":{
"Name":"大正中学校",
"Jusho":"奈良県御所市三室206-1",
"Capacity":"－",
"la":"34.46183800000",
"ln":"135.72767400000"
},
"geometry":{
"type":"Point",
"coordinates":[
135.727674,
34.461838
]
}
},
{
"type":"Feature",
"properties":{
"Name":"光明中学校",
"Jusho":"奈良県生駒市小明町55",
"Capacity":"－",
"la":"34.71225500000",
"ln":"135.70825500000"
},
"geometry":{
"type":"Point",
"coordinates":[
135.708255,
34.712255
]
}
},
{
"type":"Feature",
"properties":{
"Name":"鹿ノ台中学校",
"Jusho":"奈良県生駒市鹿ノ台南2丁目16",
"Capacity":"－",
"la":"34.73361400000",
"ln":"135.74808400000"
},
"geometry":{
"type":"Point",
"coordinates":[
135.748084,
34.733614
]
}
},
{
"type":"Feature",
"properties":{
"Name":"上中学校",
"Jusho":"奈良県生駒市上町3000",
"Capacity":"－",
"la":"34.72469800000",
"ln":"135.71650400000"
},
"geometry":{
"type":"Point",
"coordinates":[
135.716504,
34.724698
]
}
},
{
"type":"Feature",
"properties":{
"Name":"生駒中学校",
"Jusho":"奈良県生駒市西松ヶ丘9-19",
"Capacity":"－",
"la":"34.69875600000",
"ln":"135.69372800000"
},
"geometry":{
"type":"Point",
"coordinates":[
135.693728,
34.698756
]
}
},
{
"type":"Feature",
"properties":{
"Name":"生駒南中学校",
"Jusho":"奈良県生駒市萩原町90",
"Capacity":"－",
"la":"34.66714800000",
"ln":"135.70572800000"
},
"geometry":{
"type":"Point",
"coordinates":[
135.705728,
34.667148
]
}
},
{
"type":"Feature",
"properties":{
"Name":"生駒北中学校",
"Jusho":"奈良県生駒市高山町6794",
"Capacity":"－",
"la":"34.73894700000",
"ln":"135.72125300000"
},
"geometry":{
"type":"Point",
"coordinates":[
135.721253,
34.738947
]
}
},
{
"type":"Feature",
"properties":{
"Name":"大瀬中学校",
"Jusho":"奈良県生駒市小瀬町911-1",
"Capacity":"－",
"la":"34.66567600000",
"ln":"135.71806100000"
},
"geometry":{
"type":"Point",
"coordinates":[
135.718061,
34.665676
]
}
},
{
"type":"Feature",
"properties":{
"Name":"緑ヶ丘中学校",
"Jusho":"奈良県生駒市緑ヶ丘2232",
"Capacity":"－",
"la":"34.68345200000",
"ln":"135.69889500000"
},
"geometry":{
"type":"Point",
"coordinates":[
135.698895,
34.683452
]
}
},
{
"type":"Feature",
"properties":{
"Name":"香芝西中学校体育館",
"Jusho":"奈良県香芝市穴虫3096-2",
"Capacity":"－",
"la":"34.54902100000",
"ln":"135.67367700000"
},
"geometry":{
"type":"Point",
"coordinates":[
135.673677,
34.549021
]
}
},
{
"type":"Feature",
"properties":{
"Name":"香芝中学校体育館",
"Jusho":"奈良県香芝市磯壁1-1058-2",
"Capacity":"－",
"la":"34.53866100000",
"ln":"135.69870300000"
},
"geometry":{
"type":"Point",
"coordinates":[
135.698703,
34.538661
]
}
},
{
"type":"Feature",
"properties":{
"Name":"香芝東中学校体育館",
"Jusho":"奈良県香芝市真美ケ丘2-12-27",
"Capacity":"－",
"la":"34.53943900000",
"ln":"135.72020100000"
},
"geometry":{
"type":"Point",
"coordinates":[
135.720201,
34.539439
]
}
},
{
"type":"Feature",
"properties":{
"Name":"香芝北中学校体育館",
"Jusho":"奈良県香芝市旭ケ丘4-14",
"Capacity":"－",
"la":"34.55415900000",
"ln":"135.69106400000"
},
"geometry":{
"type":"Point",
"coordinates":[
135.691064,
34.554159
]
}
},
{
"type":"Feature",
"properties":{
"Name":"新庄中学校体育館",
"Jusho":"奈良県葛城市新庄248",
"Capacity":"910",
"la":"34.48641800000",
"ln":"135.71595300000"
},
"geometry":{
"type":"Point",
"coordinates":[
135.715953,
34.486418
]
}
},
{
"type":"Feature",
"properties":{
"Name":"白鳳中学校体育館",
"Jusho":"奈良県葛城市長尾14-1",
"Capacity":"830",
"la":"34.51213700000",
"ln":"135.70803600000"
},
"geometry":{
"type":"Point",
"coordinates":[
135.708036,
34.512137
]
}
},
{
"type":"Feature",
"properties":{
"Name":"室生中学校",
"Jusho":"奈良県宇陀市室生大野1962番地",
"Capacity":"－",
"la":"34.56360500000",
"ln":"136.01243400000"
},
"geometry":{
"type":"Point",
"coordinates":[
136.012434,
34.563605
]
}
},
{
"type":"Feature",
"properties":{
"Name":"榛原中学校",
"Jusho":"奈良県宇陀市榛原福地761番地",
"Capacity":"－",
"la":"34.53396400000",
"ln":"135.96194900000"
},
"geometry":{
"type":"Point",
"coordinates":[
135.961949,
34.533964
]
}
},
{
"type":"Feature",
"properties":{
"Name":"大宇陀中学校",
"Jusho":"奈良県宇陀市大宇陀拾生651番地",
"Capacity":"－",
"la":"34.47680900000",
"ln":"135.93148300000"
},
"geometry":{
"type":"Point",
"coordinates":[
135.931483,
34.476809
]
}
},
{
"type":"Feature",
"properties":{
"Name":"菟田野中学校",
"Jusho":"奈良県宇陀市菟田野古市場1220番地",
"Capacity":"－",
"la":"34.47294700000",
"ln":"135.96849300000"
},
"geometry":{
"type":"Point",
"coordinates":[
135.968493,
34.472947
]
}
},
{
"type":"Feature",
"properties":{
"Name":"山添中学校",
"Jusho":"奈良県山辺郡山添村大西1044番地",
"Capacity":"800",
"la":"34.68273500000",
"ln":"136.03697700000"
},
"geometry":{
"type":"Point",
"coordinates":[
136.036977,
34.682735
]
}
},
{
"type":"Feature",
"properties":{
"Name":"中学校（体育館）",
"Jusho":"奈良県生駒郡平群町福貴1301",
"Capacity":"－",
"la":"34.63192900000",
"ln":"135.69456200000"
},
"geometry":{
"type":"Point",
"coordinates":[
135.694562,
34.631929
]
}
},
{
"type":"Feature",
"properties":{
"Name":"三郷中学校体育館",
"Jusho":"奈良県生駒郡三郷町立野北1-3-1",
"Capacity":"－",
"la":"34.59801500000",
"ln":"135.69323000000"
},
"geometry":{
"type":"Point",
"coordinates":[
135.69323,
34.598015
]
}
},
{
"type":"Feature",
"properties":{
"Name":"斑鳩中学校",
"Jusho":"奈良県生駒郡斑鳩町龍田北1-20-1",
"Capacity":"－",
"la":"34.61306900000",
"ln":"135.72556000000"
},
"geometry":{
"type":"Point",
"coordinates":[
135.72556,
34.613069
]
}
},
{
"type":"Feature",
"properties":{
"Name":"斑鳩南中学校",
"Jusho":"奈良県生駒郡斑鳩町目安北3-1-77",
"Capacity":"－",
"la":"34.59640500000",
"ln":"135.73528200000"
},
"geometry":{
"type":"Point",
"coordinates":[
135.735282,
34.596405
]
}
},
{
"type":"Feature",
"properties":{
"Name":"安堵町立安堵中学校",
"Jusho":"奈良県生駒郡安堵町窪田465-1",
"Capacity":"－",
"la":"34.59823900000",
"ln":"135.75878000000"
},
"geometry":{
"type":"Point",
"coordinates":[
135.75878,
34.598239
]
}
},
{
"type":"Feature",
"properties":{
"Name":"式下中学校",
"Jusho":"奈良県磯城郡川西町結崎1866",
"Capacity":"－",
"la":"34.58029699910",
"ln":"135.77111300000"
},
"geometry":{
"type":"Point",
"coordinates":[
135.771113,
34.5802969991
]
}
},
{
"type":"Feature",
"properties":{
"Name":"田原本中学校",
"Jusho":"奈良県磯城郡田原本町田原本町33",
"Capacity":"666",
"la":"34.55074500000",
"ln":"135.79347300000"
},
"geometry":{
"type":"Point",
"coordinates":[
135.793473,
34.550745
]
}
},
{
"type":"Feature",
"properties":{
"Name":"北中学校",
"Jusho":"奈良県磯城郡田原本町鍵71",
"Capacity":"368",
"la":"34.56527100000",
"ln":"135.79616700000"
},
"geometry":{
"type":"Point",
"coordinates":[
135.796167,
34.565271
]
}
},
{
"type":"Feature",
"properties":{
"Name":"曽爾中学校体育館",
"Jusho":"奈良県宇陀郡曽爾村大字小長尾900",
"Capacity":"－",
"la":"34.51233388160",
"ln":"136.12071924600"
},
"geometry":{
"type":"Point",
"coordinates":[
136.120719246,
34.5123338816
]
}
},
{
"type":"Feature",
"properties":{
"Name":"御杖中学校",
"Jusho":"奈良県宇陀郡御杖村大字菅野2470",
"Capacity":"－",
"la":"34.49476100000",
"ln":"136.17310800000"
},
"geometry":{
"type":"Point",
"coordinates":[
136.173108,
34.494761
]
}
},
{
"type":"Feature",
"properties":{
"Name":"高取中学校",
"Jusho":"奈良県高市郡高取町森30",
"Capacity":"－",
"la":"34.45042400000",
"ln":"135.78925200000"
},
"geometry":{
"type":"Point",
"coordinates":[
135.789252,
34.450424
]
}
},
{
"type":"Feature",
"properties":{
"Name":"聖徳中学校",
"Jusho":"奈良県高市郡明日香村野口105",
"Capacity":"－",
"la":"34.47011699910",
"ln":"135.80661100000"
},
"geometry":{
"type":"Point",
"coordinates":[
135.806611,
34.4701169991
]
}
},
{
"type":"Feature",
"properties":{
"Name":"上牧第２中学校体育館",
"Jusho":"奈良県北葛城郡上牧町大字下牧35",
"Capacity":"－",
"la":"34.57099100000",
"ln":"135.70692400000"
},
"geometry":{
"type":"Point",
"coordinates":[
135.706924,
34.570991
]
}
},
{
"type":"Feature",
"properties":{
"Name":"上牧中学校体育館",
"Jusho":"奈良県北葛城郡上牧町大字上牧3349",
"Capacity":"－",
"la":"34.56157500000",
"ln":"135.71539600000"
},
"geometry":{
"type":"Point",
"coordinates":[
135.715396,
34.561575
]
}
},
{
"type":"Feature",
"properties":{
"Name":"王寺中学校",
"Jusho":"奈良県北葛城郡王寺町本町1丁目20番45号",
"Capacity":"－",
"la":"34.59407100000",
"ln":"135.70320100000"
},
"geometry":{
"type":"Point",
"coordinates":[
135.703201,
34.594071
]
}
},
{
"type":"Feature",
"properties":{
"Name":"王寺南中学校",
"Jusho":"奈良県北葛城郡王寺町畠田9丁目1703番地",
"Capacity":"－",
"la":"34.57265700000",
"ln":"135.69459100000"
},
"geometry":{
"type":"Point",
"coordinates":[
135.694591,
34.572657
]
}
},
{
"type":"Feature",
"properties":{
"Name":"広陵中学校",
"Jusho":"奈良県北葛城郡広陵町大字笠355",
"Capacity":"－",
"la":"34.55157700000",
"ln":"135.74797700000"
},
"geometry":{
"type":"Point",
"coordinates":[
135.747977,
34.551577
]
}
},
{
"type":"Feature",
"properties":{
"Name":"真美ケ丘中学校",
"Jusho":"奈良県北葛城郡広陵町馬見中2-17-32",
"Capacity":"－",
"la":"34.54888300000",
"ln":"135.72770000000"
},
"geometry":{
"type":"Point",
"coordinates":[
135.7277,
34.548883
]
}
},
{
"type":"Feature",
"properties":{
"Name":"河合第一中学校",
"Jusho":"奈良県北葛城郡河合町池部1-13-1",
"Capacity":"977",
"la":"34.58017800000",
"ln":"135.73725900000"
},
"geometry":{
"type":"Point",
"coordinates":[
135.737259,
34.580178
]
}
},
{
"type":"Feature",
"properties":{
"Name":"河合第二中学校",
"Jusho":"奈良県北葛城郡河合町星和台2-7-2",
"Capacity":"1029",
"la":"34.58304500000",
"ln":"135.71542300000"
},
"geometry":{
"type":"Point",
"coordinates":[
135.715423,
34.583045
]
}
},
{
"type":"Feature",
"properties":{
"Name":"吉野中学校",
"Jusho":"奈良県吉野郡吉野町大字河原屋200",
"Capacity":"－",
"la":"34.39582800000",
"ln":"135.87372600000"
},
"geometry":{
"type":"Point",
"coordinates":[
135.873726,
34.395828
]
}
},
{
"type":"Feature",
"properties":{
"Name":"大淀中学校体育館、運動場",
"Jusho":"奈良県吉野郡大淀町桧垣本1581",
"Capacity":"－",
"la":"34.38623700000",
"ln":"135.79358700000"
},
"geometry":{
"type":"Point",
"coordinates":[
135.793587,
34.386237
]
}
},
{
"type":"Feature",
"properties":{
"Name":"下市中学校",
"Jusho":"奈良県吉野郡下市町下市1818",
"Capacity":"－",
"la":"34.36437800000",
"ln":"135.79081000000"
},
"geometry":{
"type":"Point",
"coordinates":[
135.79081,
34.364378
]
}
},
{
"type":"Feature",
"properties":{
"Name":"黒滝中学校",
"Jusho":"奈良県吉野郡黒滝村大字堂原157",
"Capacity":"－",
"la":"34.30590500000",
"ln":"135.83608400000"
},
"geometry":{
"type":"Point",
"coordinates":[
135.836084,
34.305905
]
}
},
{
"type":"Feature",
"properties":{
"Name":"天川中学校",
"Jusho":"奈良県吉野郡天川村坪内253",
"Capacity":"－",
"la":"34.22453300000",
"ln":"135.83936200000"
},
"geometry":{
"type":"Point",
"coordinates":[
135.839362,
34.224533
]
}
},
{
"type":"Feature",
"properties":{
"Name":"野迫川中学校",
"Jusho":"奈良県吉野郡野迫川村北股38",
"Capacity":"－",
"la":"34.16870300000",
"ln":"135.63271600000"
},
"geometry":{
"type":"Point",
"coordinates":[
135.632716,
34.168703
]
}
},
{
"type":"Feature",
"properties":{
"Name":"小原中学校",
"Jusho":"奈良県吉野郡十津川村大字小原460",
"Capacity":"－",
"la":"33.98625300000",
"ln":"135.79720300000"
},
"geometry":{
"type":"Point",
"coordinates":[
135.797203,
33.986253
]
}
},
{
"type":"Feature",
"properties":{
"Name":"上野地中学校",
"Jusho":"奈良県吉野郡十津川村大字上野地220",
"Capacity":"－",
"la":"34.09976800000",
"ln":"135.75951100000"
},
"geometry":{
"type":"Point",
"coordinates":[
135.759511,
34.099768
]
}
},
{
"type":"Feature",
"properties":{
"Name":"西川中学校",
"Jusho":"奈良県吉野郡十津川村大字重里465",
"Capacity":"－",
"la":"33.96170000000",
"ln":"135.73773600000"
},
"geometry":{
"type":"Point",
"coordinates":[
135.737736,
33.9617
]
}
},
{
"type":"Feature",
"properties":{
"Name":"折立中学校",
"Jusho":"奈良県吉野郡十津川村大字折立171-2",
"Capacity":"－",
"la":"33.94948100000",
"ln":"135.80270300000"
},
"geometry":{
"type":"Point",
"coordinates":[
135.802703,
33.949481
]
}
},
{
"type":"Feature",
"properties":{
"Name":"下北山中学校体育館",
"Jusho":"奈良県吉野郡下北山村下池原666",
"Capacity":"－",
"la":"34.03864000000",
"ln":"135.96310500000"
},
"geometry":{
"type":"Point",
"coordinates":[
135.963105,
34.03864
]
}
},
{
"type":"Feature",
"properties":{
"Name":"上北山中学校体育館",
"Jusho":"奈良県吉野郡上北山村河合564",
"Capacity":"－",
"la":"34.14943300000",
"ln":"135.99198900000"
},
"geometry":{
"type":"Point",
"coordinates":[
135.991989,
34.149433
]
}
},
{
"type":"Feature",
"properties":{
"Name":"川上中学校",
"Jusho":"奈良県吉野郡川上村人知270",
"Capacity":"－",
"la":"34.33008100000",
"ln":"135.97085200000"
},
"geometry":{
"type":"Point",
"coordinates":[
135.970852,
34.330081
]
}
},
{
"type":"Feature",
"properties":{
"Name":"東吉野中学校体育館",
"Jusho":"奈良県吉野郡東吉野村大字小栗栖825",
"Capacity":"－",
"la":"34.39554399910",
"ln":"135.95979600000"
},
"geometry":{
"type":"Point",
"coordinates":[
135.959796,
34.3955439991
]
}
}
]
};