var o={
"type":"FeatureCollection",
"features":[
{
"type":"Feature",
"properties":{
"Name":"（株）亀久組",
"Jusho":"富山県富山市四方荒屋1281",
"Capacity":"－",
"la":"36.75343395670",
"ln":"137.20285475400"
},
"geometry":{
"type":"Point",
"coordinates":[
137.202854754,
36.7534339567
]
}
},
{
"type":"Feature",
"properties":{
"Name":"２０００年体育館",
"Jusho":"富山県富山市天正寺85",
"Capacity":"530",
"la":"36.68085700000",
"ln":"137.25002200000"
},
"geometry":{
"type":"Point",
"coordinates":[
137.250022,
36.680857
]
}
},
{
"type":"Feature",
"properties":{
"Name":"おおしょう保育園",
"Jusho":"富山県富山市田畠493-2",
"Capacity":"－",
"la":"36.61845100000",
"ln":"137.27853100000"
},
"geometry":{
"type":"Point",
"coordinates":[
137.278531,
36.618451
]
}
},
{
"type":"Feature",
"properties":{
"Name":"オーバードホール",
"Jusho":"富山県富山市牛島町9-28",
"Capacity":"－",
"la":"36.70358899910",
"ln":"137.21302400000"
},
"geometry":{
"type":"Point",
"coordinates":[
137.213024,
36.7035889991
]
}
},
{
"type":"Feature",
"properties":{
"Name":"くまの保育園",
"Jusho":"富山県富山市悪王寺51",
"Capacity":"－",
"la":"36.63269800000",
"ln":"137.21917500000"
},
"geometry":{
"type":"Point",
"coordinates":[
137.219175,
36.632698
]
}
},
{
"type":"Feature",
"properties":{
"Name":"グランドパーキング",
"Jusho":"富山県富山市総曲輪3-6-15-13",
"Capacity":"－",
"la":"36.68920870910",
"ln":"137.21428408500"
},
"geometry":{
"type":"Point",
"coordinates":[
137.214284085,
36.6892087091
]
}
},
{
"type":"Feature",
"properties":{
"Name":"しらとり支援学校",
"Jusho":"富山県富山市婦中町下邑2877",
"Capacity":"210",
"la":"36.65847100000",
"ln":"137.12712900000"
},
"geometry":{
"type":"Point",
"coordinates":[
137.127129,
36.658471
]
}
},
{
"type":"Feature",
"properties":{
"Name":"つばき園",
"Jusho":"富山県富山市米田字真免田割20-1",
"Capacity":"－",
"la":"36.73793187010",
"ln":"137.24815950700"
},
"geometry":{
"type":"Point",
"coordinates":[
137.248159507,
36.7379318701
]
}
},
{
"type":"Feature",
"properties":{
"Name":"とやまインキュベータオフィス",
"Jusho":"富山県富山市中央通り2-3-39",
"Capacity":"－",
"la":"36.68977647050",
"ln":"137.22047384300"
},
"geometry":{
"type":"Point",
"coordinates":[
137.220473843,
36.6897764705
]
}
},
{
"type":"Feature",
"properties":{
"Name":"ねむの木ホール",
"Jusho":"富山県富山市婦中町ねむの木2-121",
"Capacity":"－",
"la":"36.63914458570",
"ln":"137.17459119600"
},
"geometry":{
"type":"Point",
"coordinates":[
137.174591196,
36.6391445857
]
}
},
{
"type":"Feature",
"properties":{
"Name":"ハローワーク富山",
"Jusho":"富山県富山市奥田新町45",
"Capacity":"－",
"la":"36.70485599910",
"ln":"137.21650700000"
},
"geometry":{
"type":"Point",
"coordinates":[
137.216507,
36.7048559991
]
}
},
{
"type":"Feature",
"properties":{
"Name":"みかど保育園",
"Jusho":"富山県富山市婦中町速星1032-1",
"Capacity":"－",
"la":"36.65661400000",
"ln":"137.16128300000"
},
"geometry":{
"type":"Point",
"coordinates":[
137.161283,
36.656614
]
}
},
{
"type":"Feature",
"properties":{
"Name":"やまむろ保育園",
"Jusho":"富山県富山市山室5-3",
"Capacity":"－",
"la":"36.67338800000",
"ln":"137.23983800000"
},
"geometry":{
"type":"Point",
"coordinates":[
137.239838,
36.673388
]
}
},
{
"type":"Feature",
"properties":{
"Name":"愛育園",
"Jusho":"富山県富山市西番104-1",
"Capacity":"－",
"la":"36.64318800000",
"ln":"137.27407200000"
},
"geometry":{
"type":"Point",
"coordinates":[
137.274072,
36.643188
]
}
},
{
"type":"Feature",
"properties":{
"Name":"庵谷地区公民館",
"Jusho":"富山県富山市庵谷575-1",
"Capacity":"10",
"la":"36.50873020770",
"ln":"137.22986376800"
},
"geometry":{
"type":"Point",
"coordinates":[
137.229863768,
36.5087302077
]
}
},
{
"type":"Feature",
"properties":{
"Name":"稲荷元町保育所",
"Jusho":"富山県富山市稲荷元町2-13-13",
"Capacity":"－",
"la":"36.69574600000",
"ln":"137.23208900000"
},
"geometry":{
"type":"Point",
"coordinates":[
137.232089,
36.695746
]
}
},
{
"type":"Feature",
"properties":{
"Name":"卯花公民館",
"Jusho":"富山県富山市八尾町下笹原42-1",
"Capacity":"180",
"la":"36.56398100000",
"ln":"137.14972500000"
},
"geometry":{
"type":"Point",
"coordinates":[
137.149725,
36.563981
]
}
},
{
"type":"Feature",
"properties":{
"Name":"鵜坂公民館",
"Jusho":"富山県富山市婦中町上田島18-1",
"Capacity":"290",
"la":"36.66928200000",
"ln":"137.17371300000"
},
"geometry":{
"type":"Point",
"coordinates":[
137.173713,
36.669282
]
}
},
{
"type":"Feature",
"properties":{
"Name":"運転教育センター",
"Jusho":"富山県富山市高島62",
"Capacity":"－",
"la":"36.73260399910",
"ln":"137.26430700000"
},
"geometry":{
"type":"Point",
"coordinates":[
137.264307,
36.7326039991
]
}
},
{
"type":"Feature",
"properties":{
"Name":"営農サポートセンター",
"Jusho":"富山県富山市月岡町3-101",
"Capacity":"140",
"la":"36.63422635810",
"ln":"137.25136332100"
},
"geometry":{
"type":"Point",
"coordinates":[
137.251363321,
36.6342263581
]
}
},
{
"type":"Feature",
"properties":{
"Name":"猿倉コミュニティセンター",
"Jusho":"富山県富山市舟新81-1",
"Capacity":"210",
"la":"36.56003479450",
"ln":"137.22097785300"
},
"geometry":{
"type":"Point",
"coordinates":[
137.220977853,
36.5600347945
]
}
},
{
"type":"Feature",
"properties":{
"Name":"奥田地区センター",
"Jusho":"富山県富山市奥田寿町23-13",
"Capacity":"－",
"la":"36.70453700000",
"ln":"137.21979800000"
},
"geometry":{
"type":"Point",
"coordinates":[
137.219798,
36.704537
]
}
},
{
"type":"Feature",
"properties":{
"Name":"音川交流センター",
"Jusho":"富山県富山市婦中町外輪野6324-1",
"Capacity":"90",
"la":"36.62967500000",
"ln":"137.09370000000"
},
"geometry":{
"type":"Point",
"coordinates":[
137.0937,
36.629675
]
}
},
{
"type":"Feature",
"properties":{
"Name":"下タ南部体育館",
"Jusho":"富山県富山市舟渡66",
"Capacity":"160",
"la":"36.47080399910",
"ln":"137.24297000000"
},
"geometry":{
"type":"Point",
"coordinates":[
137.24297,
36.4708039991
]
}
},
{
"type":"Feature",
"properties":{
"Name":"下タ南部地区福祉センター",
"Jusho":"富山県富山市舟渡66",
"Capacity":"140",
"la":"36.47080399820",
"ln":"137.24297000000"
},
"geometry":{
"type":"Point",
"coordinates":[
137.24297,
36.4708039982
]
}
},
{
"type":"Feature",
"properties":{
"Name":"下タ北部体育館",
"Jusho":"富山県富山市布尻672",
"Capacity":"150",
"la":"36.52957000000",
"ln":"137.23376400000"
},
"geometry":{
"type":"Point",
"coordinates":[
137.233764,
36.52957
]
}
},
{
"type":"Feature",
"properties":{
"Name":"下タ北部地区福祉センター",
"Jusho":"富山県富山市布尻991",
"Capacity":"140",
"la":"36.52208500000",
"ln":"137.23228300000"
},
"geometry":{
"type":"Point",
"coordinates":[
137.232283,
36.522085
]
}
},
{
"type":"Feature",
"properties":{
"Name":"下轡田公民館",
"Jusho":"富山県富山市婦中町下轡田505-1",
"Capacity":"－",
"la":"36.66468914500",
"ln":"137.17519260000"
},
"geometry":{
"type":"Point",
"coordinates":[
137.1751926,
36.664689145
]
}
},
{
"type":"Feature",
"properties":{
"Name":"科学博物館",
"Jusho":"富山県富山市西中野町1-8-31",
"Capacity":"－",
"la":"36.68083099910",
"ln":"137.21181300000"
},
"geometry":{
"type":"Point",
"coordinates":[
137.211813,
36.6808309991
]
}
},
{
"type":"Feature",
"properties":{
"Name":"海岸通老人福祉センター",
"Jusho":"富山県富山市海岸通264-1",
"Capacity":"－",
"la":"36.76322200000",
"ln":"137.25130900000"
},
"geometry":{
"type":"Point",
"coordinates":[
137.251309,
36.763222
]
}
},
{
"type":"Feature",
"properties":{
"Name":"蟹寺地区公民館",
"Jusho":"富山県富山市蟹寺153",
"Capacity":"30",
"la":"36.46197700000",
"ln":"137.24359900000"
},
"geometry":{
"type":"Point",
"coordinates":[
137.243599,
36.461977
]
}
},
{
"type":"Feature",
"properties":{
"Name":"環境センター",
"Jusho":"富山県富山市栗山字向田橋場割637",
"Capacity":"－",
"la":"36.62924121360",
"ln":"137.20511742000"
},
"geometry":{
"type":"Point",
"coordinates":[
137.20511742,
36.6292412136
]
}
},
{
"type":"Feature",
"properties":{
"Name":"岩稲地区公民館",
"Jusho":"富山県富山市岩稲419",
"Capacity":"30",
"la":"36.54994912310",
"ln":"137.22487961100"
},
"geometry":{
"type":"Point",
"coordinates":[
137.224879611,
36.5499491231
]
}
},
{
"type":"Feature",
"properties":{
"Name":"岩瀬カナル会館",
"Jusho":"富山県富山市岩瀬天神町48",
"Capacity":"－",
"la":"36.76007066140",
"ln":"137.23346552500"
},
"geometry":{
"type":"Point",
"coordinates":[
137.233465525,
36.7600706614
]
}
},
{
"type":"Feature",
"properties":{
"Name":"岩瀬地区センター",
"Jusho":"富山県富山市岩瀬御蔵町1",
"Capacity":"－",
"la":"36.75411734820",
"ln":"137.23028794200"
},
"geometry":{
"type":"Point",
"coordinates":[
137.230287942,
36.7541173482
]
}
},
{
"type":"Feature",
"properties":{
"Name":"岩瀬幼稚園",
"Jusho":"富山県富山市西宮275-4",
"Capacity":"－",
"la":"36.75457300000",
"ln":"137.23044900000"
},
"geometry":{
"type":"Point",
"coordinates":[
137.230449,
36.754573
]
}
},
{
"type":"Feature",
"properties":{
"Name":"宮川地区コミュニティセンター",
"Jusho":"富山県富山市婦中町広田4178",
"Capacity":"200",
"la":"36.62244900000",
"ln":"137.16827000000"
},
"geometry":{
"type":"Point",
"coordinates":[
137.16827,
36.622449
]
}
},
{
"type":"Feature",
"properties":{
"Name":"宮川保育所",
"Jusho":"富山県富山市婦中町広田1833-1",
"Capacity":"－",
"la":"36.62553400000",
"ln":"137.16802300000"
},
"geometry":{
"type":"Point",
"coordinates":[
137.168023,
36.625534
]
}
},
{
"type":"Feature",
"properties":{
"Name":"旧八人町幼稚園",
"Jusho":"富山県富山市八人町5-17",
"Capacity":"－",
"la":"36.69335700000",
"ln":"137.21725700000"
},
"geometry":{
"type":"Point",
"coordinates":[
137.217257,
36.693357
]
}
},
{
"type":"Feature",
"properties":{
"Name":"教育センター分室",
"Jusho":"富山県富山市新庄新町90-1",
"Capacity":"－",
"la":"36.69595200000",
"ln":"137.21367700000"
},
"geometry":{
"type":"Point",
"coordinates":[
137.213677,
36.695952
]
}
},
{
"type":"Feature",
"properties":{
"Name":"桐谷防雪センター",
"Jusho":"富山県富山市八尾町桐谷2054-1",
"Capacity":"10",
"la":"36.52056967430",
"ln":"137.18233714300"
},
"geometry":{
"type":"Point",
"coordinates":[
137.182337143,
36.5205696743
]
}
},
{
"type":"Feature",
"properties":{
"Name":"勤労身体障害者体育センター",
"Jusho":"富山県富山市水橋畠等298-2",
"Capacity":"280",
"la":"36.74909800000",
"ln":"137.30535900000"
},
"geometry":{
"type":"Point",
"coordinates":[
137.305359,
36.749098
]
}
},
{
"type":"Feature",
"properties":{
"Name":"勤労青少年ホーム",
"Jusho":"富山県富山市山室181",
"Capacity":"－",
"la":"36.67556400000",
"ln":"137.23386800000"
},
"geometry":{
"type":"Point",
"coordinates":[
137.233868,
36.675564
]
}
},
{
"type":"Feature",
"properties":{
"Name":"近代美術館",
"Jusho":"富山県富山市西中野町1-16-12",
"Capacity":"－",
"la":"36.68016500000",
"ln":"137.21270200000"
},
"geometry":{
"type":"Point",
"coordinates":[
137.212702,
36.680165
]
}
},
{
"type":"Feature",
"properties":{
"Name":"熊野地区センター",
"Jusho":"富山県富山市悪王寺128",
"Capacity":"－",
"la":"36.63078300000",
"ln":"137.22019200000"
},
"geometry":{
"type":"Point",
"coordinates":[
137.220192,
36.630783
]
}
},
{
"type":"Feature",
"properties":{
"Name":"熊野幼稚園",
"Jusho":"富山県富山市宮保601",
"Capacity":"－",
"la":"36.62975400000",
"ln":"137.22067500000"
},
"geometry":{
"type":"Point",
"coordinates":[
137.220675,
36.629754
]
}
},
{
"type":"Feature",
"properties":{
"Name":"月岡地区センター",
"Jusho":"富山県富山市上千俵町509",
"Capacity":"－",
"la":"36.62232800000",
"ln":"137.25249000000"
},
"geometry":{
"type":"Point",
"coordinates":[
137.25249,
36.622328
]
}
},
{
"type":"Feature",
"properties":{
"Name":"月岡保育所",
"Jusho":"富山県富山市月見町4-41",
"Capacity":"－",
"la":"36.62969900000",
"ln":"137.24578400000"
},
"geometry":{
"type":"Point",
"coordinates":[
137.245784,
36.629699
]
}
},
{
"type":"Feature",
"properties":{
"Name":"月岡幼稚園",
"Jusho":"富山県富山市上千俵町508",
"Capacity":"－",
"la":"36.62222800000",
"ln":"137.25308900000"
},
"geometry":{
"type":"Point",
"coordinates":[
137.253089,
36.622228
]
}
},
{
"type":"Feature",
"properties":{
"Name":"県漕艇場",
"Jusho":"富山県富山市岩稲20-1",
"Capacity":"50",
"la":"36.54754645420",
"ln":"137.22659130700"
},
"geometry":{
"type":"Point",
"coordinates":[
137.226591307,
36.5475464542
]
}
},
{
"type":"Feature",
"properties":{
"Name":"県民会館",
"Jusho":"富山県富山市新総曲輪4-18",
"Capacity":"－",
"la":"36.69538399910",
"ln":"137.21239600000"
},
"geometry":{
"type":"Point",
"coordinates":[
137.212396,
36.6953839991
]
}
},
{
"type":"Feature",
"properties":{
"Name":"五番町地区センター",
"Jusho":"富山県富山市辰巳町1-2-8",
"Capacity":"－",
"la":"36.68746400000",
"ln":"137.22234300000"
},
"geometry":{
"type":"Point",
"coordinates":[
137.222343,
36.687464
]
}
},
{
"type":"Feature",
"properties":{
"Name":"五福地区センター",
"Jusho":"富山県富山市五福3224-2",
"Capacity":"－",
"la":"36.70193600000",
"ln":"137.18485300000"
},
"geometry":{
"type":"Point",
"coordinates":[
137.184853,
36.701936
]
}
},
{
"type":"Feature",
"properties":{
"Name":"呉羽高校",
"Jusho":"富山県富山市呉羽町2070-5",
"Capacity":"810",
"la":"36.71685300000",
"ln":"137.16134600000"
},
"geometry":{
"type":"Point",
"coordinates":[
137.161346,
36.716853
]
}
},
{
"type":"Feature",
"properties":{
"Name":"呉羽山老人福祉センター",
"Jusho":"富山県富山市安養坊倉ヶ谷山10-1-1",
"Capacity":"－",
"la":"36.70840200000",
"ln":"137.18576100000"
},
"geometry":{
"type":"Point",
"coordinates":[
137.185761,
36.708402
]
}
},
{
"type":"Feature",
"properties":{
"Name":"光陽地区センター",
"Jusho":"富山県富山市二口町1-12-3",
"Capacity":"－",
"la":"36.67343000000",
"ln":"137.20278800000"
},
"geometry":{
"type":"Point",
"coordinates":[
137.202788,
36.67343
]
}
},
{
"type":"Feature",
"properties":{
"Name":"広田２区公民館",
"Jusho":"富山県富山市婦中町広田5106",
"Capacity":"－",
"la":"36.62562900000",
"ln":"137.16702800000"
},
"geometry":{
"type":"Point",
"coordinates":[
137.167028,
36.625629
]
}
},
{
"type":"Feature",
"properties":{
"Name":"広田地区センター",
"Jusho":"富山県富山市新屋字野畑割1-3",
"Capacity":"－",
"la":"36.71587700000",
"ln":"137.24750400000"
},
"geometry":{
"type":"Point",
"coordinates":[
137.247504,
36.715877
]
}
},
{
"type":"Feature",
"properties":{
"Name":"広畑防雪センター",
"Jusho":"富山県富山市八尾町布谷1467-7",
"Capacity":"20",
"la":"36.51796258340",
"ln":"137.11487689800"
},
"geometry":{
"type":"Point",
"coordinates":[
137.114876898,
36.5179625834
]
}
},
{
"type":"Feature",
"properties":{
"Name":"高志学園",
"Jusho":"富山県富山市下飯野51-1",
"Capacity":"－",
"la":"36.74307500000",
"ln":"137.26627900000"
},
"geometry":{
"type":"Point",
"coordinates":[
137.266279,
36.743075
]
}
},
{
"type":"Feature",
"properties":{
"Name":"高朋高校",
"Jusho":"富山県富山市東富山寿町1-1-39",
"Capacity":"820",
"la":"36.74876900000",
"ln":"137.25297500000"
},
"geometry":{
"type":"Point",
"coordinates":[
137.252975,
36.748769
]
}
},
{
"type":"Feature",
"properties":{
"Name":"黒瀬谷交流センター喜楽里館",
"Jusho":"富山県富山市八尾町小長谷352",
"Capacity":"190",
"la":"36.57553700000",
"ln":"137.15410800000"
},
"geometry":{
"type":"Point",
"coordinates":[
137.154108,
36.575537
]
}
},
{
"type":"Feature",
"properties":{
"Name":"黒瀬谷公民館",
"Jusho":"富山県富山市八尾町樫尾162",
"Capacity":"90",
"la":"36.57100400000",
"ln":"137.15960200000"
},
"geometry":{
"type":"Point",
"coordinates":[
137.159602,
36.571004
]
}
},
{
"type":"Feature",
"properties":{
"Name":"細入公民館",
"Jusho":"富山県富山市楡原1077",
"Capacity":"150",
"la":"36.52785600000",
"ln":"137.22911400000"
},
"geometry":{
"type":"Point",
"coordinates":[
137.229114,
36.527856
]
}
},
{
"type":"Feature",
"properties":{
"Name":"細入総合福祉センター",
"Jusho":"富山県富山市楡原1128",
"Capacity":"30",
"la":"36.52859899910",
"ln":"137.22966000000"
},
"geometry":{
"type":"Point",
"coordinates":[
137.22966,
36.5285989991
]
}
},
{
"type":"Feature",
"properties":{
"Name":"桜谷地区センター",
"Jusho":"富山県富山市田刈屋279",
"Capacity":"－",
"la":"36.70867500000",
"ln":"137.19910900000"
},
"geometry":{
"type":"Point",
"coordinates":[
137.199109,
36.708675
]
}
},
{
"type":"Feature",
"properties":{
"Name":"桜町駐車場",
"Jusho":"富山県富山市桜町2-1-1",
"Capacity":"－",
"la":"36.69905036680",
"ln":"137.21257876800"
},
"geometry":{
"type":"Point",
"coordinates":[
137.212578768,
36.6990503668
]
}
},
{
"type":"Feature",
"properties":{
"Name":"笹倉地区コミュニティセンター",
"Jusho":"富山県富山市婦中町笹倉433",
"Capacity":"40",
"la":"36.66304900000",
"ln":"137.15583700000"
},
"geometry":{
"type":"Point",
"coordinates":[
137.155837,
36.663049
]
}
},
{
"type":"Feature",
"properties":{
"Name":"笹津会館",
"Jusho":"富山県富山市笹津495",
"Capacity":"270",
"la":"36.56242332590",
"ln":"137.21331048200"
},
"geometry":{
"type":"Point",
"coordinates":[
137.213310482,
36.5624233259
]
}
},
{
"type":"Feature",
"properties":{
"Name":"三郷地区センター",
"Jusho":"富山県富山市水橋小路34",
"Capacity":"－",
"la":"36.72044800000",
"ln":"137.29153000000"
},
"geometry":{
"type":"Point",
"coordinates":[
137.29153,
36.720448
]
}
},
{
"type":"Feature",
"properties":{
"Name":"三郷保育所",
"Jusho":"富山県富山市水橋小路338-1",
"Capacity":"－",
"la":"36.71991200000",
"ln":"137.29233200000"
},
"geometry":{
"type":"Point",
"coordinates":[
137.292332,
36.719912
]
}
},
{
"type":"Feature",
"properties":{
"Name":"山室児童館",
"Jusho":"富山県富山市高屋敷573-5",
"Capacity":"－",
"la":"36.67135127570",
"ln":"137.24539760800"
},
"geometry":{
"type":"Point",
"coordinates":[
137.245397608,
36.6713512757
]
}
},
{
"type":"Feature",
"properties":{
"Name":"山室地区センター",
"Jusho":"富山県富山市中市2-8-76",
"Capacity":"－",
"la":"36.67881900000",
"ln":"137.23723600000"
},
"geometry":{
"type":"Point",
"coordinates":[
137.237236,
36.678819
]
}
},
{
"type":"Feature",
"properties":{
"Name":"山室中部地区センター",
"Jusho":"富山県富山市山室荒屋84",
"Capacity":"－",
"la":"36.67137500000",
"ln":"137.25229400000"
},
"geometry":{
"type":"Point",
"coordinates":[
137.252294,
36.671375
]
}
},
{
"type":"Feature",
"properties":{
"Name":"山田交流促進センター",
"Jusho":"富山県富山市山田赤目谷145",
"Capacity":"630",
"la":"36.58001700000",
"ln":"137.06493800000"
},
"geometry":{
"type":"Point",
"coordinates":[
137.064938,
36.580017
]
}
},
{
"type":"Feature",
"properties":{
"Name":"山田公民館",
"Jusho":"富山県富山市山田湯880",
"Capacity":"340",
"la":"36.57992400000",
"ln":"137.08082800000"
},
"geometry":{
"type":"Point",
"coordinates":[
137.080828,
36.579924
]
}
},
{
"type":"Feature",
"properties":{
"Name":"山田総合体育センター",
"Jusho":"富山県富山市山田中瀬2",
"Capacity":"1400",
"la":"36.58753700000",
"ln":"137.08403500000"
},
"geometry":{
"type":"Point",
"coordinates":[
137.084035,
36.587537
]
}
},
{
"type":"Feature",
"properties":{
"Name":"四方地区センター",
"Jusho":"富山県富山市四方142-1",
"Capacity":"－",
"la":"36.75676100000",
"ln":"137.19509200000"
},
"geometry":{
"type":"Point",
"coordinates":[
137.195092,
36.756761
]
}
},
{
"type":"Feature",
"properties":{
"Name":"市駅北駐車場",
"Jusho":"富山県富山市牛島町24-2",
"Capacity":"－",
"la":"36.70276123140",
"ln":"137.21292427000"
},
"geometry":{
"type":"Point",
"coordinates":[
137.21292427,
36.7027612314
]
}
},
{
"type":"Feature",
"properties":{
"Name":"市民球場",
"Jusho":"富山県富山市下飯野30-1",
"Capacity":"370",
"la":"36.73064391630",
"ln":"137.26203427300"
},
"geometry":{
"type":"Point",
"coordinates":[
137.262034273,
36.7306439163
]
}
},
{
"type":"Feature",
"properties":{
"Name":"慈光園",
"Jusho":"富山県富山市西番104-1",
"Capacity":"－",
"la":"36.64326500000",
"ln":"137.27412900000"
},
"geometry":{
"type":"Point",
"coordinates":[
137.274129,
36.643265
]
}
},
{
"type":"Feature",
"properties":{
"Name":"室牧地区コミュニティセンター",
"Jusho":"富山県富山市八尾町中242",
"Capacity":"300",
"la":"36.57135500000",
"ln":"137.11175800000"
},
"geometry":{
"type":"Point",
"coordinates":[
137.111758,
36.571355
]
}
},
{
"type":"Feature",
"properties":{
"Name":"小羽地区福祉センター",
"Jusho":"富山県富山市小羽361",
"Capacity":"140",
"la":"36.56450400000",
"ln":"137.19138000000"
},
"geometry":{
"type":"Point",
"coordinates":[
137.19138,
36.564504
]
}
},
{
"type":"Feature",
"properties":{
"Name":"障害者福祉プラザ",
"Jusho":"富山県富山市蜷川15",
"Capacity":"－",
"la":"36.64447199910",
"ln":"137.21216300000"
},
"geometry":{
"type":"Point",
"coordinates":[
137.212163,
36.6444719991
]
}
},
{
"type":"Feature",
"properties":{
"Name":"上条地区センター",
"Jusho":"富山県富山市水橋石割73-1",
"Capacity":"－",
"la":"36.72346000000",
"ln":"137.31368100000"
},
"geometry":{
"type":"Point",
"coordinates":[
137.313681,
36.72346
]
}
},
{
"type":"Feature",
"properties":{
"Name":"上条保育所",
"Jusho":"富山県富山市水橋石割72-2",
"Capacity":"－",
"la":"36.72319000000",
"ln":"137.31338600000"
},
"geometry":{
"type":"Point",
"coordinates":[
137.313386,
36.72319
]
}
},
{
"type":"Feature",
"properties":{
"Name":"上滝公民館岡田分館",
"Jusho":"富山県富山市岡田784",
"Capacity":"30",
"la":"36.58289700000",
"ln":"137.32643000000"
},
"geometry":{
"type":"Point",
"coordinates":[
137.32643,
36.582897
]
}
},
{
"type":"Feature",
"properties":{
"Name":"上滝幼稚園",
"Jusho":"富山県富山市三室荒屋756-105",
"Capacity":"－",
"la":"36.61367400000",
"ln":"137.29986300000"
},
"geometry":{
"type":"Point",
"coordinates":[
137.299863,
36.613674
]
}
},
{
"type":"Feature",
"properties":{
"Name":"新庄地区センター",
"Jusho":"富山県富山市新庄新町1-3-16",
"Capacity":"－",
"la":"36.70272100000",
"ln":"137.25187600000"
},
"geometry":{
"type":"Point",
"coordinates":[
137.251876,
36.702721
]
}
},
{
"type":"Feature",
"properties":{
"Name":"新庄保育所",
"Jusho":"富山県富山市新庄町3-4-20",
"Capacity":"－",
"la":"36.69833000000",
"ln":"137.25230900000"
},
"geometry":{
"type":"Point",
"coordinates":[
137.252309,
36.69833
]
}
},
{
"type":"Feature",
"properties":{
"Name":"新庄北地区センター",
"Jusho":"富山県富山市新庄本町2-4-11",
"Capacity":"－",
"la":"36.71120999820",
"ln":"137.26300100000"
},
"geometry":{
"type":"Point",
"coordinates":[
137.263001,
36.7112099982
]
}
},
{
"type":"Feature",
"properties":{
"Name":"新保地区センター",
"Jusho":"富山県富山市新保306-1",
"Capacity":"－",
"la":"36.63257600000",
"ln":"137.19399200000"
},
"geometry":{
"type":"Point",
"coordinates":[
137.193992,
36.632576
]
}
},
{
"type":"Feature",
"properties":{
"Name":"新保文化会館",
"Jusho":"富山県富山市新保306",
"Capacity":"－",
"la":"36.63253070100",
"ln":"137.19379591500"
},
"geometry":{
"type":"Point",
"coordinates":[
137.193795915,
36.632530701
]
}
},
{
"type":"Feature",
"properties":{
"Name":"新保幼稚園",
"Jusho":"富山県富山市任海913",
"Capacity":"－",
"la":"36.63469800000",
"ln":"137.19403900000"
},
"geometry":{
"type":"Point",
"coordinates":[
137.194039,
36.634698
]
}
},
{
"type":"Feature",
"properties":{
"Name":"神通川緑地",
"Jusho":"富山県富山市布瀬町地先",
"Capacity":"－",
"la":"36.68474930000",
"ln":"137.19870159000"
},
"geometry":{
"type":"Point",
"coordinates":[
137.19870159,
36.6847493
]
}
},
{
"type":"Feature",
"properties":{
"Name":"神保地区コミュニティセンター",
"Jusho":"富山県富山市婦中町上吉川403-1",
"Capacity":"260",
"la":"36.63854400000",
"ln":"137.13710100000"
},
"geometry":{
"type":"Point",
"coordinates":[
137.137101,
36.638544
]
}
},
{
"type":"Feature",
"properties":{
"Name":"針原地区センター",
"Jusho":"富山県富山市針原中町901-2",
"Capacity":"－",
"la":"36.73153500000",
"ln":"137.27126800000"
},
"geometry":{
"type":"Point",
"coordinates":[
137.271268,
36.731535
]
}
},
{
"type":"Feature",
"properties":{
"Name":"仁歩公民館",
"Jusho":"富山県富山市八尾町平沢187-1",
"Capacity":"70",
"la":"36.53072400000",
"ln":"137.09918400000"
},
"geometry":{
"type":"Point",
"coordinates":[
137.099184,
36.530724
]
}
},
{
"type":"Feature",
"properties":{
"Name":"仁歩地区コミュニティセンター",
"Jusho":"富山県富山市八尾町三ﾂ松14-1",
"Capacity":"150",
"la":"36.52954287360",
"ln":"137.09693554900"
},
"geometry":{
"type":"Point",
"coordinates":[
137.096935549,
36.5295428736
]
}
},
{
"type":"Feature",
"properties":{
"Name":"須原コミュニティセンター",
"Jusho":"富山県富山市須原1215",
"Capacity":"－",
"la":"36.55690054600",
"ln":"137.20292001400"
},
"geometry":{
"type":"Point",
"coordinates":[
137.202920014,
36.556900546
]
}
},
{
"type":"Feature",
"properties":{
"Name":"水橋高校",
"Jusho":"富山県富山市水橋中村24",
"Capacity":"810",
"la":"36.73927000000",
"ln":"137.29974800000"
},
"geometry":{
"type":"Point",
"coordinates":[
137.299748,
36.73927
]
}
},
{
"type":"Feature",
"properties":{
"Name":"水橋商工文化会館",
"Jusho":"富山県富山市水橋辻ヶ堂137",
"Capacity":"－",
"la":"36.75086103430",
"ln":"137.30393975300"
},
"geometry":{
"type":"Point",
"coordinates":[
137.303939753,
36.7508610343
]
}
},
{
"type":"Feature",
"properties":{
"Name":"水橋消防署",
"Jusho":"富山県富山市水橋舘町420",
"Capacity":"－",
"la":"36.75031175770",
"ln":"137.30913362800"
},
"geometry":{
"type":"Point",
"coordinates":[
137.309133628,
36.7503117577
]
}
},
{
"type":"Feature",
"properties":{
"Name":"水橋浄化センター",
"Jusho":"富山県富山市水橋辻ヶ堂101",
"Capacity":"－",
"la":"36.75042351950",
"ln":"137.29449167900"
},
"geometry":{
"type":"Point",
"coordinates":[
137.294491679,
36.7504235195
]
}
},
{
"type":"Feature",
"properties":{
"Name":"水橋西部地区センター",
"Jusho":"富山県富山市水橋辻ヶ堂129-1",
"Capacity":"－",
"la":"36.75118700000",
"ln":"137.30284600000"
},
"geometry":{
"type":"Point",
"coordinates":[
137.302846,
36.751187
]
}
},
{
"type":"Feature",
"properties":{
"Name":"水橋中部地区センター",
"Jusho":"富山県富山市水橋舘町312-1",
"Capacity":"－",
"la":"36.75036200000",
"ln":"137.31013600000"
},
"geometry":{
"type":"Point",
"coordinates":[
137.310136,
36.750362
]
}
},
{
"type":"Feature",
"properties":{
"Name":"水橋東部地区センター",
"Jusho":"富山県富山市水橋小池146-1",
"Capacity":"－",
"la":"36.73924500000",
"ln":"137.32650700000"
},
"geometry":{
"type":"Point",
"coordinates":[
137.326507,
36.739245
]
}
},
{
"type":"Feature",
"properties":{
"Name":"水橋東部保育所",
"Jusho":"富山県富山市水橋小池391",
"Capacity":"－",
"la":"36.73971600000",
"ln":"137.32660700000"
},
"geometry":{
"type":"Point",
"coordinates":[
137.326607,
36.739716
]
}
},
{
"type":"Feature",
"properties":{
"Name":"水橋老人憩いの家",
"Jusho":"富山県富山市水橋伊勢屋28",
"Capacity":"－",
"la":"36.74270200000",
"ln":"137.30214500000"
},
"geometry":{
"type":"Point",
"coordinates":[
137.302145,
36.742702
]
}
},
{
"type":"Feature",
"properties":{
"Name":"杉原公民館",
"Jusho":"富山県富山市八尾町大杉12",
"Capacity":"260",
"la":"36.60141200000",
"ln":"137.16286800000"
},
"geometry":{
"type":"Point",
"coordinates":[
137.162868,
36.601412
]
}
},
{
"type":"Feature",
"properties":{
"Name":"瀬戸集落センター",
"Jusho":"富山県富山市日尾241-1",
"Capacity":"20",
"la":"36.57895577240",
"ln":"137.27369188200"
},
"geometry":{
"type":"Point",
"coordinates":[
137.273691882,
36.5789557724
]
}
},
{
"type":"Feature",
"properties":{
"Name":"星井町地区センター",
"Jusho":"富山県富山市西中野町2-1-24",
"Capacity":"－",
"la":"36.68250100000",
"ln":"137.21473900000"
},
"geometry":{
"type":"Point",
"coordinates":[
137.214739,
36.682501
]
}
},
{
"type":"Feature",
"properties":{
"Name":"清水町地区センター",
"Jusho":"富山県富山市清水中町2-11",
"Capacity":"－",
"la":"36.68789200000",
"ln":"137.22913700000"
},
"geometry":{
"type":"Point",
"coordinates":[
137.229137,
36.687892
]
}
},
{
"type":"Feature",
"properties":{
"Name":"清水保育所",
"Jusho":"富山県富山市旭町10-17",
"Capacity":"－",
"la":"36.68533100000",
"ln":"137.22708900000"
},
"geometry":{
"type":"Point",
"coordinates":[
137.227089,
36.685331
]
}
},
{
"type":"Feature",
"properties":{
"Name":"西笹津集落センター",
"Jusho":"富山県富山市西笹津258",
"Capacity":"10",
"la":"36.55670770550",
"ln":"137.21591257900"
},
"geometry":{
"type":"Point",
"coordinates":[
137.215912579,
36.5567077055
]
}
},
{
"type":"Feature",
"properties":{
"Name":"西田地方地区センター",
"Jusho":"富山県富山市相生町5-17",
"Capacity":"－",
"la":"36.68551100000",
"ln":"137.20787300000"
},
"geometry":{
"type":"Point",
"coordinates":[
137.207873,
36.685511
]
}
},
{
"type":"Feature",
"properties":{
"Name":"西部地区集会場（清水）",
"Jusho":"富山県富山市山田清水7",
"Capacity":"90",
"la":"36.58852925060",
"ln":"137.04783067900"
},
"geometry":{
"type":"Point",
"coordinates":[
137.047830679,
36.5885292506
]
}
},
{
"type":"Feature",
"properties":{
"Name":"船峅地区福祉センター",
"Jusho":"富山県富山市坂本482",
"Capacity":"140",
"la":"36.58363500000",
"ln":"137.22153000000"
},
"geometry":{
"type":"Point",
"coordinates":[
137.22153,
36.583635
]
}
},
{
"type":"Feature",
"properties":{
"Name":"倉垣地区センター",
"Jusho":"富山県富山市布目567",
"Capacity":"－",
"la":"36.74252300000",
"ln":"137.18812300000"
},
"geometry":{
"type":"Point",
"coordinates":[
137.188123,
36.742523
]
}
},
{
"type":"Feature",
"properties":{
"Name":"総曲輪駐車場",
"Jusho":"富山県富山市総曲輪2-8-3",
"Capacity":"－",
"la":"36.69115500000",
"ln":"137.21324100000"
},
"geometry":{
"type":"Point",
"coordinates":[
137.213241,
36.691155
]
}
},
{
"type":"Feature",
"properties":{
"Name":"総合体育館",
"Jusho":"富山県富山市湊入船町12-1",
"Capacity":"1560",
"la":"36.70670400000",
"ln":"137.21415300000"
},
"geometry":{
"type":"Point",
"coordinates":[
137.214153,
36.706704
]
}
},
{
"type":"Feature",
"properties":{
"Name":"草島地区センター",
"Jusho":"富山県富山市草島143-89",
"Capacity":"－",
"la":"36.74538500000",
"ln":"137.21211700000"
},
"geometry":{
"type":"Point",
"coordinates":[
137.212117,
36.745385
]
}
},
{
"type":"Feature",
"properties":{
"Name":"速星公民館",
"Jusho":"富山県富山市婦中町砂子田1-1",
"Capacity":"350",
"la":"36.65529500000",
"ln":"137.16395900000"
},
"geometry":{
"type":"Point",
"coordinates":[
137.163959,
36.655295
]
}
},
{
"type":"Feature",
"properties":{
"Name":"速星幼稚園",
"Jusho":"富山県富山市婦中町速星706-1",
"Capacity":"－",
"la":"36.65936100000",
"ln":"137.15912500000"
},
"geometry":{
"type":"Point",
"coordinates":[
137.159125,
36.659361
]
}
},
{
"type":"Feature",
"properties":{
"Name":"太田地区センター",
"Jusho":"富山県富山市石屋150",
"Capacity":"－",
"la":"36.65390500000",
"ln":"137.25149500000"
},
"geometry":{
"type":"Point",
"coordinates":[
137.251495,
36.653905
]
}
},
{
"type":"Feature",
"properties":{
"Name":"太田保育所",
"Jusho":"富山県富山市城村168-3",
"Capacity":"－",
"la":"36.64521801110",
"ln":"137.26130233300"
},
"geometry":{
"type":"Point",
"coordinates":[
137.261302333,
36.6452180111
]
}
},
{
"type":"Feature",
"properties":{
"Name":"体育文化センター",
"Jusho":"富山県富山市友杉1097",
"Capacity":"－",
"la":"36.63907800000",
"ln":"137.19733000000"
},
"geometry":{
"type":"Point",
"coordinates":[
137.19733,
36.639078
]
}
},
{
"type":"Feature",
"properties":{
"Name":"大久保ふれあいセンター",
"Jusho":"富山県富山市下大久保1776-1",
"Capacity":"1000",
"la":"36.60510400000",
"ln":"137.20806700000"
},
"geometry":{
"type":"Point",
"coordinates":[
137.208067,
36.605104
]
}
},
{
"type":"Feature",
"properties":{
"Name":"大久保運動広場体育館",
"Jusho":"富山県富山市下大久保3737",
"Capacity":"200",
"la":"36.61667800000",
"ln":"137.20655800000"
},
"geometry":{
"type":"Point",
"coordinates":[
137.206558,
36.616678
]
}
},
{
"type":"Feature",
"properties":{
"Name":"大広田地区センター",
"Jusho":"富山県富山市東富山寿町2-1-14",
"Capacity":"－",
"la":"36.75174700000",
"ln":"137.25029200000"
},
"geometry":{
"type":"Point",
"coordinates":[
137.250292,
36.751747
]
}
},
{
"type":"Feature",
"properties":{
"Name":"大広田保育所",
"Jusho":"富山県富山市海岸通165-1",
"Capacity":"－",
"la":"36.75584054040",
"ln":"137.25224986800"
},
"geometry":{
"type":"Point",
"coordinates":[
137.252249868,
36.7558405404
]
}
},
{
"type":"Feature",
"properties":{
"Name":"大山Ｂ＆Ｇ海洋センター体育館",
"Jusho":"富山県富山市本宮12",
"Capacity":"300",
"la":"36.57662700000",
"ln":"137.43233200000"
},
"geometry":{
"type":"Point",
"coordinates":[
137.432332,
36.576627
]
}
},
{
"type":"Feature",
"properties":{
"Name":"大山社会体育館",
"Jusho":"富山県富山市花崎378",
"Capacity":"620",
"la":"36.61054200000",
"ln":"137.29065600000"
},
"geometry":{
"type":"Point",
"coordinates":[
137.290656,
36.610542
]
}
},
{
"type":"Feature",
"properties":{
"Name":"大山総合グラウンド",
"Jusho":"富山県富山市花崎391",
"Capacity":"－",
"la":"36.61009339170",
"ln":"137.29079588700"
},
"geometry":{
"type":"Point",
"coordinates":[
137.290795887,
36.6100933917
]
}
},
{
"type":"Feature",
"properties":{
"Name":"大山総合体育センター",
"Jusho":"富山県富山市花崎386",
"Capacity":"440",
"la":"36.61118400000",
"ln":"137.29055800000"
},
"geometry":{
"type":"Point",
"coordinates":[
137.290558,
36.611184
]
}
},
{
"type":"Feature",
"properties":{
"Name":"大山中央保育所",
"Jusho":"富山県富山市中滝16",
"Capacity":"－",
"la":"36.61150700000",
"ln":"137.29608500000"
},
"geometry":{
"type":"Point",
"coordinates":[
137.296085,
36.611507
]
}
},
{
"type":"Feature",
"properties":{
"Name":"大山農村環境改善センター",
"Jusho":"富山県富山市東福沢1818",
"Capacity":"180",
"la":"36.60160521040",
"ln":"137.25432814500"
},
"geometry":{
"type":"Point",
"coordinates":[
137.254328145,
36.6016052104
]
}
},
{
"type":"Feature",
"properties":{
"Name":"大山文化会館",
"Jusho":"富山県富山市上滝577",
"Capacity":"－",
"la":"36.60825700000",
"ln":"137.29989100000"
},
"geometry":{
"type":"Point",
"coordinates":[
137.299891,
36.608257
]
}
},
{
"type":"Feature",
"properties":{
"Name":"大山老人福祉センター",
"Jusho":"富山県富山市花崎1151",
"Capacity":"－",
"la":"36.60905500000",
"ln":"137.27960400000"
},
"geometry":{
"type":"Point",
"coordinates":[
137.279604,
36.609055
]
}
},
{
"type":"Feature",
"properties":{
"Name":"大庄幼稚園",
"Jusho":"富山県富山市善名453",
"Capacity":"－",
"la":"36.61878400000",
"ln":"137.27939200000"
},
"geometry":{
"type":"Point",
"coordinates":[
137.279392,
36.618784
]
}
},
{
"type":"Feature",
"properties":{
"Name":"大沢野健康福祉センター（ウインディ）",
"Jusho":"富山県富山市春日96-1",
"Capacity":"340",
"la":"36.56153099910",
"ln":"137.20197600000"
},
"geometry":{
"type":"Point",
"coordinates":[
137.201976,
36.5615309991
]
}
},
{
"type":"Feature",
"properties":{
"Name":"大沢野工業高校",
"Jusho":"富山県富山市坂本2600",
"Capacity":"690",
"la":"36.58631500000",
"ln":"137.21439900000"
},
"geometry":{
"type":"Point",
"coordinates":[
137.214399,
36.586315
]
}
},
{
"type":"Feature",
"properties":{
"Name":"大沢野青少年体育センター",
"Jusho":"富山県富山市高内114-1",
"Capacity":"320",
"la":"36.57751016790",
"ln":"137.20223428200"
},
"geometry":{
"type":"Point",
"coordinates":[
137.202234282,
36.5775101679
]
}
},
{
"type":"Feature",
"properties":{
"Name":"大沢野武道館",
"Jusho":"富山県富山市高内114-1",
"Capacity":"150",
"la":"36.57809200000",
"ln":"137.20203600000"
},
"geometry":{
"type":"Point",
"coordinates":[
137.202036,
36.578092
]
}
},
{
"type":"Feature",
"properties":{
"Name":"大沢野北部地区福祉センター",
"Jusho":"富山県富山市上大久保187",
"Capacity":"220",
"la":"36.58648821970",
"ln":"137.20765771000"
},
"geometry":{
"type":"Point",
"coordinates":[
137.20765771,
36.5864882197
]
}
},
{
"type":"Feature",
"properties":{
"Name":"大長谷交流センター",
"Jusho":"富山県富山市八尾町内名88",
"Capacity":"270",
"la":"36.47955266670",
"ln":"137.07989644000"
},
"geometry":{
"type":"Point",
"coordinates":[
137.07989644,
36.4795526667
]
}
},
{
"type":"Feature",
"properties":{
"Name":"中山間地活性化施設",
"Jusho":"富山県富山市八尾町下笹原678-1",
"Capacity":"80",
"la":"36.56926611700",
"ln":"137.14075368300"
},
"geometry":{
"type":"Point",
"coordinates":[
137.140753683,
36.569266117
]
}
},
{
"type":"Feature",
"properties":{
"Name":"猪谷関所館",
"Jusho":"富山県富山市猪谷978-4",
"Capacity":"70",
"la":"36.47126300000",
"ln":"137.23936700000"
},
"geometry":{
"type":"Point",
"coordinates":[
137.239367,
36.471263
]
}
},
{
"type":"Feature",
"properties":{
"Name":"朝日地域農業再編センター",
"Jusho":"富山県富山市婦中町下条281",
"Capacity":"220",
"la":"36.67476400000",
"ln":"137.15114800000"
},
"geometry":{
"type":"Point",
"coordinates":[
137.151148,
36.674764
]
}
},
{
"type":"Feature",
"properties":{
"Name":"町民ひろば",
"Jusho":"富山県富山市八尾町福島牧野123",
"Capacity":"－",
"la":"36.58605890600",
"ln":"137.14024135700"
},
"geometry":{
"type":"Point",
"coordinates":[
137.140241357,
36.586058906
]
}
},
{
"type":"Feature",
"properties":{
"Name":"東岩瀬保育所",
"Jusho":"富山県富山市岩瀬文化町73-1",
"Capacity":"－",
"la":"36.75649000000",
"ln":"137.23172600000"
},
"geometry":{
"type":"Point",
"coordinates":[
137.231726,
36.75649
]
}
},
{
"type":"Feature",
"properties":{
"Name":"東富山体育館",
"Jusho":"富山県富山市米田16-2",
"Capacity":"440",
"la":"36.73695900000",
"ln":"137.24765900000"
},
"geometry":{
"type":"Point",
"coordinates":[
137.247659,
36.736959
]
}
},
{
"type":"Feature",
"properties":{
"Name":"東部児童文化センター",
"Jusho":"富山県富山市石金1-5-37",
"Capacity":"－",
"la":"36.69063100000",
"ln":"137.23598900000"
},
"geometry":{
"type":"Point",
"coordinates":[
137.235989,
36.690631
]
}
},
{
"type":"Feature",
"properties":{
"Name":"東部地区センター",
"Jusho":"富山県富山市石金1-2-13",
"Capacity":"－",
"la":"36.69091100000",
"ln":"137.23440000000"
},
"geometry":{
"type":"Point",
"coordinates":[
137.2344,
36.690911
]
}
},
{
"type":"Feature",
"properties":{
"Name":"東部地区集会場（沢連）",
"Jusho":"富山県富山市山田宿坊823",
"Capacity":"100",
"la":"36.58347216820",
"ln":"137.09702691300"
},
"geometry":{
"type":"Point",
"coordinates":[
137.097026913,
36.5834721682
]
}
},
{
"type":"Feature",
"properties":{
"Name":"東部保育所",
"Jusho":"富山県富山市石金1-13-41",
"Capacity":"－",
"la":"36.68877500000",
"ln":"137.23586600000"
},
"geometry":{
"type":"Point",
"coordinates":[
137.235866,
36.688775
]
}
},
{
"type":"Feature",
"properties":{
"Name":"東老人憩いの家",
"Jusho":"富山県富山市荒川4-74-3",
"Capacity":"－",
"la":"36.69278400000",
"ln":"137.24657400000"
},
"geometry":{
"type":"Point",
"coordinates":[
137.246574,
36.692784
]
}
},
{
"type":"Feature",
"properties":{
"Name":"藤ノ木地区センター",
"Jusho":"富山県富山市藤木1246",
"Capacity":"－",
"la":"36.68653200000",
"ln":"137.26718900000"
},
"geometry":{
"type":"Point",
"coordinates":[
137.267189,
36.686532
]
}
},
{
"type":"Feature",
"properties":{
"Name":"藤ノ木保育所",
"Jusho":"富山県富山市藤木1274",
"Capacity":"－",
"la":"36.68699800000",
"ln":"137.26928000000"
},
"geometry":{
"type":"Point",
"coordinates":[
137.26928,
36.686998
]
}
},
{
"type":"Feature",
"properties":{
"Name":"南部地区センター",
"Jusho":"富山県富山市猪谷851-1",
"Capacity":"140",
"la":"36.47305300000",
"ln":"137.23834700000"
},
"geometry":{
"type":"Point",
"coordinates":[
137.238347,
36.473053
]
}
},
{
"type":"Feature",
"properties":{
"Name":"南部地区集会場（谷）",
"Jusho":"富山県富山市山田谷425",
"Capacity":"40",
"la":"36.55111397370",
"ln":"137.06353051200"
},
"geometry":{
"type":"Point",
"coordinates":[
137.063530512,
36.5511139737
]
}
},
{
"type":"Feature",
"properties":{
"Name":"南老人福祉センター",
"Jusho":"富山県富山市今泉88-1",
"Capacity":"－",
"la":"36.66970900000",
"ln":"137.21635300000"
},
"geometry":{
"type":"Point",
"coordinates":[
137.216353,
36.669709
]
}
},
{
"type":"Feature",
"properties":{
"Name":"萩浦地区センター",
"Jusho":"富山県富山市高畠町2-11-36",
"Capacity":"－",
"la":"36.74630800000",
"ln":"137.22900200000"
},
"geometry":{
"type":"Point",
"coordinates":[
137.229002,
36.746308
]
}
},
{
"type":"Feature",
"properties":{
"Name":"萩島公民館",
"Jusho":"富山県富山市婦中町萩島409",
"Capacity":"－",
"la":"36.63348400000",
"ln":"137.17498000000"
},
"geometry":{
"type":"Point",
"coordinates":[
137.17498,
36.633484
]
}
},
{
"type":"Feature",
"properties":{
"Name":"八人町地区センター",
"Jusho":"富山県富山市八人町5-17",
"Capacity":"－",
"la":"36.69351100000",
"ln":"137.21705700000"
},
"geometry":{
"type":"Point",
"coordinates":[
137.217057,
36.693511
]
}
},
{
"type":"Feature",
"properties":{
"Name":"八幡地区センター",
"Jusho":"富山県富山市八町東262",
"Capacity":"－",
"la":"36.73387700000",
"ln":"137.19067900000"
},
"geometry":{
"type":"Point",
"coordinates":[
137.190679,
36.733877
]
}
},
{
"type":"Feature",
"properties":{
"Name":"八尾コミュニティセンター",
"Jusho":"富山県富山市八尾町井田126",
"Capacity":"530",
"la":"36.60058599910",
"ln":"137.14358000000"
},
"geometry":{
"type":"Point",
"coordinates":[
137.14358,
36.6005859991
]
}
},
{
"type":"Feature",
"properties":{
"Name":"八尾スポーツアリーナ",
"Jusho":"富山県富山市八尾町井田101",
"Capacity":"1000",
"la":"36.60132900000",
"ln":"137.14365600000"
},
"geometry":{
"type":"Point",
"coordinates":[
137.143656,
36.601329
]
}
},
{
"type":"Feature",
"properties":{
"Name":"八尾ふらっと館",
"Jusho":"富山県富山市八尾町東町2149",
"Capacity":"150",
"la":"36.57827199910",
"ln":"137.13824100000"
},
"geometry":{
"type":"Point",
"coordinates":[
137.138241,
36.5782719991
]
}
},
{
"type":"Feature",
"properties":{
"Name":"八尾曳山展示館",
"Jusho":"富山県富山市八尾町上新町2898-1",
"Capacity":"60",
"la":"36.57610199910",
"ln":"137.13061100000"
},
"geometry":{
"type":"Point",
"coordinates":[
137.130611,
36.5761019991
]
}
},
{
"type":"Feature",
"properties":{
"Name":"八尾健康福祉総合センター",
"Jusho":"富山県富山市八尾町福島200",
"Capacity":"380",
"la":"36.58282499910",
"ln":"137.13749300000"
},
"geometry":{
"type":"Point",
"coordinates":[
137.137493,
36.5828249991
]
}
},
{
"type":"Feature",
"properties":{
"Name":"八尾公民館",
"Jusho":"富山県富山市八尾町東町2108-10",
"Capacity":"120",
"la":"36.57667300000",
"ln":"137.13629600000"
},
"geometry":{
"type":"Point",
"coordinates":[
137.136296,
36.576673
]
}
},
{
"type":"Feature",
"properties":{
"Name":"八尾高校",
"Jusho":"富山県富山市八尾町福島213",
"Capacity":"750",
"la":"36.58487800000",
"ln":"137.13131700000"
},
"geometry":{
"type":"Point",
"coordinates":[
137.131317,
36.584878
]
}
},
{
"type":"Feature",
"properties":{
"Name":"八尾社会体育館",
"Jusho":"富山県富山市八尾町東町1997-1",
"Capacity":"450",
"la":"36.57603700000",
"ln":"137.13584200000"
},
"geometry":{
"type":"Point",
"coordinates":[
137.135842,
36.576037
]
}
},
{
"type":"Feature",
"properties":{
"Name":"八尾農村環境改善センター",
"Jusho":"富山県富山市八尾町梅苑町1-95-1",
"Capacity":"330",
"la":"36.57007200000",
"ln":"137.13733200000"
},
"geometry":{
"type":"Point",
"coordinates":[
137.137332,
36.570072
]
}
},
{
"type":"Feature",
"properties":{
"Name":"浜黒崎浄化センター",
"Jusho":"富山県富山市浜黒崎18",
"Capacity":"－",
"la":"36.75811549340",
"ln":"137.27365286900"
},
"geometry":{
"type":"Point",
"coordinates":[
137.273652869,
36.7581154934
]
}
},
{
"type":"Feature",
"properties":{
"Name":"浜黒崎地区センター",
"Jusho":"富山県富山市浜黒崎3295-12",
"Capacity":"－",
"la":"36.75814400000",
"ln":"137.27782000000"
},
"geometry":{
"type":"Point",
"coordinates":[
137.27782,
36.758144
]
}
},
{
"type":"Feature",
"properties":{
"Name":"浜黒崎保育所",
"Jusho":"富山県富山市古志町3-1-3",
"Capacity":"－",
"la":"36.75475622220",
"ln":"137.27402697600"
},
"geometry":{
"type":"Point",
"coordinates":[
137.274026976,
36.7547562222
]
}
},
{
"type":"Feature",
"properties":{
"Name":"不二越工業高校",
"Jusho":"富山県富山市東石金町7-5",
"Capacity":"160",
"la":"36.68513700000",
"ln":"137.23867100000"
},
"geometry":{
"type":"Point",
"coordinates":[
137.238671,
36.685137
]
}
},
{
"type":"Feature",
"properties":{
"Name":"不二越町保育所",
"Jusho":"富山県富山市東石金町9-41",
"Capacity":"－",
"la":"36.68249800000",
"ln":"137.24097700000"
},
"geometry":{
"type":"Point",
"coordinates":[
137.240977,
36.682498
]
}
},
{
"type":"Feature",
"properties":{
"Name":"婦中スポーツプラザグラウンド",
"Jusho":"富山県富山市婦中町板倉269-1",
"Capacity":"－",
"la":"36.65503806680",
"ln":"137.16660642600"
},
"geometry":{
"type":"Point",
"coordinates":[
137.166606426,
36.6550380668
]
}
},
{
"type":"Feature",
"properties":{
"Name":"婦中ふれあい館",
"Jusho":"富山県富山市婦中町砂子田1-1",
"Capacity":"1290",
"la":"36.65451133910",
"ln":"137.16427405800"
},
"geometry":{
"type":"Point",
"coordinates":[
137.164274058,
36.6545113391
]
}
},
{
"type":"Feature",
"properties":{
"Name":"婦中熊野公民館",
"Jusho":"富山県富山市婦中町堀657",
"Capacity":"180",
"la":"36.63783403250",
"ln":"137.16892711600"
},
"geometry":{
"type":"Point",
"coordinates":[
137.168927116,
36.6378340325
]
}
},
{
"type":"Feature",
"properties":{
"Name":"婦中熊野地区センター",
"Jusho":"富山県富山市婦中町堀657",
"Capacity":"－",
"la":"36.63795800000",
"ln":"137.16893900000"
},
"geometry":{
"type":"Point",
"coordinates":[
137.168939,
36.637958
]
}
},
{
"type":"Feature",
"properties":{
"Name":"婦中熊野保育所",
"Jusho":"富山県富山市婦中町中名479-1",
"Capacity":"－",
"la":"36.64135000000",
"ln":"137.16766300000"
},
"geometry":{
"type":"Point",
"coordinates":[
137.167663,
36.64135
]
}
},
{
"type":"Feature",
"properties":{
"Name":"婦中体育館",
"Jusho":"富山県富山市婦中町砂子田1-2",
"Capacity":"－",
"la":"36.65441600000",
"ln":"137.16428000000"
},
"geometry":{
"type":"Point",
"coordinates":[
137.16428,
36.654416
]
}
},
{
"type":"Feature",
"properties":{
"Name":"婦中体育館音川分館",
"Jusho":"富山県富山市婦中町外輪野5230-1",
"Capacity":"320",
"la":"36.62906493970",
"ln":"137.09201089100"
},
"geometry":{
"type":"Point",
"coordinates":[
137.092010891,
36.6290649397
]
}
},
{
"type":"Feature",
"properties":{
"Name":"婦中中央児童館",
"Jusho":"富山県富山市婦中町速星750-2",
"Capacity":"100",
"la":"36.66023000000",
"ln":"137.16019400000"
},
"geometry":{
"type":"Point",
"coordinates":[
137.160194,
36.66023
]
}
},
{
"type":"Feature",
"properties":{
"Name":"婦中農村環境改善センター",
"Jusho":"富山県富山市婦中町羽根6",
"Capacity":"260",
"la":"36.65543299910",
"ln":"137.12767300000"
},
"geometry":{
"type":"Point",
"coordinates":[
137.127673,
36.6554329991
]
}
},
{
"type":"Feature",
"properties":{
"Name":"婦中武道館",
"Jusho":"富山県富山市婦中町長沢428",
"Capacity":"230",
"la":"36.64534900000",
"ln":"137.12311500000"
},
"geometry":{
"type":"Point",
"coordinates":[
137.123115,
36.645349
]
}
},
{
"type":"Feature",
"properties":{
"Name":"富山いずみ高校",
"Jusho":"富山県富山市堀川小泉町1-21-1",
"Capacity":"780",
"la":"36.67505400000",
"ln":"137.22059000000"
},
"geometry":{
"type":"Point",
"coordinates":[
137.22059,
36.675054
]
}
},
{
"type":"Feature",
"properties":{
"Name":"富山学園",
"Jusho":"富山県富山市針日225",
"Capacity":"170",
"la":"36.75932300000",
"ln":"137.26041800000"
},
"geometry":{
"type":"Point",
"coordinates":[
137.260418,
36.759323
]
}
},
{
"type":"Feature",
"properties":{
"Name":"富山競輪場",
"Jusho":"富山県富山市岩瀬池田町8-2",
"Capacity":"－",
"la":"36.75762394390",
"ln":"137.23516193900"
},
"geometry":{
"type":"Point",
"coordinates":[
137.235161939,
36.7576239439
]
}
},
{
"type":"Feature",
"properties":{
"Name":"富山県技術専門学院",
"Jusho":"富山県富山市向新庄町1-14-48",
"Capacity":"470",
"la":"36.70067921530",
"ln":"137.26280663500"
},
"geometry":{
"type":"Point",
"coordinates":[
137.262806635,
36.7006792153
]
}
},
{
"type":"Feature",
"properties":{
"Name":"富山県教育会館",
"Jusho":"富山県富山市千歳町1-2-7",
"Capacity":"－",
"la":"36.69776687120",
"ln":"137.21822856300"
},
"geometry":{
"type":"Point",
"coordinates":[
137.218228563,
36.6977668712
]
}
},
{
"type":"Feature",
"properties":{
"Name":"富山県空港スポーツ緑地",
"Jusho":"富山県富山市秋ヶ島",
"Capacity":"－",
"la":"36.65371845050",
"ln":"137.19192561300"
},
"geometry":{
"type":"Point",
"coordinates":[
137.191925613,
36.6537184505
]
}
},
{
"type":"Feature",
"properties":{
"Name":"富山県国際健康プラザ",
"Jusho":"富山県富山市友杉151",
"Capacity":"－",
"la":"36.63700199910",
"ln":"137.20258900000"
},
"geometry":{
"type":"Point",
"coordinates":[
137.202589,
36.6370019991
]
}
},
{
"type":"Feature",
"properties":{
"Name":"富山県総合体育センター",
"Jusho":"富山県富山市秋ヶ島183",
"Capacity":"－",
"la":"36.64486900000",
"ln":"137.19018700000"
},
"geometry":{
"type":"Point",
"coordinates":[
137.190187,
36.644869
]
}
},
{
"type":"Feature",
"properties":{
"Name":"富山県中央植物園",
"Jusho":"富山県富山市婦中町上轡田42",
"Capacity":"－",
"la":"36.66213174300",
"ln":"137.18201542000"
},
"geometry":{
"type":"Point",
"coordinates":[
137.18201542,
36.662131743
]
}
},
{
"type":"Feature",
"properties":{
"Name":"富山県富山港管理事務所",
"Jusho":"富山県富山市東岩瀬町5",
"Capacity":"－",
"la":"36.75654160210",
"ln":"137.22779552200"
},
"geometry":{
"type":"Point",
"coordinates":[
137.227795522,
36.7565416021
]
}
},
{
"type":"Feature",
"properties":{
"Name":"富山県富山港事務所",
"Jusho":"富山県富山市東岩瀬町5",
"Capacity":"－",
"la":"36.75632300000",
"ln":"137.22772700000"
},
"geometry":{
"type":"Point",
"coordinates":[
137.227727,
36.756323
]
}
},
{
"type":"Feature",
"properties":{
"Name":"富山工業高校",
"Jusho":"富山県富山市五福2238",
"Capacity":"750",
"la":"36.69871700000",
"ln":"137.19331500000"
},
"geometry":{
"type":"Point",
"coordinates":[
137.193315,
36.698717
]
}
},
{
"type":"Feature",
"properties":{
"Name":"富山港港湾労働者福祉センター",
"Jusho":"富山県富山市岩瀬大町7",
"Capacity":"－",
"la":"36.75603699890",
"ln":"137.22824358500"
},
"geometry":{
"type":"Point",
"coordinates":[
137.228243585,
36.7560369989
]
}
},
{
"type":"Feature",
"properties":{
"Name":"富山港湾運送（株）事務所",
"Jusho":"富山県富山市東岩瀬町100-3",
"Capacity":"－",
"la":"36.75766800000",
"ln":"137.22802700000"
},
"geometry":{
"type":"Point",
"coordinates":[
137.228027,
36.757668
]
}
},
{
"type":"Feature",
"properties":{
"Name":"富山高校",
"Jusho":"富山県富山市太郎丸1",
"Capacity":"820",
"la":"36.67197100000",
"ln":"137.21756300000"
},
"geometry":{
"type":"Point",
"coordinates":[
137.217563,
36.671971
]
}
},
{
"type":"Feature",
"properties":{
"Name":"富山高等専門学校",
"Jusho":"富山県富山市本郷町13",
"Capacity":"1550",
"la":"36.65080800000",
"ln":"137.24386700000"
},
"geometry":{
"type":"Point",
"coordinates":[
137.243867,
36.650808
]
}
},
{
"type":"Feature",
"properties":{
"Name":"富山国際会議場",
"Jusho":"富山県富山市大手町1-2",
"Capacity":"－",
"la":"36.69149400000",
"ln":"137.21091100000"
},
"geometry":{
"type":"Point",
"coordinates":[
137.210911,
36.691494
]
}
},
{
"type":"Feature",
"properties":{
"Name":"富山市エコタウン交流推進センター",
"Jusho":"富山県富山市海岸通字松浦町2-12",
"Capacity":"－",
"la":"36.75938824870",
"ln":"137.24448053400"
},
"geometry":{
"type":"Point",
"coordinates":[
137.244480534,
36.7593882487
]
}
},
{
"type":"Feature",
"properties":{
"Name":"富山市保健所",
"Jusho":"富山県富山市蜷川459-1",
"Capacity":"－",
"la":"36.64548062740",
"ln":"137.20551047800"
},
"geometry":{
"type":"Point",
"coordinates":[
137.205510478,
36.6454806274
]
}
},
{
"type":"Feature",
"properties":{
"Name":"富山市北保健福祉センター",
"Jusho":"富山県富山市岩瀬文化町23-2",
"Capacity":"－",
"la":"36.75556000000",
"ln":"137.23212100000"
},
"geometry":{
"type":"Point",
"coordinates":[
137.232121,
36.75556
]
}
},
{
"type":"Feature",
"properties":{
"Name":"富山市民プラザ",
"Jusho":"富山県富山市大手町6-14",
"Capacity":"－",
"la":"36.69043300000",
"ln":"137.21094400000"
},
"geometry":{
"type":"Point",
"coordinates":[
137.210944,
36.690433
]
}
},
{
"type":"Feature",
"properties":{
"Name":"富山視覚総合支援学校",
"Jusho":"富山県富山市大江干144",
"Capacity":"250",
"la":"36.69358099910",
"ln":"137.26744700000"
},
"geometry":{
"type":"Point",
"coordinates":[
137.267447,
36.6935809991
]
}
},
{
"type":"Feature",
"properties":{
"Name":"富山商業高校",
"Jusho":"富山県富山市庄高田413",
"Capacity":"810",
"la":"36.69305100000",
"ln":"137.18834400000"
},
"geometry":{
"type":"Point",
"coordinates":[
137.188344,
36.693051
]
}
},
{
"type":"Feature",
"properties":{
"Name":"富山西高校",
"Jusho":"富山県富山市婦中町速星926",
"Capacity":"850",
"la":"36.65865400000",
"ln":"137.16480800000"
},
"geometry":{
"type":"Point",
"coordinates":[
137.164808,
36.658654
]
}
},
{
"type":"Feature",
"properties":{
"Name":"富山総合支援学校",
"Jusho":"富山県富山市金屋4982",
"Capacity":"310",
"la":"36.69230100000",
"ln":"137.16531900000"
},
"geometry":{
"type":"Point",
"coordinates":[
137.165319,
36.692301
]
}
},
{
"type":"Feature",
"properties":{
"Name":"富山大学五福キャンパス",
"Jusho":"富山県富山市五福3190",
"Capacity":"1490",
"la":"36.69857800000",
"ln":"137.18681600000"
},
"geometry":{
"type":"Point",
"coordinates":[
137.186816,
36.698578
]
}
},
{
"type":"Feature",
"properties":{
"Name":"富山大学杉谷キャンパス",
"Jusho":"富山県富山市杉谷2630",
"Capacity":"630",
"la":"36.68013500000",
"ln":"137.14293500000"
},
"geometry":{
"type":"Point",
"coordinates":[
137.142935,
36.680135
]
}
},
{
"type":"Feature",
"properties":{
"Name":"富山第一高校",
"Jusho":"富山県富山市向新庄町5-1-54",
"Capacity":"3440",
"la":"36.70617600000",
"ln":"137.26557800000"
},
"geometry":{
"type":"Point",
"coordinates":[
137.265578,
36.706176
]
}
},
{
"type":"Feature",
"properties":{
"Name":"富山短期大学",
"Jusho":"富山県富山市願海寺444",
"Capacity":"780",
"la":"36.72124100000",
"ln":"137.13951500000"
},
"geometry":{
"type":"Point",
"coordinates":[
137.139515,
36.721241
]
}
},
{
"type":"Feature",
"properties":{
"Name":"富山中部高校",
"Jusho":"富山県富山市芝園町3-1-26",
"Capacity":"870",
"la":"36.69588400000",
"ln":"137.20386900000"
},
"geometry":{
"type":"Point",
"coordinates":[
137.203869,
36.695884
]
}
},
{
"type":"Feature",
"properties":{
"Name":"富山聴覚総合支援学校",
"Jusho":"富山県富山市下奥井1-9-56",
"Capacity":"－",
"la":"36.71257700000",
"ln":"137.22628300000"
},
"geometry":{
"type":"Point",
"coordinates":[
137.226283,
36.712577
]
}
},
{
"type":"Feature",
"properties":{
"Name":"富山東高校",
"Jusho":"富山県富山市下飯野荒田6-1",
"Capacity":"310",
"la":"36.74101900000",
"ln":"137.25666900000"
},
"geometry":{
"type":"Point",
"coordinates":[
137.256669,
36.741019
]
}
},
{
"type":"Feature",
"properties":{
"Name":"富山南高校",
"Jusho":"富山県富山市布市98",
"Capacity":"760",
"la":"36.64889100000",
"ln":"137.23697900000"
},
"geometry":{
"type":"Point",
"coordinates":[
137.236979,
36.648891
]
}
},
{
"type":"Feature",
"properties":{
"Name":"富山能楽堂",
"Jusho":"富山県富山市友杉1097",
"Capacity":"－",
"la":"36.63914475070",
"ln":"137.19824803600"
},
"geometry":{
"type":"Point",
"coordinates":[
137.198248036,
36.6391447507
]
}
},
{
"type":"Feature",
"properties":{
"Name":"富山武道館",
"Jusho":"富山県富山市牛島町2-10",
"Capacity":"－",
"la":"36.70523700000",
"ln":"137.21300400000"
},
"geometry":{
"type":"Point",
"coordinates":[
137.213004,
36.705237
]
}
},
{
"type":"Feature",
"properties":{
"Name":"富山北消防署",
"Jusho":"富山県富山市高畠町1-10-30",
"Capacity":"－",
"la":"36.74929600000",
"ln":"137.22989300000"
},
"geometry":{
"type":"Point",
"coordinates":[
137.229893,
36.749296
]
}
},
{
"type":"Feature",
"properties":{
"Name":"富山北消防署和合出張所",
"Jusho":"富山県富山市四方荒屋1700-1",
"Capacity":"－",
"la":"36.75376600000",
"ln":"137.19864600000"
},
"geometry":{
"type":"Point",
"coordinates":[
137.198646,
36.753766
]
}
},
{
"type":"Feature",
"properties":{
"Name":"富山北部高校",
"Jusho":"富山県富山市蓮町4-3-20",
"Capacity":"810",
"la":"36.74218500000",
"ln":"137.23450400000"
},
"geometry":{
"type":"Point",
"coordinates":[
137.234504,
36.742185
]
}
},
{
"type":"Feature",
"properties":{
"Name":"文珠寺公民館",
"Jusho":"富山県富山市文珠寺1300-4",
"Capacity":"60",
"la":"36.60317600000",
"ln":"137.29489500000"
},
"geometry":{
"type":"Point",
"coordinates":[
137.294895,
36.603176
]
}
},
{
"type":"Feature",
"properties":{
"Name":"片掛地区公民館",
"Jusho":"富山県富山市片掛1981-1",
"Capacity":"30",
"la":"36.49108445900",
"ln":"137.23594343300"
},
"geometry":{
"type":"Point",
"coordinates":[
137.235943433,
36.491084459
]
}
},
{
"type":"Feature",
"properties":{
"Name":"保内公民館",
"Jusho":"富山県富山市八尾町新田101",
"Capacity":"250",
"la":"36.60582600000",
"ln":"137.13152600000"
},
"geometry":{
"type":"Point",
"coordinates":[
137.131526,
36.605826
]
}
},
{
"type":"Feature",
"properties":{
"Name":"豊田地区センター",
"Jusho":"富山県富山市豊若町3-12-25",
"Capacity":"－",
"la":"36.72915100000",
"ln":"137.23668200000"
},
"geometry":{
"type":"Point",
"coordinates":[
137.236682,
36.729151
]
}
},
{
"type":"Feature",
"properties":{
"Name":"豊田保育所",
"Jusho":"富山県富山市豊若町1-6-13",
"Capacity":"－",
"la":"36.73290800000",
"ln":"137.23661500000"
},
"geometry":{
"type":"Point",
"coordinates":[
137.236615,
36.732908
]
}
},
{
"type":"Feature",
"properties":{
"Name":"防災センター",
"Jusho":"富山県富山市花園町4-5-20",
"Capacity":"－",
"la":"36.68057753070",
"ln":"137.20680305800"
},
"geometry":{
"type":"Point",
"coordinates":[
137.206803058,
36.6805775307
]
}
},
{
"type":"Feature",
"properties":{
"Name":"北部児童館",
"Jusho":"富山県富山市蓮町1-4-11",
"Capacity":"－",
"la":"36.74276000000",
"ln":"137.22560900000"
},
"geometry":{
"type":"Point",
"coordinates":[
137.225609,
36.74276
]
}
},
{
"type":"Feature",
"properties":{
"Name":"北部錬成館",
"Jusho":"富山県富山市高畠町2-11-47",
"Capacity":"－",
"la":"36.74673500000",
"ln":"137.22838500000"
},
"geometry":{
"type":"Point",
"coordinates":[
137.228385,
36.746735
]
}
},
{
"type":"Feature",
"properties":{
"Name":"牧体育館",
"Jusho":"富山県富山市牧789",
"Capacity":"200",
"la":"36.57001400000",
"ln":"137.35543700000"
},
"geometry":{
"type":"Point",
"coordinates":[
137.355437,
36.570014
]
}
},
{
"type":"Feature",
"properties":{
"Name":"堀川地区センター",
"Jusho":"富山県富山市堀川小泉町225-8",
"Capacity":"－",
"la":"36.67642400000",
"ln":"137.22269000000"
},
"geometry":{
"type":"Point",
"coordinates":[
137.22269,
36.676424
]
}
},
{
"type":"Feature",
"properties":{
"Name":"堀川南地区センター",
"Jusho":"富山県富山市本郷町243-45",
"Capacity":"－",
"la":"36.66242600000",
"ln":"137.23166800000"
},
"geometry":{
"type":"Point",
"coordinates":[
137.231668,
36.662426
]
}
},
{
"type":"Feature",
"properties":{
"Name":"堀川南保育園",
"Jusho":"富山県富山市大町16-1",
"Capacity":"－",
"la":"36.66833300000",
"ln":"137.22656200000"
},
"geometry":{
"type":"Point",
"coordinates":[
137.226562,
36.668333
]
}
},
{
"type":"Feature",
"properties":{
"Name":"堀川保育所",
"Jusho":"富山県富山市堀川小泉町1-16-24",
"Capacity":"－",
"la":"36.67572100000",
"ln":"137.21986800000"
},
"geometry":{
"type":"Point",
"coordinates":[
137.219868,
36.675721
]
}
},
{
"type":"Feature",
"properties":{
"Name":"民俗民芸村管理センター",
"Jusho":"富山県富山市安養坊1181-1",
"Capacity":"－",
"la":"36.71021599910",
"ln":"137.18945400000"
},
"geometry":{
"type":"Point",
"coordinates":[
137.189454,
36.7102159991
]
}
},
{
"type":"Feature",
"properties":{
"Name":"野積地区コミュニティセンター",
"Jusho":"富山県富山市八尾町水口242",
"Capacity":"670",
"la":"36.54888300000",
"ln":"137.12483400000"
},
"geometry":{
"type":"Point",
"coordinates":[
137.124834,
36.548883
]
}
},
{
"type":"Feature",
"properties":{
"Name":"柳町地区センター",
"Jusho":"富山県富山市柳町4-2-43",
"Capacity":"－",
"la":"36.69454400000",
"ln":"137.22260100000"
},
"geometry":{
"type":"Point",
"coordinates":[
137.222601,
36.694544
]
}
},
{
"type":"Feature",
"properties":{
"Name":"柳町保育所",
"Jusho":"富山県富山市於保多町1-23",
"Capacity":"－",
"la":"36.69394100000",
"ln":"137.22514500000"
},
"geometry":{
"type":"Point",
"coordinates":[
137.225145,
36.693941
]
}
},
{
"type":"Feature",
"properties":{
"Name":"雄峰高校",
"Jusho":"富山県富山市赤江町1-45",
"Capacity":"310",
"la":"36.70235600000",
"ln":"137.21875600000"
},
"geometry":{
"type":"Point",
"coordinates":[
137.218756,
36.702356
]
}
},
{
"type":"Feature",
"properties":{
"Name":"龍谷富山高校",
"Jusho":"富山県富山市赤江町2-10",
"Capacity":"1780",
"la":"36.70132800000",
"ln":"137.21953400000"
},
"geometry":{
"type":"Point",
"coordinates":[
137.219534,
36.701328
]
}
},
{
"type":"Feature",
"properties":{
"Name":"林業総合センター",
"Jusho":"富山県富山市八尾町梅苑町1-95-1",
"Capacity":"120",
"la":"36.57021039300",
"ln":"137.13691309000"
},
"geometry":{
"type":"Point",
"coordinates":[
137.13691309,
36.570210393
]
}
},
{
"type":"Feature",
"properties":{
"Name":"錬成館",
"Jusho":"富山県富山市堀川小泉町五百苅225-8",
"Capacity":"－",
"la":"36.67546900000",
"ln":"137.21968300000"
},
"geometry":{
"type":"Point",
"coordinates":[
137.219683,
36.675469
]
}
},
{
"type":"Feature",
"properties":{
"Name":"和合保育所",
"Jusho":"富山県富山市布目4173",
"Capacity":"－",
"la":"36.73924000000",
"ln":"137.18859200000"
},
"geometry":{
"type":"Point",
"coordinates":[
137.188592,
36.73924
]
}
},
{
"type":"Feature",
"properties":{
"Name":"楜ヶ原集落センター",
"Jusho":"富山県富山市楜ヶ原626-1",
"Capacity":"10",
"la":"36.58302018320",
"ln":"137.28479600900"
},
"geometry":{
"type":"Point",
"coordinates":[
137.284796009,
36.5830201832
]
}
},
{
"type":"Feature",
"properties":{
"Name":"楡原地区公民館",
"Jusho":"富山県富山市楡原1280-1",
"Capacity":"50",
"la":"36.53273600000",
"ln":"137.23091100000"
},
"geometry":{
"type":"Point",
"coordinates":[
137.230911,
36.532736
]
}
},
{
"type":"Feature",
"properties":{
"Name":"蜷川児童館",
"Jusho":"富山県富山市下堀字上大道割77-7",
"Capacity":"－",
"la":"36.65555998480",
"ln":"137.22665362700"
},
"geometry":{
"type":"Point",
"coordinates":[
137.226653627,
36.6555599848
]
}
},
{
"type":"Feature",
"properties":{
"Name":"蜷川地区センター",
"Jusho":"富山県富山市赤田50",
"Capacity":"－",
"la":"36.65476600000",
"ln":"137.22152800000"
},
"geometry":{
"type":"Point",
"coordinates":[
137.221528,
36.654766
]
}
},
{
"type":"Feature",
"properties":{
"Name":"鯰温泉",
"Jusho":"富山県富山市今市3339",
"Capacity":"－",
"la":"36.74997600000",
"ln":"137.19447800000"
},
"geometry":{
"type":"Point",
"coordinates":[
137.194478,
36.749976
]
}
},
{
"type":"Feature",
"properties":{
"Name":"鯰第一温泉ふじのや",
"Jusho":"富山県富山市四方荒屋3233",
"Capacity":"－",
"la":"36.74978758430",
"ln":"137.19352875400"
},
"geometry":{
"type":"Point",
"coordinates":[
137.193528754,
36.7497875843
]
}
},
{
"type":"Feature",
"properties":{
"Name":"新港の森",
"Jusho":"富山県高岡市姫野",
"Capacity":"－",
"la":"36.76591999140",
"ln":"137.09067079600"
},
"geometry":{
"type":"Point",
"coordinates":[
137.090670796,
36.7659199914
]
}
},
{
"type":"Feature",
"properties":{
"Name":"テクノスポーツドーム（ありそドーム）",
"Jusho":"富山県魚津市北鬼江2898-3",
"Capacity":"2480",
"la":"36.83005900000",
"ln":"137.40062600000"
},
"geometry":{
"type":"Point",
"coordinates":[
137.400626,
36.830059
]
}
},
{
"type":"Feature",
"properties":{
"Name":"とみ里１号開発広場",
"Jusho":"富山県魚津市観音堂1637-3",
"Capacity":"－",
"la":"36.78581164280",
"ln":"137.41855407500"
},
"geometry":{
"type":"Point",
"coordinates":[
137.418554075,
36.7858116428
]
}
},
{
"type":"Feature",
"properties":{
"Name":"下中島公民館",
"Jusho":"富山県魚津市慶野172-2",
"Capacity":"120",
"la":"36.80228300000",
"ln":"137.40260500000"
},
"geometry":{
"type":"Point",
"coordinates":[
137.402605,
36.802283
]
}
},
{
"type":"Feature",
"properties":{
"Name":"魚津工業高校",
"Jusho":"富山県魚津市浜経田3338",
"Capacity":"2450",
"la":"36.85337400000",
"ln":"137.42106600000"
},
"geometry":{
"type":"Point",
"coordinates":[
137.421066,
36.853374
]
}
},
{
"type":"Feature",
"properties":{
"Name":"魚津高校",
"Jusho":"富山県魚津市吉島945",
"Capacity":"3820",
"la":"36.83012500000",
"ln":"137.41220600000"
},
"geometry":{
"type":"Point",
"coordinates":[
137.412206,
36.830125
]
}
},
{
"type":"Feature",
"properties":{
"Name":"経田公民館",
"Jusho":"富山県魚津市浜経田466",
"Capacity":"280",
"la":"36.84846600000",
"ln":"137.41636100000"
},
"geometry":{
"type":"Point",
"coordinates":[
137.416361,
36.848466
]
}
},
{
"type":"Feature",
"properties":{
"Name":"江口農村広場",
"Jusho":"富山県魚津市西尾崎地先",
"Capacity":"－",
"la":"36.83670156480",
"ln":"137.42602835200"
},
"geometry":{
"type":"Point",
"coordinates":[
137.426028352,
36.8367015648
]
}
},
{
"type":"Feature",
"properties":{
"Name":"松倉保育園",
"Jusho":"富山県魚津市金山谷2899-2",
"Capacity":"110",
"la":"36.78550799910",
"ln":"137.41783300000"
},
"geometry":{
"type":"Point",
"coordinates":[
137.417833,
36.7855079991
]
}
},
{
"type":"Feature",
"properties":{
"Name":"上中島多目的交流センター（魚津もくもくホール）",
"Jusho":"富山県魚津市下椿8",
"Capacity":"330",
"la":"36.77591200000",
"ln":"137.41038100000"
},
"geometry":{
"type":"Point",
"coordinates":[
137.410381,
36.775912
]
}
},
{
"type":"Feature",
"properties":{
"Name":"上野方公民館",
"Jusho":"富山県魚津市大海寺野1370",
"Capacity":"140",
"la":"36.80699200000",
"ln":"137.42676200000"
},
"geometry":{
"type":"Point",
"coordinates":[
137.426762,
36.806992
]
}
},
{
"type":"Feature",
"properties":{
"Name":"新川みどり野高校",
"Jusho":"富山県魚津市木下新144",
"Capacity":"1980",
"la":"36.84840200000",
"ln":"137.42992600000"
},
"geometry":{
"type":"Point",
"coordinates":[
137.429926,
36.848402
]
}
},
{
"type":"Feature",
"properties":{
"Name":"新川学びの森天神山交流館",
"Jusho":"富山県魚津市天神野新147-1",
"Capacity":"2800",
"la":"36.82624699910",
"ln":"137.44609300000"
},
"geometry":{
"type":"Point",
"coordinates":[
137.446093,
36.8262469991
]
}
},
{
"type":"Feature",
"properties":{
"Name":"新川高校",
"Jusho":"富山県魚津市吉島1350",
"Capacity":"2780",
"la":"36.82345900000",
"ln":"137.42423300000"
},
"geometry":{
"type":"Point",
"coordinates":[
137.424233,
36.823459
]
}
},
{
"type":"Feature",
"properties":{
"Name":"新川文化ホール",
"Jusho":"富山県魚津市宮津110",
"Capacity":"730",
"la":"36.80451900000",
"ln":"137.40799700000"
},
"geometry":{
"type":"Point",
"coordinates":[
137.407997,
36.804519
]
}
},
{
"type":"Feature",
"properties":{
"Name":"西布施公民館",
"Jusho":"富山県魚津市小川寺3027",
"Capacity":"90",
"la":"36.82882300000",
"ln":"137.45829800000"
},
"geometry":{
"type":"Point",
"coordinates":[
137.458298,
36.828823
]
}
},
{
"type":"Feature",
"properties":{
"Name":"早月川緑地",
"Jusho":"富山県魚津市吉野地先",
"Capacity":"－",
"la":"36.78002154000",
"ln":"137.40075326000"
},
"geometry":{
"type":"Point",
"coordinates":[
137.40075326,
36.78002154
]
}
},
{
"type":"Feature",
"properties":{
"Name":"総合体育館",
"Jusho":"富山県魚津市本江3311",
"Capacity":"1330",
"la":"36.81885700000",
"ln":"137.41754800000"
},
"geometry":{
"type":"Point",
"coordinates":[
137.417548,
36.818857
]
}
},
{
"type":"Feature",
"properties":{
"Name":"大町公民館",
"Jusho":"富山県魚津市本町1-1-10",
"Capacity":"300",
"la":"36.81219000000",
"ln":"137.39381900000"
},
"geometry":{
"type":"Point",
"coordinates":[
137.393819,
36.81219
]
}
},
{
"type":"Feature",
"properties":{
"Name":"坪野山村広場",
"Jusho":"富山県魚津市坪野1884",
"Capacity":"－",
"la":"36.76823846260",
"ln":"137.45358381400"
},
"geometry":{
"type":"Point",
"coordinates":[
137.453583814,
36.7682384626
]
}
},
{
"type":"Feature",
"properties":{
"Name":"天神公民館",
"Jusho":"富山県魚津市天神野新220",
"Capacity":"420",
"la":"36.83109600000",
"ln":"137.44122100000"
},
"geometry":{
"type":"Point",
"coordinates":[
137.441221,
36.831096
]
}
},
{
"type":"Feature",
"properties":{
"Name":"天神山野球場",
"Jusho":"富山県魚津市小川寺5995",
"Capacity":"－",
"la":"36.82705898500",
"ln":"137.44769309600"
},
"geometry":{
"type":"Point",
"coordinates":[
137.447693096,
36.827058985
]
}
},
{
"type":"Feature",
"properties":{
"Name":"道下公民館",
"Jusho":"富山県魚津市北鬼江2-14-15",
"Capacity":"200",
"la":"36.83024200000",
"ln":"137.40409800000"
},
"geometry":{
"type":"Point",
"coordinates":[
137.404098,
36.830242
]
}
},
{
"type":"Feature",
"properties":{
"Name":"農村環境改善センター",
"Jusho":"富山県魚津市六郎丸1062",
"Capacity":"430",
"la":"36.82398800000",
"ln":"137.42793000000"
},
"geometry":{
"type":"Point",
"coordinates":[
137.42793,
36.823988
]
}
},
{
"type":"Feature",
"properties":{
"Name":"片貝公民館",
"Jusho":"富山県魚津市島尻1535",
"Capacity":"160",
"la":"36.79187200000",
"ln":"137.46878800000"
},
"geometry":{
"type":"Point",
"coordinates":[
137.468788,
36.791872
]
}
},
{
"type":"Feature",
"properties":{
"Name":"北陸職業能力開発大学校",
"Jusho":"富山県魚津市川縁1289-1",
"Capacity":"3350",
"la":"36.79182900000",
"ln":"137.39749100000"
},
"geometry":{
"type":"Point",
"coordinates":[
137.397491,
36.791829
]
}
},
{
"type":"Feature",
"properties":{
"Name":"本江公民館",
"Jusho":"富山県魚津市友道1401",
"Capacity":"230",
"la":"36.81557400000",
"ln":"137.40721800000"
},
"geometry":{
"type":"Point",
"coordinates":[
137.407218,
36.815574
]
}
},
{
"type":"Feature",
"properties":{
"Name":"ＪＡ氷見市田子支所",
"Jusho":"富山県氷見市下田子144",
"Capacity":"－",
"la":"36.81729840590",
"ln":"136.99574633300"
},
"geometry":{
"type":"Point",
"coordinates":[
136.995746333,
36.8172984059
]
}
},
{
"type":"Feature",
"properties":{
"Name":"ＪＡ氷見市島尾支所",
"Jusho":"富山県氷見市島尾393-2",
"Capacity":"－",
"la":"36.82521497450",
"ln":"137.00802046400"
},
"geometry":{
"type":"Point",
"coordinates":[
137.008020464,
36.8252149745
]
}
},
{
"type":"Feature",
"properties":{
"Name":"ＪＡ氷見市八代支所",
"Jusho":"富山県氷見市磯辺812",
"Capacity":"－",
"la":"36.91470323650",
"ln":"136.95493569600"
},
"geometry":{
"type":"Point",
"coordinates":[
136.954935696,
36.9147032365
]
}
},
{
"type":"Feature",
"properties":{
"Name":"ハッピータウン駐車場",
"Jusho":"富山県氷見市幸町9-54",
"Capacity":"－",
"la":"36.85733762410",
"ln":"136.98270594000"
},
"geometry":{
"type":"Point",
"coordinates":[
136.98270594,
36.8573376241
]
}
},
{
"type":"Feature",
"properties":{
"Name":"プラファ駐車場",
"Jusho":"富山県氷見市加納484",
"Capacity":"－",
"la":"36.86360470930",
"ln":"136.97451765200"
},
"geometry":{
"type":"Point",
"coordinates":[
136.974517652,
36.8636047093
]
}
},
{
"type":"Feature",
"properties":{
"Name":"粟原たけのこ生産組合倉庫",
"Jusho":"富山県氷見市粟原225",
"Capacity":"－",
"la":"36.82737908120",
"ln":"136.94143848200"
},
"geometry":{
"type":"Point",
"coordinates":[
136.941438482,
36.8273790812
]
}
},
{
"type":"Feature",
"properties":{
"Name":"安養寺",
"Jusho":"富山県氷見市上泉57",
"Capacity":"－",
"la":"36.82113627520",
"ln":"136.99845853600"
},
"geometry":{
"type":"Point",
"coordinates":[
136.998458536,
36.8211362752
]
}
},
{
"type":"Feature",
"properties":{
"Name":"伊勢玉神社",
"Jusho":"富山県氷見市伊勢大町1-9-23",
"Capacity":"－",
"la":"36.84918678580",
"ln":"136.98899465200"
},
"geometry":{
"type":"Point",
"coordinates":[
136.988994652,
36.8491867858
]
}
},
{
"type":"Feature",
"properties":{
"Name":"伊勢大町車庫駐車場",
"Jusho":"富山県氷見市伊勢大町2-1-37",
"Capacity":"－",
"la":"36.84818170150",
"ln":"136.98678470500"
},
"geometry":{
"type":"Point",
"coordinates":[
136.986784705,
36.8481817015
]
}
},
{
"type":"Feature",
"properties":{
"Name":"一の瀬公民館",
"Jusho":"富山県氷見市上余川3333",
"Capacity":"－",
"la":"36.88874961780",
"ln":"136.90631073700"
},
"geometry":{
"type":"Point",
"coordinates":[
136.906310737,
36.8887496178
]
}
},
{
"type":"Feature",
"properties":{
"Name":"一の島健康管理センター",
"Jusho":"富山県氷見市棚懸158",
"Capacity":"－",
"la":"36.81597924310",
"ln":"136.86338033100"
},
"geometry":{
"type":"Point",
"coordinates":[
136.863380331,
36.8159792431
]
}
},
{
"type":"Feature",
"properties":{
"Name":"運行寺",
"Jusho":"富山県氷見市下久津呂251",
"Capacity":"－",
"la":"36.82769804970",
"ln":"136.95124602900"
},
"geometry":{
"type":"Point",
"coordinates":[
136.951246029,
36.8276980497
]
}
},
{
"type":"Feature",
"properties":{
"Name":"永芳閣",
"Jusho":"富山県氷見市阿尾3257",
"Capacity":"－",
"la":"36.88641581400",
"ln":"136.99461136200"
},
"geometry":{
"type":"Point",
"coordinates":[
136.994611362,
36.886415814
]
}
},
{
"type":"Feature",
"properties":{
"Name":"駅北緑地",
"Jusho":"富山県氷見市地蔵町88-2",
"Capacity":"－",
"la":"36.85094518000",
"ln":"136.99032557000"
},
"geometry":{
"type":"Point",
"coordinates":[
136.99032557,
36.85094518
]
}
},
{
"type":"Feature",
"properties":{
"Name":"円照寺",
"Jusho":"富山県氷見市中央町2-42",
"Capacity":"－",
"la":"36.85881173720",
"ln":"136.98594186600"
},
"geometry":{
"type":"Point",
"coordinates":[
136.985941866,
36.8588117372
]
}
},
{
"type":"Feature",
"properties":{
"Name":"円満寺",
"Jusho":"富山県氷見市南大町5-17",
"Capacity":"－",
"la":"36.85244460400",
"ln":"136.98858008700"
},
"geometry":{
"type":"Point",
"coordinates":[
136.988580087,
36.852444604
]
}
},
{
"type":"Feature",
"properties":{
"Name":"園児童遊園",
"Jusho":"富山県氷見市園357",
"Capacity":"－",
"la":"36.83520730840",
"ln":"136.98649742300"
},
"geometry":{
"type":"Point",
"coordinates":[
136.986497423,
36.8352073084
]
}
},
{
"type":"Feature",
"properties":{
"Name":"園地区コミュニティセンター",
"Jusho":"富山県氷見市園1002",
"Capacity":"－",
"la":"36.83282439400",
"ln":"136.98366000000"
},
"geometry":{
"type":"Point",
"coordinates":[
136.98366,
36.832824394
]
}
},
{
"type":"Feature",
"properties":{
"Name":"下久津呂公民館",
"Jusho":"富山県氷見市下久津呂94",
"Capacity":"－",
"la":"36.82774995040",
"ln":"136.95228427500"
},
"geometry":{
"type":"Point",
"coordinates":[
136.952284275,
36.8277499504
]
}
},
{
"type":"Feature",
"properties":{
"Name":"下田子公民館",
"Jusho":"富山県氷見市下田子1430",
"Capacity":"－",
"la":"36.81585576540",
"ln":"136.99288019400"
},
"geometry":{
"type":"Point",
"coordinates":[
136.992880194,
36.8158557654
]
}
},
{
"type":"Feature",
"properties":{
"Name":"加納コミュニティセンター",
"Jusho":"富山県氷見市加納3693",
"Capacity":"－",
"la":"36.86426299910",
"ln":"136.96965400000"
},
"geometry":{
"type":"Point",
"coordinates":[
136.969654,
36.8642629991
]
}
},
{
"type":"Feature",
"properties":{
"Name":"柿谷公民館",
"Jusho":"富山県氷見市柿谷2941",
"Capacity":"－",
"la":"36.87264667160",
"ln":"136.93741211600"
},
"geometry":{
"type":"Point",
"coordinates":[
136.937412116,
36.8726466716
]
}
},
{
"type":"Feature",
"properties":{
"Name":"覚円寺",
"Jusho":"富山県氷見市島尾1420",
"Capacity":"－",
"la":"36.82830308490",
"ln":"137.00802565200"
},
"geometry":{
"type":"Point",
"coordinates":[
137.008025652,
36.8283030849
]
}
},
{
"type":"Feature",
"properties":{
"Name":"覚照寺",
"Jusho":"富山県氷見市指崎1513",
"Capacity":"－",
"la":"36.89221370830",
"ln":"136.97729959400"
},
"geometry":{
"type":"Point",
"coordinates":[
136.977299594,
36.8922137083
]
}
},
{
"type":"Feature",
"properties":{
"Name":"岩瀬コミュニティセンター",
"Jusho":"富山県氷見市岩瀬640",
"Capacity":"－",
"la":"36.82516653820",
"ln":"136.87031833100"
},
"geometry":{
"type":"Point",
"coordinates":[
136.870318331,
36.8251665382
]
}
},
{
"type":"Feature",
"properties":{
"Name":"願正寺",
"Jusho":"富山県氷見市論田950",
"Capacity":"－",
"la":"36.87273245230",
"ln":"136.89415395400"
},
"geometry":{
"type":"Point",
"coordinates":[
136.894153954,
36.8727324523
]
}
},
{
"type":"Feature",
"properties":{
"Name":"願専寺",
"Jusho":"富山県氷見市下久津呂89",
"Capacity":"－",
"la":"36.82912781100",
"ln":"136.95323740600"
},
"geometry":{
"type":"Point",
"coordinates":[
136.953237406,
36.829127811
]
}
},
{
"type":"Feature",
"properties":{
"Name":"菊理姫像石神社",
"Jusho":"富山県氷見市小杉256",
"Capacity":"－",
"la":"36.89574130250",
"ln":"137.00640322200"
},
"geometry":{
"type":"Point",
"coordinates":[
137.006403222,
36.8957413025
]
}
},
{
"type":"Feature",
"properties":{
"Name":"吉滝公民館",
"Jusho":"富山県氷見市吉滝757",
"Capacity":"－",
"la":"36.90206848420",
"ln":"136.95881334800"
},
"geometry":{
"type":"Point",
"coordinates":[
136.958813348,
36.9020684842
]
}
},
{
"type":"Feature",
"properties":{
"Name":"吉池公民館",
"Jusho":"富山県氷見市仏生寺3147",
"Capacity":"－",
"la":"36.78063679760",
"ln":"136.89436346600"
},
"geometry":{
"type":"Point",
"coordinates":[
136.894363466,
36.7806367976
]
}
},
{
"type":"Feature",
"properties":{
"Name":"久目公民館",
"Jusho":"富山県氷見市久目178",
"Capacity":"－",
"la":"36.83823237370",
"ln":"136.90076684600"
},
"geometry":{
"type":"Point",
"coordinates":[
136.900766846,
36.8382323737
]
}
},
{
"type":"Feature",
"properties":{
"Name":"久目地区交流館",
"Jusho":"富山県氷見市久目275-2",
"Capacity":"－",
"la":"36.83272944100",
"ln":"136.89530214500"
},
"geometry":{
"type":"Point",
"coordinates":[
136.895302145,
36.832729441
]
}
},
{
"type":"Feature",
"properties":{
"Name":"宮田公民館",
"Jusho":"富山県氷見市宮田713",
"Capacity":"－",
"la":"36.81788970440",
"ln":"137.00005205300"
},
"geometry":{
"type":"Point",
"coordinates":[
137.000052053,
36.8178897044
]
}
},
{
"type":"Feature",
"properties":{
"Name":"旧氷見市女良保育園",
"Jusho":"富山県氷見市中田28",
"Capacity":"－",
"la":"36.93796000000",
"ln":"137.02443400000"
},
"geometry":{
"type":"Point",
"coordinates":[
137.024434,
36.93796
]
}
},
{
"type":"Feature",
"properties":{
"Name":"旧氷見市布勢保育園",
"Jusho":"富山県氷見市深原637",
"Capacity":"－",
"la":"36.81708600000",
"ln":"136.95766800000"
},
"geometry":{
"type":"Point",
"coordinates":[
136.957668,
36.817086
]
}
},
{
"type":"Feature",
"properties":{
"Name":"熊無集会所",
"Jusho":"富山県氷見市熊無887-2",
"Capacity":"－",
"la":"36.87877490920",
"ln":"136.89763966900"
},
"geometry":{
"type":"Point",
"coordinates":[
136.897639669,
36.8787749092
]
}
},
{
"type":"Feature",
"properties":{
"Name":"熊野社前広場",
"Jusho":"富山県氷見市三尾21",
"Capacity":"－",
"la":"36.85586285110",
"ln":"136.87263636700"
},
"geometry":{
"type":"Point",
"coordinates":[
136.872636367,
36.8558628511
]
}
},
{
"type":"Feature",
"properties":{
"Name":"桑院神社",
"Jusho":"富山県氷見市桑院1153",
"Capacity":"－",
"la":"36.81839633750",
"ln":"136.89222055300"
},
"geometry":{
"type":"Point",
"coordinates":[
136.892220553,
36.8183963375
]
}
},
{
"type":"Feature",
"properties":{
"Name":"懸札会館",
"Jusho":"富山県氷見市懸札593",
"Capacity":"－",
"la":"36.91516339850",
"ln":"136.90478462500"
},
"geometry":{
"type":"Point",
"coordinates":[
136.904784625,
36.9151633985
]
}
},
{
"type":"Feature",
"properties":{
"Name":"見内公民館",
"Jusho":"富山県氷見市見内371",
"Capacity":"－",
"la":"36.83234912570",
"ln":"136.88501914300"
},
"geometry":{
"type":"Point",
"coordinates":[
136.885019143,
36.8323491257
]
}
},
{
"type":"Feature",
"properties":{
"Name":"戸津宮公民館",
"Jusho":"富山県氷見市戸津宮500-2",
"Capacity":"－",
"la":"36.92745549890",
"ln":"136.99549364200"
},
"geometry":{
"type":"Point",
"coordinates":[
136.995493642,
36.9274554989
]
}
},
{
"type":"Feature",
"properties":{
"Name":"光照寺",
"Jusho":"富山県氷見市朝日本町4-13",
"Capacity":"－",
"la":"36.85470953220",
"ln":"136.98495953600"
},
"geometry":{
"type":"Point",
"coordinates":[
136.984959536,
36.8547095322
]
}
},
{
"type":"Feature",
"properties":{
"Name":"光禅寺",
"Jusho":"富山県氷見市丸の内1-35",
"Capacity":"－",
"la":"36.85774500000",
"ln":"136.98609800000"
},
"geometry":{
"type":"Point",
"coordinates":[
136.986098,
36.857745
]
}
},
{
"type":"Feature",
"properties":{
"Name":"光福寺",
"Jusho":"富山県氷見市薮田193",
"Capacity":"－",
"la":"36.89073746800",
"ln":"137.00047385700"
},
"geometry":{
"type":"Point",
"coordinates":[
137.000473857,
36.890737468
]
}
},
{
"type":"Feature",
"properties":{
"Name":"光明寺",
"Jusho":"富山県氷見市丸の内6-4",
"Capacity":"－",
"la":"36.85726024220",
"ln":"136.98501032700"
},
"geometry":{
"type":"Point",
"coordinates":[
136.985010327,
36.8572602422
]
}
},
{
"type":"Feature",
"properties":{
"Name":"光傅寺",
"Jusho":"富山県氷見市論田4510",
"Capacity":"－",
"la":"36.87584200000",
"ln":"136.88569600000"
},
"geometry":{
"type":"Point",
"coordinates":[
136.885696,
36.875842
]
}
},
{
"type":"Feature",
"properties":{
"Name":"広西寺",
"Jusho":"富山県氷見市仏生寺1569",
"Capacity":"－",
"la":"36.79343576250",
"ln":"136.91371047800"
},
"geometry":{
"type":"Point",
"coordinates":[
136.913710478,
36.7934357625
]
}
},
{
"type":"Feature",
"properties":{
"Name":"広専寺",
"Jusho":"富山県氷見市稲積2404",
"Capacity":"－",
"la":"36.87922448200",
"ln":"136.96878781800"
},
"geometry":{
"type":"Point",
"coordinates":[
136.968787818,
36.879224482
]
}
},
{
"type":"Feature",
"properties":{
"Name":"行願寺",
"Jusho":"富山県氷見市岩瀬1796",
"Capacity":"－",
"la":"36.82887397550",
"ln":"136.87563566600"
},
"geometry":{
"type":"Point",
"coordinates":[
136.875635666,
36.8288739755
]
}
},
{
"type":"Feature",
"properties":{
"Name":"細越集落総合センター",
"Jusho":"富山県氷見市仏生寺4020",
"Capacity":"－",
"la":"36.77846049060",
"ln":"136.91014684100"
},
"geometry":{
"type":"Point",
"coordinates":[
136.910146841,
36.7784604906
]
}
},
{
"type":"Feature",
"properties":{
"Name":"坂津公民館",
"Jusho":"富山県氷見市十二町402",
"Capacity":"－",
"la":"36.83990297520",
"ln":"136.95993454500"
},
"geometry":{
"type":"Point",
"coordinates":[
136.959934545,
36.8399029752
]
}
},
{
"type":"Feature",
"properties":{
"Name":"三尾公民館",
"Jusho":"富山県氷見市三尾664",
"Capacity":"－",
"la":"36.85677801760",
"ln":"136.87239923200"
},
"geometry":{
"type":"Point",
"coordinates":[
136.872399232,
36.8567780176
]
}
},
{
"type":"Feature",
"properties":{
"Name":"姿集落センター",
"Jusho":"富山県氷見市姿89",
"Capacity":"－",
"la":"36.93102040830",
"ln":"137.02580245700"
},
"geometry":{
"type":"Point",
"coordinates":[
137.025802457,
36.9310204083
]
}
},
{
"type":"Feature",
"properties":{
"Name":"指崎老人憩の家",
"Jusho":"富山県氷見市指崎288-1",
"Capacity":"－",
"la":"36.88942477390",
"ln":"136.97455371000"
},
"geometry":{
"type":"Point",
"coordinates":[
136.97455371,
36.8894247739
]
}
},
{
"type":"Feature",
"properties":{
"Name":"寺尾老人憩の家",
"Jusho":"富山県氷見市寺尾514-2",
"Capacity":"－",
"la":"36.89987680000",
"ln":"136.89739089100"
},
"geometry":{
"type":"Point",
"coordinates":[
136.897390891,
36.8998768
]
}
},
{
"type":"Feature",
"properties":{
"Name":"慈光寺",
"Jusho":"富山県氷見市大境定籍",
"Capacity":"－",
"la":"36.92264409110",
"ln":"137.02790558800"
},
"geometry":{
"type":"Point",
"coordinates":[
137.027905588,
36.9226440911
]
}
},
{
"type":"Feature",
"properties":{
"Name":"七分一公民館",
"Jusho":"富山県氷見市七分一318",
"Capacity":"－",
"la":"36.86619341610",
"ln":"136.95290150800"
},
"geometry":{
"type":"Point",
"coordinates":[
136.952901508,
36.8661934161
]
}
},
{
"type":"Feature",
"properties":{
"Name":"勝福寺",
"Jusho":"富山県氷見市上田1495",
"Capacity":"－",
"la":"36.85124124420",
"ln":"136.93272550700"
},
"geometry":{
"type":"Point",
"coordinates":[
136.932725507,
36.8512412442
]
}
},
{
"type":"Feature",
"properties":{
"Name":"小杉自治会館",
"Jusho":"富山県氷見市小杉",
"Capacity":"－",
"la":"36.89558804940",
"ln":"137.00683995800"
},
"geometry":{
"type":"Point",
"coordinates":[
137.006839958,
36.8955880494
]
}
},
{
"type":"Feature",
"properties":{
"Name":"小竹公民館",
"Jusho":"富山県氷見市小竹182-1",
"Capacity":"－",
"la":"36.79921827390",
"ln":"137.00308394200"
},
"geometry":{
"type":"Point",
"coordinates":[
137.003083942,
36.7992182739
]
}
},
{
"type":"Feature",
"properties":{
"Name":"床鍋会館",
"Jusho":"富山県氷見市床鍋314",
"Capacity":"－",
"la":"36.84614492360",
"ln":"136.87069388400"
},
"geometry":{
"type":"Point",
"coordinates":[
136.870693884,
36.8461449236
]
}
},
{
"type":"Feature",
"properties":{
"Name":"上久津呂公民館",
"Jusho":"富山県氷見市上久津呂1877",
"Capacity":"－",
"la":"36.82356284490",
"ln":"136.94746100000"
},
"geometry":{
"type":"Point",
"coordinates":[
136.947461,
36.8235628449
]
}
},
{
"type":"Feature",
"properties":{
"Name":"上戸津宮公民館",
"Jusho":"富山県氷見市戸津宮1861",
"Capacity":"－",
"la":"36.93625852890",
"ln":"136.98737095300"
},
"geometry":{
"type":"Point",
"coordinates":[
136.987370953,
36.9362585289
]
}
},
{
"type":"Feature",
"properties":{
"Name":"上庄保育園",
"Jusho":"富山県氷見市泉287",
"Capacity":"－",
"la":"36.86405100000",
"ln":"136.94591800000"
},
"geometry":{
"type":"Point",
"coordinates":[
136.945918,
36.864051
]
}
},
{
"type":"Feature",
"properties":{
"Name":"上泉公民館",
"Jusho":"富山県氷見市上泉587",
"Capacity":"－",
"la":"36.82067729270",
"ln":"136.99630912400"
},
"geometry":{
"type":"Point",
"coordinates":[
136.996309124,
36.8206772927
]
}
},
{
"type":"Feature",
"properties":{
"Name":"上田公民館",
"Jusho":"富山県氷見市上田50-6",
"Capacity":"－",
"la":"36.85861000000",
"ln":"136.93334071000"
},
"geometry":{
"type":"Point",
"coordinates":[
136.93334071,
36.85861
]
}
},
{
"type":"Feature",
"properties":{
"Name":"上田子公民館",
"Jusho":"富山県氷見市上田子210",
"Capacity":"－",
"la":"36.80826575070",
"ln":"136.99394366900"
},
"geometry":{
"type":"Point",
"coordinates":[
136.993943669,
36.8082657507
]
}
},
{
"type":"Feature",
"properties":{
"Name":"上日寺",
"Jusho":"富山県氷見市朝日本町16-8",
"Capacity":"－",
"la":"36.85321754880",
"ln":"136.98324042000"
},
"geometry":{
"type":"Point",
"coordinates":[
136.98324042,
36.8532175488
]
}
},
{
"type":"Feature",
"properties":{
"Name":"乗願寺",
"Jusho":"富山県氷見市間島4-1",
"Capacity":"－",
"la":"36.87591171470",
"ln":"136.98146843300"
},
"geometry":{
"type":"Point",
"coordinates":[
136.981468433,
36.8759117147
]
}
},
{
"type":"Feature",
"properties":{
"Name":"常願寺",
"Jusho":"富山県氷見市幸町24-49",
"Capacity":"－",
"la":"36.85906486860",
"ln":"136.98014307200"
},
"geometry":{
"type":"Point",
"coordinates":[
136.980143072,
36.8590648686
]
}
},
{
"type":"Feature",
"properties":{
"Name":"常尊寺",
"Jusho":"富山県氷見市宇波定籍",
"Capacity":"－",
"la":"36.91238523630",
"ln":"137.01613600900"
},
"geometry":{
"type":"Point",
"coordinates":[
137.016136009,
36.9123852363
]
}
},
{
"type":"Feature",
"properties":{
"Name":"常通寺",
"Jusho":"富山県氷見市北大町20-62",
"Capacity":"－",
"la":"36.86606088460",
"ln":"136.98346868100"
},
"geometry":{
"type":"Point",
"coordinates":[
136.983468681,
36.8660608846
]
}
},
{
"type":"Feature",
"properties":{
"Name":"常念寺",
"Jusho":"富山県氷見市窪1408",
"Capacity":"－",
"la":"36.84369197910",
"ln":"136.98826383400"
},
"geometry":{
"type":"Point",
"coordinates":[
136.988263834,
36.8436919791
]
}
},
{
"type":"Feature",
"properties":{
"Name":"浄光寺",
"Jusho":"富山県氷見市中波427-1",
"Capacity":"－",
"la":"36.95268498120",
"ln":"137.04112181200"
},
"geometry":{
"type":"Point",
"coordinates":[
137.041121812,
36.9526849812
]
}
},
{
"type":"Feature",
"properties":{
"Name":"浄専寺",
"Jusho":"富山県氷見市鞍川244",
"Capacity":"－",
"la":"36.85804894820",
"ln":"136.97165197100"
},
"geometry":{
"type":"Point",
"coordinates":[
136.971651971,
36.8580489482
]
}
},
{
"type":"Feature",
"properties":{
"Name":"浄善寺",
"Jusho":"富山県氷見市中村1593",
"Capacity":"－",
"la":"36.86563398850",
"ln":"136.93101950700"
},
"geometry":{
"type":"Point",
"coordinates":[
136.931019507,
36.8656339885
]
}
},
{
"type":"Feature",
"properties":{
"Name":"浄徳寺",
"Jusho":"富山県氷見市北大町11-45",
"Capacity":"－",
"la":"36.86405423480",
"ln":"136.98415498200"
},
"geometry":{
"type":"Point",
"coordinates":[
136.984154982,
36.8640542348
]
}
},
{
"type":"Feature",
"properties":{
"Name":"新保営農研修会館",
"Jusho":"富山県氷見市新保105",
"Capacity":"－",
"la":"36.86092299710",
"ln":"136.91539941900"
},
"geometry":{
"type":"Point",
"coordinates":[
136.915399419,
36.8609229971
]
}
},
{
"type":"Feature",
"properties":{
"Name":"森寺公民館",
"Jusho":"富山県氷見市森寺183",
"Capacity":"－",
"la":"36.89803100000",
"ln":"136.96750900000"
},
"geometry":{
"type":"Point",
"coordinates":[
136.967509,
36.898031
]
}
},
{
"type":"Feature",
"properties":{
"Name":"真常寺",
"Jusho":"富山県氷見市泊1725",
"Capacity":"－",
"la":"36.89979748280",
"ln":"137.01001717400"
},
"geometry":{
"type":"Point",
"coordinates":[
137.010017174,
36.8997974828
]
}
},
{
"type":"Feature",
"properties":{
"Name":"真福寺",
"Jusho":"富山県氷見市柳田2763",
"Capacity":"－",
"la":"36.82961418960",
"ln":"137.00050247200"
},
"geometry":{
"type":"Point",
"coordinates":[
137.000502472,
36.8296141896
]
}
},
{
"type":"Feature",
"properties":{
"Name":"神代公民館",
"Jusho":"富山県氷見市神代2707-1",
"Capacity":"－",
"la":"36.80619274800",
"ln":"136.96612894900"
},
"geometry":{
"type":"Point",
"coordinates":[
136.966128949,
36.806192748
]
}
},
{
"type":"Feature",
"properties":{
"Name":"神明社",
"Jusho":"富山県氷見市泊1555",
"Capacity":"－",
"la":"36.90386224260",
"ln":"137.01357947800"
},
"geometry":{
"type":"Point",
"coordinates":[
137.013579478,
36.9038622426
]
}
},
{
"type":"Feature",
"properties":{
"Name":"針木公民館",
"Jusho":"富山県氷見市針木27",
"Capacity":"－",
"la":"36.91647927250",
"ln":"136.95260466000"
},
"geometry":{
"type":"Point",
"coordinates":[
136.95260466,
36.9164792725
]
}
},
{
"type":"Feature",
"properties":{
"Name":"聖万寺",
"Jusho":"富山県氷見市宇波4804",
"Capacity":"－",
"la":"36.91206000000",
"ln":"137.01572733400"
},
"geometry":{
"type":"Point",
"coordinates":[
137.015727334,
36.91206
]
}
},
{
"type":"Feature",
"properties":{
"Name":"西光寺",
"Jusho":"富山県氷見市伊勢大町1-2-7",
"Capacity":"－",
"la":"36.84916900000",
"ln":"136.98687300000"
},
"geometry":{
"type":"Point",
"coordinates":[
136.986873,
36.849169
]
}
},
{
"type":"Feature",
"properties":{
"Name":"西光寺",
"Jusho":"富山県氷見市窪1458",
"Capacity":"－",
"la":"36.84461059290",
"ln":"136.98821788400"
},
"geometry":{
"type":"Point",
"coordinates":[
136.988217884,
36.8446105929
]
}
},
{
"type":"Feature",
"properties":{
"Name":"西念寺",
"Jusho":"富山県氷見市赤毛1010",
"Capacity":"－",
"la":"36.79687490250",
"ln":"136.88690162300"
},
"geometry":{
"type":"Point",
"coordinates":[
136.886901623,
36.7968749025
]
}
},
{
"type":"Feature",
"properties":{
"Name":"西念寺",
"Jusho":"富山県氷見市南大町4-18",
"Capacity":"－",
"la":"36.85307560200",
"ln":"136.98846592800"
},
"geometry":{
"type":"Point",
"coordinates":[
136.988465928,
36.853075602
]
}
},
{
"type":"Feature",
"properties":{
"Name":"西法寺",
"Jusho":"富山県氷見市加納1401",
"Capacity":"－",
"la":"36.86555787680",
"ln":"136.97002242100"
},
"geometry":{
"type":"Point",
"coordinates":[
136.970022421,
36.8655578768
]
}
},
{
"type":"Feature",
"properties":{
"Name":"西朴木公民館",
"Jusho":"富山県氷見市西朴木77",
"Capacity":"－",
"la":"36.83836276580",
"ln":"136.95502545000"
},
"geometry":{
"type":"Point",
"coordinates":[
136.95502545,
36.8383627658
]
}
},
{
"type":"Feature",
"properties":{
"Name":"赤毛コミュニティセンター",
"Jusho":"富山県氷見市赤毛12-2",
"Capacity":"－",
"la":"36.79919367050",
"ln":"136.87320574500"
},
"geometry":{
"type":"Point",
"coordinates":[
136.873205745,
36.7991936705
]
}
},
{
"type":"Feature",
"properties":{
"Name":"千手寺",
"Jusho":"富山県氷見市幸町13-4",
"Capacity":"－",
"la":"36.85523945500",
"ln":"136.98414971000"
},
"geometry":{
"type":"Point",
"coordinates":[
136.98414971,
36.855239455
]
}
},
{
"type":"Feature",
"properties":{
"Name":"専長寺",
"Jusho":"富山県氷見市鞍骨1157",
"Capacity":"－",
"la":"36.80347872690",
"ln":"136.93025301400"
},
"geometry":{
"type":"Point",
"coordinates":[
136.930253014,
36.8034787269
]
}
},
{
"type":"Feature",
"properties":{
"Name":"専徳寺",
"Jusho":"富山県氷見市熊無527",
"Capacity":"－",
"la":"36.87667569460",
"ln":"136.89998844100"
},
"geometry":{
"type":"Point",
"coordinates":[
136.899988441,
36.8766756946
]
}
},
{
"type":"Feature",
"properties":{
"Name":"川尻公民館",
"Jusho":"富山県氷見市川尻57",
"Capacity":"－",
"la":"36.82935400000",
"ln":"136.96244800000"
},
"geometry":{
"type":"Point",
"coordinates":[
136.962448,
36.829354
]
}
},
{
"type":"Feature",
"properties":{
"Name":"泉の杜公民館",
"Jusho":"富山県氷見市上泉64-11",
"Capacity":"－",
"la":"36.82161068190",
"ln":"136.99846252900"
},
"geometry":{
"type":"Point",
"coordinates":[
136.998462529,
36.8216106819
]
}
},
{
"type":"Feature",
"properties":{
"Name":"善照寺",
"Jusho":"富山県氷見市窪944",
"Capacity":"－",
"la":"36.84415505600",
"ln":"136.98523797900"
},
"geometry":{
"type":"Point",
"coordinates":[
136.985237979,
36.844155056
]
}
},
{
"type":"Feature",
"properties":{
"Name":"早借公民館",
"Jusho":"富山県氷見市早借419",
"Capacity":"－",
"la":"36.84615806080",
"ln":"136.91574911600"
},
"geometry":{
"type":"Point",
"coordinates":[
136.915749116,
36.8461580608
]
}
},
{
"type":"Feature",
"properties":{
"Name":"大浦公民館",
"Jusho":"富山県氷見市大浦1-1",
"Capacity":"－",
"la":"36.82684759980",
"ln":"136.97621776800"
},
"geometry":{
"type":"Point",
"coordinates":[
136.976217768,
36.8268475998
]
}
},
{
"type":"Feature",
"properties":{
"Name":"大栄寺",
"Jusho":"富山県氷見市小境3",
"Capacity":"－",
"la":"36.91512287080",
"ln":"137.02479560900"
},
"geometry":{
"type":"Point",
"coordinates":[
137.024795609,
36.9151228708
]
}
},
{
"type":"Feature",
"properties":{
"Name":"大野公民館",
"Jusho":"富山県氷見市大野840",
"Capacity":"－",
"la":"36.86402307340",
"ln":"136.95247385500"
},
"geometry":{
"type":"Point",
"coordinates":[
136.952473855,
36.8640230734
]
}
},
{
"type":"Feature",
"properties":{
"Name":"棚懸老人憩の家",
"Jusho":"富山県氷見市棚懸911",
"Capacity":"－",
"la":"36.81163900000",
"ln":"136.87048400000"
},
"geometry":{
"type":"Point",
"coordinates":[
136.870484,
36.811639
]
}
},
{
"type":"Feature",
"properties":{
"Name":"中村公民館",
"Jusho":"富山県氷見市中村1640",
"Capacity":"－",
"la":"36.86486200000",
"ln":"136.93162159400"
},
"geometry":{
"type":"Point",
"coordinates":[
136.931621594,
36.864862
]
}
},
{
"type":"Feature",
"properties":{
"Name":"中谷内公民館",
"Jusho":"富山県氷見市中谷内272-1",
"Capacity":"－",
"la":"36.83479382020",
"ln":"136.94631410100"
},
"geometry":{
"type":"Point",
"coordinates":[
136.946314101,
36.8347938202
]
}
},
{
"type":"Feature",
"properties":{
"Name":"中田浦公民館",
"Jusho":"富山県氷見市角間1095",
"Capacity":"－",
"la":"36.93347562080",
"ln":"136.96435179200"
},
"geometry":{
"type":"Point",
"coordinates":[
136.964351792,
36.9334756208
]
}
},
{
"type":"Feature",
"properties":{
"Name":"中尾転作研修センター",
"Jusho":"富山県氷見市中尾1",
"Capacity":"－",
"la":"36.85338607660",
"ln":"136.95071582600"
},
"geometry":{
"type":"Point",
"coordinates":[
136.950715826,
36.8533860766
]
}
},
{
"type":"Feature",
"properties":{
"Name":"長光寺",
"Jusho":"富山県氷見市大野2290",
"Capacity":"－",
"la":"36.85758533490",
"ln":"136.95026478200"
},
"geometry":{
"type":"Point",
"coordinates":[
136.950264782,
36.8575853349
]
}
},
{
"type":"Feature",
"properties":{
"Name":"長福寺",
"Jusho":"富山県氷見市姿961",
"Capacity":"－",
"la":"36.93391612920",
"ln":"137.02622040600"
},
"geometry":{
"type":"Point",
"coordinates":[
137.026220406,
36.9339161292
]
}
},
{
"type":"Feature",
"properties":{
"Name":"長林寺",
"Jusho":"富山県氷見市上田1691",
"Capacity":"－",
"la":"36.85480663590",
"ln":"136.93259266600"
},
"geometry":{
"type":"Point",
"coordinates":[
136.932592666,
36.8548066359
]
}
},
{
"type":"Feature",
"properties":{
"Name":"島沖崎公民館",
"Jusho":"富山県氷見市十二町1027-6",
"Capacity":"－",
"la":"36.83985922270",
"ln":"136.96872487000"
},
"geometry":{
"type":"Point",
"coordinates":[
136.96872487,
36.8398592227
]
}
},
{
"type":"Feature",
"properties":{
"Name":"島尾学童保育館",
"Jusho":"富山県氷見市島尾1417",
"Capacity":"－",
"la":"36.82866899910",
"ln":"137.00849500000"
},
"geometry":{
"type":"Point",
"coordinates":[
137.008495,
36.8286689991
]
}
},
{
"type":"Feature",
"properties":{
"Name":"島尾自治公民館",
"Jusho":"富山県氷見市島尾475-1",
"Capacity":"－",
"la":"36.82514787270",
"ln":"137.00884107200"
},
"geometry":{
"type":"Point",
"coordinates":[
137.008841072,
36.8251478727
]
}
},
{
"type":"Feature",
"properties":{
"Name":"南大町保育園",
"Jusho":"富山県氷見市南大町10-8",
"Capacity":"－",
"la":"36.85197100000",
"ln":"136.98941300000"
},
"geometry":{
"type":"Point",
"coordinates":[
136.989413,
36.851971
]
}
},
{
"type":"Feature",
"properties":{
"Name":"日吉社",
"Jusho":"富山県氷見市葛葉",
"Capacity":"－",
"la":"36.83942025350",
"ln":"136.87301611200"
},
"geometry":{
"type":"Point",
"coordinates":[
136.873016112,
36.8394202535
]
}
},
{
"type":"Feature",
"properties":{
"Name":"日吉神社",
"Jusho":"富山県氷見市南大町7-2",
"Capacity":"－",
"la":"36.85146673700",
"ln":"136.98863388400"
},
"geometry":{
"type":"Point",
"coordinates":[
136.988633884,
36.851466737
]
}
},
{
"type":"Feature",
"properties":{
"Name":"日宮神社",
"Jusho":"富山県氷見市中央町2-47",
"Capacity":"－",
"la":"36.85839280590",
"ln":"136.98641633400"
},
"geometry":{
"type":"Point",
"coordinates":[
136.986416334,
36.8583928059
]
}
},
{
"type":"Feature",
"properties":{
"Name":"日名田地区管理棟",
"Jusho":"富山県氷見市日名田1178",
"Capacity":"－",
"la":"36.85097539530",
"ln":"136.89416692500"
},
"geometry":{
"type":"Point",
"coordinates":[
136.894166925,
36.8509753953
]
}
},
{
"type":"Feature",
"properties":{
"Name":"白川研修センター",
"Jusho":"富山県氷見市白川121",
"Capacity":"－",
"la":"36.92140281410",
"ln":"136.99805048700"
},
"geometry":{
"type":"Point",
"coordinates":[
136.998050487,
36.9214028141
]
}
},
{
"type":"Feature",
"properties":{
"Name":"八代自治会館",
"Jusho":"富山県氷見市礒辺14-1",
"Capacity":"－",
"la":"36.91897799910",
"ln":"136.94928900000"
},
"geometry":{
"type":"Point",
"coordinates":[
136.949289,
36.9189779991
]
}
},
{
"type":"Feature",
"properties":{
"Name":"氷見駅前広場",
"Jusho":"富山県氷見市伊勢大町1-12-18",
"Capacity":"－",
"la":"36.84940039310",
"ln":"136.99020558300"
},
"geometry":{
"type":"Point",
"coordinates":[
136.990205583,
36.8494003931
]
}
},
{
"type":"Feature",
"properties":{
"Name":"氷見温泉郷くつろぎの宿うみあかり",
"Jusho":"富山県氷見市宇波10-1",
"Capacity":"－",
"la":"36.90605796810",
"ln":"137.01408125600"
},
"geometry":{
"type":"Point",
"coordinates":[
137.014081256,
36.9060579681
]
}
},
{
"type":"Feature",
"properties":{
"Name":"氷見市Ｂ＆Ｇ海洋センター",
"Jusho":"富山県氷見市大浦新町11",
"Capacity":"－",
"la":"36.82968134130",
"ln":"136.97322529000"
},
"geometry":{
"type":"Point",
"coordinates":[
136.97322529,
36.8296813413
]
}
},
{
"type":"Feature",
"properties":{
"Name":"氷見市いきいき元気館",
"Jusho":"富山県氷見市中央町12-21",
"Capacity":"－",
"la":"36.85962999910",
"ln":"136.98446000000"
},
"geometry":{
"type":"Point",
"coordinates":[
136.98446,
36.8596299991
]
}
},
{
"type":"Feature",
"properties":{
"Name":"氷見市ふれあいスポーツセンター",
"Jusho":"富山県氷見市鞍川43-1",
"Capacity":"－",
"la":"36.85272000000",
"ln":"136.97408200000"
},
"geometry":{
"type":"Point",
"coordinates":[
136.974082,
36.85272
]
}
},
{
"type":"Feature",
"properties":{
"Name":"氷見市阿尾公民館",
"Jusho":"富山県氷見市阿尾1015",
"Capacity":"－",
"la":"36.88456699910",
"ln":"136.98870400000"
},
"geometry":{
"type":"Point",
"coordinates":[
136.988704,
36.8845669991
]
}
},
{
"type":"Feature",
"properties":{
"Name":"氷見市阿尾保育園",
"Jusho":"富山県氷見市阿尾980",
"Capacity":"－",
"la":"36.88518800000",
"ln":"136.98771800000"
},
"geometry":{
"type":"Point",
"coordinates":[
136.987718,
36.885188
]
}
},
{
"type":"Feature",
"properties":{
"Name":"氷見市宇波公民館",
"Jusho":"富山県氷見市宇波401",
"Capacity":"－",
"la":"36.91291300000",
"ln":"137.01397300000"
},
"geometry":{
"type":"Point",
"coordinates":[
137.013973,
36.912913
]
}
},
{
"type":"Feature",
"properties":{
"Name":"氷見市宇波保育園",
"Jusho":"富山県氷見市宇波3153",
"Capacity":"－",
"la":"36.91374000000",
"ln":"137.01435300000"
},
"geometry":{
"type":"Point",
"coordinates":[
137.014353,
36.91374
]
}
},
{
"type":"Feature",
"properties":{
"Name":"氷見市栄町保育園",
"Jusho":"富山県氷見市加納97-1",
"Capacity":"－",
"la":"36.87135600000",
"ln":"136.97833000000"
},
"geometry":{
"type":"Point",
"coordinates":[
136.97833,
36.871356
]
}
},
{
"type":"Feature",
"properties":{
"Name":"氷見市学校給食センター",
"Jusho":"富山県氷見市七分一487",
"Capacity":"－",
"la":"36.86458000000",
"ln":"136.96077500000"
},
"geometry":{
"type":"Point",
"coordinates":[
136.960775,
36.86458
]
}
},
{
"type":"Feature",
"properties":{
"Name":"氷見市久目農村研修センター",
"Jusho":"富山県氷見市触坂82",
"Capacity":"－",
"la":"36.82906314590",
"ln":"136.89411422900"
},
"geometry":{
"type":"Point",
"coordinates":[
136.894114229,
36.8290631459
]
}
},
{
"type":"Feature",
"properties":{
"Name":"氷見市教育文化センター",
"Jusho":"富山県氷見市本町4-9",
"Capacity":"－",
"la":"36.85300700000",
"ln":"136.98696400000"
},
"geometry":{
"type":"Point",
"coordinates":[
136.986964,
36.853007
]
}
},
{
"type":"Feature",
"properties":{
"Name":"氷見市窪公民館",
"Jusho":"富山県氷見市窪1245-3",
"Capacity":"－",
"la":"36.83952299910",
"ln":"136.99130200000"
},
"geometry":{
"type":"Point",
"coordinates":[
136.991302,
36.8395229991
]
}
},
{
"type":"Feature",
"properties":{
"Name":"氷見市研修センター久目",
"Jusho":"富山県氷見市坪池8",
"Capacity":"－",
"la":"36.80490754760",
"ln":"136.86504805800"
},
"geometry":{
"type":"Point",
"coordinates":[
136.865048058,
36.8049075476
]
}
},
{
"type":"Feature",
"properties":{
"Name":"氷見市獅子舞ミュージアム（上庄公民館）",
"Jusho":"富山県氷見市泉760",
"Capacity":"－",
"la":"36.86650200000",
"ln":"136.94157500000"
},
"geometry":{
"type":"Point",
"coordinates":[
136.941575,
36.866502
]
}
},
{
"type":"Feature",
"properties":{
"Name":"氷見市若葉保育園",
"Jusho":"富山県氷見市北大町15-19",
"Capacity":"－",
"la":"36.86510700000",
"ln":"136.98174700000"
},
"geometry":{
"type":"Point",
"coordinates":[
136.981747,
36.865107
]
}
},
{
"type":"Feature",
"properties":{
"Name":"氷見市十三公民館",
"Jusho":"富山県氷見市飯久保168",
"Capacity":"－",
"la":"36.80865200000",
"ln":"136.95741800000"
},
"geometry":{
"type":"Point",
"coordinates":[
136.957418,
36.808652
]
}
},
{
"type":"Feature",
"properties":{
"Name":"氷見市十三谷農業研修館",
"Jusho":"富山県氷見市十二町177-1",
"Capacity":"－",
"la":"36.84101700000",
"ln":"136.97209940600"
},
"geometry":{
"type":"Point",
"coordinates":[
136.972099406,
36.841017
]
}
},
{
"type":"Feature",
"properties":{
"Name":"氷見市十二町保育園",
"Jusho":"富山県氷見市万尾13-2",
"Capacity":"－",
"la":"36.83164000000",
"ln":"136.96180600000"
},
"geometry":{
"type":"Point",
"coordinates":[
136.961806,
36.83164
]
}
},
{
"type":"Feature",
"properties":{
"Name":"氷見市女良生活改善センター",
"Jusho":"富山県氷見市中田791",
"Capacity":"－",
"la":"36.94051300330",
"ln":"137.02515621800"
},
"geometry":{
"type":"Point",
"coordinates":[
137.025156218,
36.9405130033
]
}
},
{
"type":"Feature",
"properties":{
"Name":"氷見市上伊勢保育園",
"Jusho":"富山県氷見市伊勢大町2-1-24",
"Capacity":"－",
"la":"36.84755400000",
"ln":"136.98655200000"
},
"geometry":{
"type":"Point",
"coordinates":[
136.986552,
36.847554
]
}
},
{
"type":"Feature",
"properties":{
"Name":"氷見市西条地区集会場",
"Jusho":"富山県氷見市柳田1437",
"Capacity":"－",
"la":"36.82933525600",
"ln":"136.99645310200"
},
"geometry":{
"type":"Point",
"coordinates":[
136.996453102,
36.829335256
]
}
},
{
"type":"Feature",
"properties":{
"Name":"氷見市速川公民館",
"Jusho":"富山県氷見市小久米678",
"Capacity":"－",
"la":"36.84621399910",
"ln":"136.90213200000"
},
"geometry":{
"type":"Point",
"coordinates":[
136.902132,
36.8462139991
]
}
},
{
"type":"Feature",
"properties":{
"Name":"氷見市長坂農村交流センター",
"Jusho":"富山県氷見市長坂1532",
"Capacity":"－",
"la":"36.94093550170",
"ln":"136.99294736200"
},
"geometry":{
"type":"Point",
"coordinates":[
136.992947362,
36.9409355017
]
}
},
{
"type":"Feature",
"properties":{
"Name":"氷見市農業会館",
"Jusho":"富山県氷見市朝日丘2-32",
"Capacity":"－",
"la":"36.84949400000",
"ln":"136.98432101400"
},
"geometry":{
"type":"Point",
"coordinates":[
136.984321014,
36.849494
]
}
},
{
"type":"Feature",
"properties":{
"Name":"氷見市農業総合管理センター",
"Jusho":"富山県氷見市谷屋1632",
"Capacity":"－",
"la":"36.86547075800",
"ln":"136.92086678600"
},
"geometry":{
"type":"Point",
"coordinates":[
136.920866786,
36.865470758
]
}
},
{
"type":"Feature",
"properties":{
"Name":"氷見市民プール・トレーニングセンター",
"Jusho":"富山県氷見市大浦新町6-1",
"Capacity":"－",
"la":"36.83249660030",
"ln":"136.97770201500"
},
"geometry":{
"type":"Point",
"coordinates":[
136.977702015,
36.8324966003
]
}
},
{
"type":"Feature",
"properties":{
"Name":"氷見市民会館",
"Jusho":"富山県氷見市本町4-10",
"Capacity":"－",
"la":"36.85241730140",
"ln":"136.98683878200"
},
"geometry":{
"type":"Point",
"coordinates":[
136.986838782,
36.8524173014
]
}
},
{
"type":"Feature",
"properties":{
"Name":"氷見市民舞伝習館",
"Jusho":"富山県氷見市十二町399-1",
"Capacity":"－",
"la":"36.84560665320",
"ln":"136.98069666600"
},
"geometry":{
"type":"Point",
"coordinates":[
136.980696666,
36.8456066532
]
}
},
{
"type":"Feature",
"properties":{
"Name":"氷見市明和保育園",
"Jusho":"富山県氷見市谷屋3000",
"Capacity":"－",
"la":"36.86799400000",
"ln":"136.91600400000"
},
"geometry":{
"type":"Point",
"coordinates":[
136.916004,
36.867994
]
}
},
{
"type":"Feature",
"properties":{
"Name":"氷見市役所",
"Jusho":"富山県氷見市丸の内1-1",
"Capacity":"－",
"la":"36.85727500000",
"ln":"136.98641300000"
},
"geometry":{
"type":"Point",
"coordinates":[
136.986413,
36.857275
]
}
},
{
"type":"Feature",
"properties":{
"Name":"氷見市余川谷農業研修館",
"Jusho":"富山県氷見市間島1579",
"Capacity":"－",
"la":"36.87259580480",
"ln":"136.98224972300"
},
"geometry":{
"type":"Point",
"coordinates":[
136.982249723,
36.8725958048
]
}
},
{
"type":"Feature",
"properties":{
"Name":"氷見商工会館",
"Jusho":"富山県氷見市南大町10-1",
"Capacity":"－",
"la":"36.85193162230",
"ln":"136.98901652200"
},
"geometry":{
"type":"Point",
"coordinates":[
136.989016522,
36.8519316223
]
}
},
{
"type":"Feature",
"properties":{
"Name":"富山県立氷見高等学校",
"Jusho":"富山県氷見市幸町17-10",
"Capacity":"－",
"la":"36.85347000000",
"ln":"136.98005300000"
},
"geometry":{
"type":"Point",
"coordinates":[
136.980053,
36.85347
]
}
},
{
"type":"Feature",
"properties":{
"Name":"福善寺",
"Jusho":"富山県氷見市島尾1937",
"Capacity":"－",
"la":"36.82740177600",
"ln":"137.00966888400"
},
"geometry":{
"type":"Point",
"coordinates":[
137.009668884,
36.827401776
]
}
},
{
"type":"Feature",
"properties":{
"Name":"平沢公民館",
"Jusho":"富山県氷見市平沢1160",
"Capacity":"－",
"la":"36.95146591760",
"ln":"137.00055835100"
},
"geometry":{
"type":"Point",
"coordinates":[
137.000558351,
36.9514659176
]
}
},
{
"type":"Feature",
"properties":{
"Name":"宝光寺",
"Jusho":"富山県氷見市加納1385",
"Capacity":"－",
"la":"36.86561492300",
"ln":"136.96876094200"
},
"geometry":{
"type":"Point",
"coordinates":[
136.968760942,
36.865614923
]
}
},
{
"type":"Feature",
"properties":{
"Name":"宝徳寺",
"Jusho":"富山県氷見市比美町11-1",
"Capacity":"－",
"la":"36.85750407930",
"ln":"136.98813100000"
},
"geometry":{
"type":"Point",
"coordinates":[
136.988131,
36.8575040793
]
}
},
{
"type":"Feature",
"properties":{
"Name":"法順寺",
"Jusho":"富山県氷見市布施1926",
"Capacity":"－",
"la":"36.81997810960",
"ln":"136.95758623200"
},
"geometry":{
"type":"Point",
"coordinates":[
136.957586232,
36.8199781096
]
}
},
{
"type":"Feature",
"properties":{
"Name":"鳳谷院",
"Jusho":"富山県氷見市北大町15-35",
"Capacity":"－",
"la":"36.86414680600",
"ln":"136.98206197100"
},
"geometry":{
"type":"Point",
"coordinates":[
136.982061971,
36.864146806
]
}
},
{
"type":"Feature",
"properties":{
"Name":"北山主神社",
"Jusho":"富山県氷見市吉岡881",
"Capacity":"－",
"la":"36.95802477860",
"ln":"137.00205979700"
},
"geometry":{
"type":"Point",
"coordinates":[
137.002059797,
36.9580247786
]
}
},
{
"type":"Feature",
"properties":{
"Name":"北八代地区管理棟",
"Jusho":"富山県氷見市北八代1450",
"Capacity":"－",
"la":"36.89956418060",
"ln":"136.98548577300"
},
"geometry":{
"type":"Point",
"coordinates":[
136.985485773,
36.8995641806
]
}
},
{
"type":"Feature",
"properties":{
"Name":"堀田公民館",
"Jusho":"富山県氷見市堀田3556-1",
"Capacity":"－",
"la":"36.81436800000",
"ln":"136.97612400000"
},
"geometry":{
"type":"Point",
"coordinates":[
136.976124,
36.814368
]
}
},
{
"type":"Feature",
"properties":{
"Name":"明覚寺",
"Jusho":"富山県氷見市柳田2819",
"Capacity":"－",
"la":"36.83002779320",
"ln":"136.99861704300"
},
"geometry":{
"type":"Point",
"coordinates":[
136.998617043,
36.8300277932
]
}
},
{
"type":"Feature",
"properties":{
"Name":"明巌寺",
"Jusho":"富山県氷見市脇69",
"Capacity":"－",
"la":"36.95763246620",
"ln":"137.04680649200"
},
"geometry":{
"type":"Point",
"coordinates":[
137.046806492,
36.9576324662
]
}
},
{
"type":"Feature",
"properties":{
"Name":"明泉寺",
"Jusho":"富山県氷見市泉1705",
"Capacity":"－",
"la":"36.86105613020",
"ln":"136.94712081200"
},
"geometry":{
"type":"Point",
"coordinates":[
136.947120812,
36.8610561302
]
}
},
{
"type":"Feature",
"properties":{
"Name":"薮田コミュニティセンター",
"Jusho":"富山県氷見市薮田207",
"Capacity":"－",
"la":"36.88986000000",
"ln":"136.99999200000"
},
"geometry":{
"type":"Point",
"coordinates":[
136.999992,
36.88986
]
}
},
{
"type":"Feature",
"properties":{
"Name":"唯明寺",
"Jusho":"富山県氷見市鞍骨2126",
"Capacity":"－",
"la":"36.81620868010",
"ln":"136.90875820100"
},
"geometry":{
"type":"Point",
"coordinates":[
136.908758201,
36.8162086801
]
}
},
{
"type":"Feature",
"properties":{
"Name":"余川営農研修会館",
"Jusho":"富山県氷見市余川202",
"Capacity":"－",
"la":"36.88165896580",
"ln":"136.95558518800"
},