var o={
"type":"FeatureCollection",
"features":[
{
"type":"Feature",
"properties":{
"Name":"稲荷第二市民センター",
"Jusho":"茨城県水戸市",
"Capacity":"－",
"la":"36.34857000000",
"ln":"140.51843200000"
},
"geometry":{
"type":"Point",
"coordinates":[
140.518432,
36.34857
]
}
},
{
"type":"Feature",
"properties":{
"Name":"茨城大学",
"Jusho":"茨城県水戸市文京2－－",
"Capacity":"－",
"la":"36.40072100000",
"ln":"140.44362200000"
},
"geometry":{
"type":"Point",
"coordinates":[
140.443622,
36.400721
]
}
},
{
"type":"Feature",
"properties":{
"Name":"県立スポーツセンター",
"Jusho":"茨城県水戸市",
"Capacity":"－",
"la":"36.38074326300",
"ln":"140.44924722900"
},
"geometry":{
"type":"Point",
"coordinates":[
140.449247229,
36.380743263
]
}
},
{
"type":"Feature",
"properties":{
"Name":"茨城大学（体育館）",
"Jusho":"茨城県水戸市",
"Capacity":"－",
"la":"36.39997747300",
"ln":"140.44385360800"
},
"geometry":{
"type":"Point",
"coordinates":[
140.443853608,
36.399977473
]
}
},
{
"type":"Feature",
"properties":{
"Name":"三の丸市民センター",
"Jusho":"茨城県水戸市",
"Capacity":"－",
"la":"36.37464900000",
"ln":"140.47536300000"
},
"geometry":{
"type":"Point",
"coordinates":[
140.475363,
36.374649
]
}
},
{
"type":"Feature",
"properties":{
"Name":"水戸第三高等学校",
"Jusho":"茨城県水戸市三の丸2-7-27",
"Capacity":"－",
"la":"36.37347400000",
"ln":"140.48059200000"
},
"geometry":{
"type":"Point",
"coordinates":[
140.480592,
36.373474
]
}
},
{
"type":"Feature",
"properties":{
"Name":"老人福祉センター「あかね荘」",
"Jusho":"茨城県水戸市",
"Capacity":"－",
"la":"36.38844399910",
"ln":"140.43087300000"
},
"geometry":{
"type":"Point",
"coordinates":[
140.430873,
36.3884439991
]
}
},
{
"type":"Feature",
"properties":{
"Name":"愛宕神社",
"Jusho":"茨城県日立市",
"Capacity":"－",
"la":"36.68275200000",
"ln":"140.70430700000"
},
"geometry":{
"type":"Point",
"coordinates":[
140.704307,
36.682752
]
}
},
{
"type":"Feature",
"properties":{
"Name":"伊師町田園都市センター",
"Jusho":"茨城県日立市十王町伊師3586番地",
"Capacity":"－",
"la":"36.68424641930",
"ln":"140.70346045600"
},
"geometry":{
"type":"Point",
"coordinates":[
140.703460456,
36.6842464193
]
}
},
{
"type":"Feature",
"properties":{
"Name":"会瀬グランド",
"Jusho":"茨城県日立市",
"Capacity":"－",
"la":"36.58340600000",
"ln":"140.64726200000"
},
"geometry":{
"type":"Point",
"coordinates":[
140.647262,
36.583406
]
}
},
{
"type":"Feature",
"properties":{
"Name":"滑川市民広場",
"Jusho":"茨城県日立市滑川本町1丁目21番",
"Capacity":"－",
"la":"36.61565800000",
"ln":"140.66857600000"
},
"geometry":{
"type":"Point",
"coordinates":[
140.668576,
36.615658
]
}
},
{
"type":"Feature",
"properties":{
"Name":"久慈川日立南交流センター",
"Jusho":"茨城県日立市",
"Capacity":"－",
"la":"36.50821000000",
"ln":"140.58544100000"
},
"geometry":{
"type":"Point",
"coordinates":[
140.585441,
36.50821
]
}
},
{
"type":"Feature",
"properties":{
"Name":"宮田交流センター",
"Jusho":"茨城県日立市",
"Capacity":"－",
"la":"36.60512300000",
"ln":"140.65827700000"
},
"geometry":{
"type":"Point",
"coordinates":[
140.658277,
36.605123
]
}
},
{
"type":"Feature",
"properties":{
"Name":"公設地方卸売市場",
"Jusho":"茨城県日立市",
"Capacity":"－",
"la":"36.61840430880",
"ln":"140.67803046400"
},
"geometry":{
"type":"Point",
"coordinates":[
140.678030464,
36.6184043088
]
}
},
{
"type":"Feature",
"properties":{
"Name":"国分グランド",
"Jusho":"茨城県日立市",
"Capacity":"－",
"la":"36.56180300000",
"ln":"140.64021300000"
},
"geometry":{
"type":"Point",
"coordinates":[
140.640213,
36.561803
]
}
},
{
"type":"Feature",
"properties":{
"Name":"坂下市民広場",
"Jusho":"茨城県日立市大和田町1936番地",
"Capacity":"－",
"la":"36.50698114870",
"ln":"140.58416697800"
},
"geometry":{
"type":"Point",
"coordinates":[
140.584166978,
36.5069811487
]
}
},
{
"type":"Feature",
"properties":{
"Name":"十王スポーツ広場",
"Jusho":"茨城県日立市十王町友部1936－",
"Capacity":"－",
"la":"36.68078985230",
"ln":"140.67789542000"
},
"geometry":{
"type":"Point",
"coordinates":[
140.67789542,
36.6807898523
]
}
},
{
"type":"Feature",
"properties":{
"Name":"十王交流センター",
"Jusho":"茨城県日立市十王町友部129-2",
"Capacity":"－",
"la":"36.67194800000",
"ln":"140.68422700000"
},
"geometry":{
"type":"Point",
"coordinates":[
140.684227,
36.671948
]
}
},
{
"type":"Feature",
"properties":{
"Name":"十王総合健康福祉センター",
"Jusho":"茨城県日立市十王町友部2088－",
"Capacity":"－",
"la":"36.67983400000",
"ln":"140.67873300000"
},
"geometry":{
"type":"Point",
"coordinates":[
140.678733,
36.679834
]
}
},
{
"type":"Feature",
"properties":{
"Name":"消防拠点施設防災広場",
"Jusho":"茨城県日立市神峰町2-4－",
"Capacity":"－",
"la":"36.60102658150",
"ln":"140.65395832900"
},
"geometry":{
"type":"Point",
"coordinates":[
140.653958329,
36.6010265815
]
}
},
{
"type":"Feature",
"properties":{
"Name":"水木交流センター",
"Jusho":"茨城県日立市",
"Capacity":"－",
"la":"36.51809600000",
"ln":"140.62601100000"
},
"geometry":{
"type":"Point",
"coordinates":[
140.626011,
36.518096
]
}
},
{
"type":"Feature",
"properties":{
"Name":"折笠スポーツ広場",
"Jusho":"茨城県日立市",
"Capacity":"－",
"la":"36.65285512540",
"ln":"140.68254969600"
},
"geometry":{
"type":"Point",
"coordinates":[
140.682549696,
36.6528551254
]
}
},
{
"type":"Feature",
"properties":{
"Name":"多賀高等学校",
"Jusho":"茨城県日立市鮎川町3-9－",
"Capacity":"－",
"la":"36.56762300000",
"ln":"140.64168200000"
},
"geometry":{
"type":"Point",
"coordinates":[
140.641682,
36.567623
]
}
},
{
"type":"Feature",
"properties":{
"Name":"大みかゴルフ場",
"Jusho":"茨城県日立市",
"Capacity":"－",
"la":"36.51295975700",
"ln":"140.61414176800"
},
"geometry":{
"type":"Point",
"coordinates":[
140.614141768,
36.512959757
]
}
},
{
"type":"Feature",
"properties":{
"Name":"大沼交流センター",
"Jusho":"茨城県日立市",
"Capacity":"－",
"la":"36.53829900000",
"ln":"140.62599400000"
},
"geometry":{
"type":"Point",
"coordinates":[
140.625994,
36.538299
]
}
},
{
"type":"Feature",
"properties":{
"Name":"仲町交流センター",
"Jusho":"茨城県日立市",
"Capacity":"－",
"la":"36.60785599910",
"ln":"140.65253500000"
},
"geometry":{
"type":"Point",
"coordinates":[
140.652535,
36.6078559991
]
}
},
{
"type":"Feature",
"properties":{
"Name":"津神社",
"Jusho":"茨城県日立市",
"Capacity":"－",
"la":"36.67104900000",
"ln":"140.70889800000"
},
"geometry":{
"type":"Point",
"coordinates":[
140.708898,
36.671049
]
}
},
{
"type":"Feature",
"properties":{
"Name":"田尻交流センター",
"Jusho":"茨城県日立市",
"Capacity":"－",
"la":"36.63063399910",
"ln":"140.67289700000"
},
"geometry":{
"type":"Point",
"coordinates":[
140.672897,
36.6306339991
]
}
},
{
"type":"Feature",
"properties":{
"Name":"日高交流センター",
"Jusho":"茨城県日立市",
"Capacity":"－",
"la":"36.63922500000",
"ln":"140.67812400000"
},
"geometry":{
"type":"Point",
"coordinates":[
140.678124,
36.639225
]
}
},
{
"type":"Feature",
"properties":{
"Name":"日立シビックセンター",
"Jusho":"茨城県日立市",
"Capacity":"－",
"la":"36.59025199910",
"ln":"140.65952500000"
},
"geometry":{
"type":"Point",
"coordinates":[
140.659525,
36.5902519991
]
}
},
{
"type":"Feature",
"properties":{
"Name":"日立商業高等学校",
"Jusho":"茨城県日立市久慈町6-20－",
"Capacity":"－",
"la":"36.50413000000",
"ln":"140.61107700000"
},
"geometry":{
"type":"Point",
"coordinates":[
140.611077,
36.50413
]
}
},
{
"type":"Feature",
"properties":{
"Name":"日立第一高等学校",
"Jusho":"茨城県日立市若葉町3－5－",
"Capacity":"－",
"la":"36.59950900000",
"ln":"140.65862400000"
},
"geometry":{
"type":"Point",
"coordinates":[
140.658624,
36.599509
]
}
},
{
"type":"Feature",
"properties":{
"Name":"日立第二高等学校",
"Jusho":"茨城県日立市鹿島町3-2－",
"Capacity":"－",
"la":"36.58981500000",
"ln":"140.64745900000"
},
"geometry":{
"type":"Point",
"coordinates":[
140.647459,
36.589815
]
}
},
{
"type":"Feature",
"properties":{
"Name":"日立電線（株）日高工場グランド",
"Jusho":"茨城県日立市",
"Capacity":"－",
"la":"36.63152000000",
"ln":"140.68379100000"
},
"geometry":{
"type":"Point",
"coordinates":[
140.683791,
36.63152
]
}
},
{
"type":"Feature",
"properties":{
"Name":"日立養護学校",
"Jusho":"茨城県日立市鮎川町3－1-2",
"Capacity":"－",
"la":"36.56762300000",
"ln":"140.63896000000"
},
"geometry":{
"type":"Point",
"coordinates":[
140.63896,
36.567623
]
}
},
{
"type":"Feature",
"properties":{
"Name":"豊浦交流センター",
"Jusho":"茨城県日立市川尻町1-40－",
"Capacity":"－",
"la":"36.65268900000",
"ln":"140.69725300000"
},
"geometry":{
"type":"Point",
"coordinates":[
140.697253,
36.652689
]
}
},
{
"type":"Feature",
"properties":{
"Name":"油縄子交流センター",
"Jusho":"茨城県日立市",
"Capacity":"－",
"la":"36.56629399910",
"ln":"140.63796100000"
},
"geometry":{
"type":"Point",
"coordinates":[
140.637961,
36.5662939991
]
}
},
{
"type":"Feature",
"properties":{
"Name":"つくば国際大学高等学校土浦校舎",
"Jusho":"茨城県土浦市真鍋1-3-5",
"Capacity":"－",
"la":"36.08875000000",
"ln":"140.20210300000"
},
"geometry":{
"type":"Point",
"coordinates":[
140.202103,
36.08875
]
}
},
{
"type":"Feature",
"properties":{
"Name":"ワークヒル土浦",
"Jusho":"茨城県土浦市木田余東台四丁目1－",
"Capacity":"－",
"la":"36.10327200000",
"ln":"140.22055300000"
},
"geometry":{
"type":"Point",
"coordinates":[
140.220553,
36.103272
]
}
},
{
"type":"Feature",
"properties":{
"Name":"茨城県霞ヶ浦環境科学センター",
"Jusho":"茨城県土浦市沖宿町1853",
"Capacity":"－",
"la":"36.07563400000",
"ln":"140.26645600000"
},
"geometry":{
"type":"Point",
"coordinates":[
140.266456,
36.075634
]
}
},
{
"type":"Feature",
"properties":{
"Name":"湖畔荘",
"Jusho":"茨城県土浦市手野町1892－",
"Capacity":"－",
"la":"36.09274000000",
"ln":"140.24187000000"
},
"geometry":{
"type":"Point",
"coordinates":[
140.24187,
36.09274
]
}
},
{
"type":"Feature",
"properties":{
"Name":"四中地区公民館",
"Jusho":"茨城県土浦市国分町11-5",
"Capacity":"－",
"la":"36.06732100000",
"ln":"140.19027100000"
},
"geometry":{
"type":"Point",
"coordinates":[
140.190271,
36.067321
]
}
},
{
"type":"Feature",
"properties":{
"Name":"市民運動広場",
"Jusho":"茨城県土浦市佐野子260",
"Capacity":"－",
"la":"36.08541849830",
"ln":"140.17880845900"
},
"geometry":{
"type":"Point",
"coordinates":[
140.178808459,
36.0854184983
]
}
},
{
"type":"Feature",
"properties":{
"Name":"上大津公民館",
"Jusho":"茨城県土浦市手野町3532",
"Capacity":"－",
"la":"36.09850900000",
"ln":"140.24333600000"
},
"geometry":{
"type":"Point",
"coordinates":[
140.243336,
36.098509
]
}
},
{
"type":"Feature",
"properties":{
"Name":"常総学院高等学校",
"Jusho":"茨城県土浦市中村西根1010",
"Capacity":"－",
"la":"36.05708700000",
"ln":"140.16343900000"
},
"geometry":{
"type":"Point",
"coordinates":[
140.163439,
36.057087
]
}
},
{
"type":"Feature",
"properties":{
"Name":"新治地区公民館",
"Jusho":"茨城県土浦市藤沢990",
"Capacity":"－",
"la":"36.13312800000",
"ln":"140.15800100000"
},
"geometry":{
"type":"Point",
"coordinates":[
140.158001,
36.133128
]
}
},
{
"type":"Feature",
"properties":{
"Name":"都和公民館",
"Jusho":"茨城県土浦市並木五丁目4824－",
"Capacity":"－",
"la":"36.11575600000",
"ln":"140.19158200000"
},
"geometry":{
"type":"Point",
"coordinates":[
140.191582,
36.115756
]
}
},
{
"type":"Feature",
"properties":{
"Name":"土浦湖北高等学校",
"Jusho":"茨城県土浦市菅谷町1525－",
"Capacity":"－",
"la":"36.10483400000",
"ln":"140.26489900000"
},
"geometry":{
"type":"Point",
"coordinates":[
140.264899,
36.104834
]
}
},
{
"type":"Feature",
"properties":{
"Name":"土浦工業高等学校",
"Jusho":"茨城県土浦市真鍋6－1-20",
"Capacity":"－",
"la":"36.10369300000",
"ln":"140.19638000000"
},
"geometry":{
"type":"Point",
"coordinates":[
140.19638,
36.103693
]
}
},
{
"type":"Feature",
"properties":{
"Name":"土浦市保健センター",
"Jusho":"茨城県土浦市下高津二丁目7-27",
"Capacity":"－",
"la":"36.07104677450",
"ln":"140.19206423200"
},
"geometry":{
"type":"Point",
"coordinates":[
140.192064232,
36.0710467745
]
}
},
{
"type":"Feature",
"properties":{
"Name":"土浦第一高等学校",
"Jusho":"茨城県土浦市真鍋4-4-2",
"Capacity":"－",
"la":"36.09819400000",
"ln":"140.20296400000"
},
"geometry":{
"type":"Point",
"coordinates":[
140.202964,
36.098194
]
}
},
{
"type":"Feature",
"properties":{
"Name":"土浦第三高等学校",
"Jusho":"茨城県土浦市大岩田1599",
"Capacity":"－",
"la":"36.05628200000",
"ln":"140.21272900000"
},
"geometry":{
"type":"Point",
"coordinates":[
140.212729,
36.056282
]
}
},
{
"type":"Feature",
"properties":{
"Name":"土浦第二高等学校",
"Jusho":"茨城県土浦市立田町9-6",
"Capacity":"－",
"la":"36.08827800000",
"ln":"140.19513100000"
},
"geometry":{
"type":"Point",
"coordinates":[
140.195131,
36.088278
]
}
},
{
"type":"Feature",
"properties":{
"Name":"土浦日本大学高等学校",
"Jusho":"茨城県土浦市小松ヶ丘町4-46",
"Capacity":"－",
"la":"36.06419900000",
"ln":"140.19710400000"
},
"geometry":{
"type":"Point",
"coordinates":[
140.197104,
36.064199
]
}
},
{
"type":"Feature",
"properties":{
"Name":"二中地区公民館",
"Jusho":"茨城県土浦市木田余1675",
"Capacity":"－",
"la":"36.09640300000",
"ln":"140.21581200000"
},
"geometry":{
"type":"Point",
"coordinates":[
140.215812,
36.096403
]
}
},
{
"type":"Feature",
"properties":{
"Name":"コミュニティセンターなかよこ",
"Jusho":"茨城県古河市横山町三丁目6-53",
"Capacity":"102",
"la":"36.20091000000",
"ln":"139.70468500000"
},
"geometry":{
"type":"Point",
"coordinates":[
139.704685,
36.20091
]
}
},
{
"type":"Feature",
"properties":{
"Name":"コミュニティセンターみどり",
"Jusho":"茨城県古河市緑町6-20",
"Capacity":"125",
"la":"36.20488684150",
"ln":"139.72260385500"
},
"geometry":{
"type":"Point",
"coordinates":[
139.722603855,
36.2048868415
]
}
},
{
"type":"Feature",
"properties":{
"Name":"コミュニティセンター三和",
"Jusho":"茨城県古河市三和176-2",
"Capacity":"125",
"la":"36.16315408420",
"ln":"139.70524097500"
},
"geometry":{
"type":"Point",
"coordinates":[
139.705240975,
36.1631540842
]
}
},
{
"type":"Feature",
"properties":{
"Name":"コミュニティセンター出城",
"Jusho":"茨城県古河市中央町三丁目10-20",
"Capacity":"125",
"la":"36.19186700000",
"ln":"139.70219700000"
},
"geometry":{
"type":"Point",
"coordinates":[
139.702197,
36.191867
]
}
},
{
"type":"Feature",
"properties":{
"Name":"コミュニティセンター総和",
"Jusho":"茨城県古河市下辺見2401",
"Capacity":"75",
"la":"36.17614700000",
"ln":"139.73474900000"
},
"geometry":{
"type":"Point",
"coordinates":[
139.734749,
36.176147
]
}
},
{
"type":"Feature",
"properties":{
"Name":"コミュニティセンター平和",
"Jusho":"茨城県古河市平和町1－8",
"Capacity":"134",
"la":"36.20129900000",
"ln":"139.70962600000"
},
"geometry":{
"type":"Point",
"coordinates":[
139.709626,
36.201299
]
}
},
{
"type":"Feature",
"properties":{
"Name":"さくら館",
"Jusho":"茨城県古河市久能973－",
"Capacity":"119",
"la":"36.16649400000",
"ln":"139.77260300000"
},
"geometry":{
"type":"Point",
"coordinates":[
139.772603,
36.166494
]
}
},
{
"type":"Feature",
"properties":{
"Name":"サークル館",
"Jusho":"茨城県古河市北利根10",
"Capacity":"167",
"la":"36.15928962050",
"ln":"139.76522094200"
},
"geometry":{
"type":"Point",
"coordinates":[
139.765220942,
36.1592896205
]
}
},
{
"type":"Feature",
"properties":{
"Name":"スポーツ交流センター",
"Jusho":"茨城県古河市立崎510－",
"Capacity":"1451",
"la":"36.18104800000",
"ln":"139.69553700000"
},
"geometry":{
"type":"Point",
"coordinates":[
139.695537,
36.181048
]
}
},
{
"type":"Feature",
"properties":{
"Name":"セミナーハウス（誠心館）",
"Jusho":"茨城県古河市女沼290－",
"Capacity":"175",
"la":"36.17679200000",
"ln":"139.75060200000"
},
"geometry":{
"type":"Point",
"coordinates":[
139.750602,
36.176792
]
}
},
{
"type":"Feature",
"properties":{
"Name":"つつみ館",
"Jusho":"茨城県古河市小堤1766",
"Capacity":"210",
"la":"36.20316100000",
"ln":"139.76605800000"
},
"geometry":{
"type":"Point",
"coordinates":[
139.766058,
36.203161
]
}
},
{
"type":"Feature",
"properties":{
"Name":"とねミドリ館",
"Jusho":"茨城県古河市前林1953－",
"Capacity":"6958",
"la":"36.15251100000",
"ln":"139.73924800000"
},
"geometry":{
"type":"Point",
"coordinates":[
139.739248,
36.152511
]
}
},
{
"type":"Feature",
"properties":{
"Name":"ネーブルパーク",
"Jusho":"茨城県古河市駒羽根620",
"Capacity":"7608",
"la":"36.16585399910",
"ln":"139.75485200000"
},
"geometry":{
"type":"Point",
"coordinates":[
139.754852,
36.1658539991
]
}
},
{
"type":"Feature",
"properties":{
"Name":"ふれあい館",
"Jusho":"茨城県古河市駒羽根1419",
"Capacity":"104",
"la":"36.15868100000",
"ln":"139.75779300000"
},
"geometry":{
"type":"Point",
"coordinates":[
139.757793,
36.158681
]
}
},
{
"type":"Feature",
"properties":{
"Name":"ユーセンター総和",
"Jusho":"茨城県古河市上辺見2369",
"Capacity":"319",
"la":"36.18696122560",
"ln":"139.73007289400"
},
"geometry":{
"type":"Point",
"coordinates":[
139.730072894,
36.1869612256
]
}
},
{
"type":"Feature",
"properties":{
"Name":"県立古河第一高校",
"Jusho":"茨城県古河市旭町二丁目4-5",
"Capacity":"600",
"la":"36.19550500000",
"ln":"139.72413900000"
},
"geometry":{
"type":"Point",
"coordinates":[
139.724139,
36.195505
]
}
},
{
"type":"Feature",
"properties":{
"Name":"県立古河第三高校",
"Jusho":"茨城県古河市中田新田12－",
"Capacity":"600",
"la":"36.16067600000",
"ln":"139.71122400000"
},
"geometry":{
"type":"Point",
"coordinates":[
139.711224,
36.160676
]
}
},
{
"type":"Feature",
"properties":{
"Name":"県立古河第二高校",
"Jusho":"茨城県古河市幸町19－8",
"Capacity":"600",
"la":"36.18422800000",
"ln":"139.71069600000"
},
"geometry":{
"type":"Point",
"coordinates":[
139.710696,
36.184228
]
}
},
{
"type":"Feature",
"properties":{
"Name":"県立三和高校",
"Jusho":"茨城県古河市五部54－",
"Capacity":"17731",
"la":"36.20797900000",
"ln":"139.81938000000"
},
"geometry":{
"type":"Point",
"coordinates":[
139.81938,
36.207979
]
}
},
{
"type":"Feature",
"properties":{
"Name":"県立三和産業技術専門学院",
"Jusho":"茨城県古河市諸川1844",
"Capacity":"7000",
"la":"36.20433500000",
"ln":"139.80968100000"
},
"geometry":{
"type":"Point",
"coordinates":[
139.809681,
36.204335
]
}
},
{
"type":"Feature",
"properties":{
"Name":"県立総和工業高校",
"Jusho":"茨城県古河市葛生1004－",
"Capacity":"25830",
"la":"36.15645600000",
"ln":"139.79330100000"
},
"geometry":{
"type":"Point",
"coordinates":[
139.793301,
36.156456
]
}
},
{
"type":"Feature",
"properties":{
"Name":"県立総和高校",
"Jusho":"茨城県古河市磯部846",
"Capacity":"18357",
"la":"36.17003600000",
"ln":"139.74794400000"
},
"geometry":{
"type":"Point",
"coordinates":[
139.747944,
36.170036
]
}
},
{
"type":"Feature",
"properties":{
"Name":"古河ゴルフリンクス",
"Jusho":"茨城県古河市西町10－",
"Capacity":"200",
"la":"36.19904815500",
"ln":"139.69703597100"
},
"geometry":{
"type":"Point",
"coordinates":[
139.697035971,
36.199048155
]
}
},
{
"type":"Feature",
"properties":{
"Name":"古河市役所古河支所",
"Jusho":"茨城県古河市長谷町38－8",
"Capacity":"14117",
"la":"36.18464499910",
"ln":"139.70256900000"
},
"geometry":{
"type":"Point",
"coordinates":[
139.702569,
36.1846449991
]
}
},
{
"type":"Feature",
"properties":{
"Name":"古河市隣保館",
"Jusho":"茨城県古河市大山1729-5",
"Capacity":"1123",
"la":"36.15211900000",
"ln":"139.72104400000"
},
"geometry":{
"type":"Point",
"coordinates":[
139.721044,
36.152119
]
}
},
{
"type":"Feature",
"properties":{
"Name":"古河福祉の森会館",
"Jusho":"茨城県古河市新久田271－",
"Capacity":"16134",
"la":"36.16885563000",
"ln":"139.70318803000"
},
"geometry":{
"type":"Point",
"coordinates":[
139.70318803,
36.16885563
]
}
},
{
"type":"Feature",
"properties":{
"Name":"三和健康ふれあいスポーツセンター",
"Jusho":"茨城県古河市仁連2042－",
"Capacity":"6852",
"la":"36.18558200000",
"ln":"139.81951300000"
},
"geometry":{
"type":"Point",
"coordinates":[
139.819513,
36.185582
]
}
},
{
"type":"Feature",
"properties":{
"Name":"三和公民館",
"Jusho":"茨城県古河市仁連2065",
"Capacity":"439",
"la":"36.18945100000",
"ln":"139.81827000000"
},
"geometry":{
"type":"Point",
"coordinates":[
139.81827,
36.189451
]
}
},
{
"type":"Feature",
"properties":{
"Name":"三和地域福祉センター",
"Jusho":"茨城県古河市仁連2228-7",
"Capacity":"3813",
"la":"36.18699900000",
"ln":"139.82522400000"
},
"geometry":{
"type":"Point",
"coordinates":[
139.825224,
36.186999
]
}
},
{
"type":"Feature",
"properties":{
"Name":"三和農村環境改善センター",
"Jusho":"茨城県古河市東山田1808－2",
"Capacity":"3601",
"la":"36.15860200000",
"ln":"139.81773800000"
},
"geometry":{
"type":"Point",
"coordinates":[
139.817738,
36.158602
]
}
},
{
"type":"Feature",
"properties":{
"Name":"諸川公民館",
"Jusho":"茨城県古河市諸川433－",
"Capacity":"200",
"la":"36.20198000000",
"ln":"139.81939700000"
},
"geometry":{
"type":"Point",
"coordinates":[
139.819397,
36.20198
]
}
},
{
"type":"Feature",
"properties":{
"Name":"総和水処理センター",
"Jusho":"茨城県古河市水海1207",
"Capacity":"41789",
"la":"36.14508200000",
"ln":"139.74810600000"
},
"geometry":{
"type":"Point",
"coordinates":[
139.748106,
36.145082
]
}
},
{
"type":"Feature",
"properties":{
"Name":"中央公民館",
"Jusho":"茨城県古河市下大野2248",
"Capacity":"427",
"la":"36.17884900000",
"ln":"139.75578300000"
},
"geometry":{
"type":"Point",
"coordinates":[
139.755783,
36.178849
]
}
},
{
"type":"Feature",
"properties":{
"Name":"中田公民館",
"Jusho":"茨城県古河市中田新田135－",
"Capacity":"230",
"la":"36.15512900000",
"ln":"139.71361700000"
},
"geometry":{
"type":"Point",
"coordinates":[
139.713617,
36.155129
]
}
},
{
"type":"Feature",
"properties":{
"Name":"東公民館",
"Jusho":"茨城県古河市東三丁目7－9",
"Capacity":"1360",
"la":"36.19738300000",
"ln":"139.71446500000"
},
"geometry":{
"type":"Point",
"coordinates":[
139.714465,
36.197383
]
}
},
{
"type":"Feature",
"properties":{
"Name":"老人福祉センター",
"Jusho":"茨城県古河市北利根10",
"Capacity":"129",
"la":"36.15933400000",
"ln":"139.76520200000"
},
"geometry":{
"type":"Point",
"coordinates":[
139.765202,
36.159334
]
}
},
{
"type":"Feature",
"properties":{
"Name":"ふれあいの里石岡ひまわりの館",
"Jusho":"茨城県石岡市大砂10527-6",
"Capacity":"－",
"la":"36.22342500000",
"ln":"140.24966700000"
},
"geometry":{
"type":"Point",
"coordinates":[
140.249667,
36.223425
]
}
},
{
"type":"Feature",
"properties":{
"Name":"みなみ保育所",
"Jusho":"茨城県石岡市月岡1375",
"Capacity":"－",
"la":"36.20494130190",
"ln":"140.17847788700"
},
"geometry":{
"type":"Point",
"coordinates":[
140.178477887,
36.2049413019
]
}
},
{
"type":"Feature",
"properties":{
"Name":"国府地区公民館",
"Jusho":"茨城県石岡市国府5-7－",
"Capacity":"－",
"la":"36.18601200000",
"ln":"140.27731300000"
},
"geometry":{
"type":"Point",
"coordinates":[
140.277313,
36.186012
]
}
},
{
"type":"Feature",
"properties":{
"Name":"城南地区公民館",
"Jusho":"茨城県石岡市三村7109",
"Capacity":"－",
"la":"36.15253800000",
"ln":"140.29396200000"
},
"geometry":{
"type":"Point",
"coordinates":[
140.293962,
36.152538
]
}
},
{
"type":"Feature",
"properties":{
"Name":"石岡海洋センター",
"Jusho":"茨城県石岡市染谷1415",
"Capacity":"－",
"la":"36.20429000000",
"ln":"140.24167100000"
},
"geometry":{
"type":"Point",
"coordinates":[
140.241671,
36.20429
]
}
},
{
"type":"Feature",
"properties":{
"Name":"石岡第一高等学校",
"Jusho":"茨城県石岡市石岡1-9",
"Capacity":"－",
"la":"36.19133902750",
"ln":"140.28437855300"
},
"geometry":{
"type":"Point",
"coordinates":[
140.284378553,
36.1913390275
]
}
},
{
"type":"Feature",
"properties":{
"Name":"石岡第二高等学校",
"Jusho":"茨城県石岡市府中5－4－4",
"Capacity":"－",
"la":"36.20013000000",
"ln":"140.27336800000"
},
"geometry":{
"type":"Point",
"coordinates":[
140.273368,
36.20013
]
}
},
{
"type":"Feature",
"properties":{
"Name":"大増多目的センター",
"Jusho":"茨城県石岡市大増3606",
"Capacity":"－",
"la":"36.30706400000",
"ln":"140.17655600000"
},
"geometry":{
"type":"Point",
"coordinates":[
140.176556,
36.307064
]
}
},
{
"type":"Feature",
"properties":{
"Name":"中央公民館",
"Jusho":"茨城県石岡市柿岡5680－",
"Capacity":"－",
"la":"36.24547014030",
"ln":"140.19837241300"
},
"geometry":{
"type":"Point",
"coordinates":[
140.198372413,
36.2454701403
]
}
},
{
"type":"Feature",
"properties":{
"Name":"東地区公民館",
"Jusho":"茨城県石岡市東石岡4-6-24",
"Capacity":"－",
"la":"36.18839000000",
"ln":"140.29662400000"
},
"geometry":{
"type":"Point",
"coordinates":[
140.296624,
36.18839
]
}
},
{
"type":"Feature",
"properties":{
"Name":"片野集会所",
"Jusho":"茨城県石岡市片野157",
"Capacity":"－",
"la":"36.22229900000",
"ln":"140.20303851500"
},
"geometry":{
"type":"Point",
"coordinates":[
140.203038515,
36.222299
]
}
},
{
"type":"Feature",
"properties":{
"Name":"鬼怒商業高等学校",
"Jusho":"茨城県結城市小森1513-2",
"Capacity":"15000",
"la":"36.29047100000",
"ln":"139.90014800000"
},
"geometry":{
"type":"Point",
"coordinates":[
139.900148,
36.290471
]
}
},
{
"type":"Feature",
"properties":{
"Name":"玉岡尭舜幼稚園",
"Jusho":"茨城県結城市結城12018－",
"Capacity":"2200",
"la":"36.31346300000",
"ln":"139.87229700000"
},
"geometry":{
"type":"Point",
"coordinates":[
139.872297,
36.313463
]
}
},
{
"type":"Feature",
"properties":{
"Name":"結城市公民館",
"Jusho":"茨城県結城市結城196－",
"Capacity":"2800",
"la":"36.30218600000",
"ln":"139.87546100000"
},
"geometry":{
"type":"Point",
"coordinates":[
139.875461,
36.302186
]
}
},
{
"type":"Feature",
"properties":{
"Name":"結城第一高等学校",
"Jusho":"茨城県結城市結城1076",
"Capacity":"9500",
"la":"36.30421900000",
"ln":"139.88214900000"
},
"geometry":{
"type":"Point",
"coordinates":[
139.882149,
36.304219
]
}
},
{
"type":"Feature",
"properties":{
"Name":"結城第二高等学校",
"Jusho":"茨城県結城市結城7355",
"Capacity":"6800",
"la":"36.29505300000",
"ln":"139.87576100000"
},
"geometry":{
"type":"Point",
"coordinates":[
139.875761,
36.295053
]
}
},
{
"type":"Feature",
"properties":{
"Name":"結城養護学校",
"Jusho":"茨城県結城市鹿窪1357－0",
"Capacity":"4700",
"la":"36.27030600000",
"ln":"139.87992800000"
},
"geometry":{
"type":"Point",
"coordinates":[
139.879928,
36.270306
]
}
},
{
"type":"Feature",
"properties":{
"Name":"江川地区多目的集会施設",
"Jusho":"茨城県結城市江川新宿1973-20",
"Capacity":"1300",
"la":"36.23787400000",
"ln":"139.83162000000"
},
"geometry":{
"type":"Point",
"coordinates":[
139.83162,
36.237874
]
}
},
{
"type":"Feature",
"properties":{
"Name":"才光寺会館",
"Jusho":"茨城県結城市上山川4135-7",
"Capacity":"300",
"la":"36.26396600000",
"ln":"139.88651400000"
},
"geometry":{
"type":"Point",
"coordinates":[
139.886514,
36.263966
]
}
},
{
"type":"Feature",
"properties":{
"Name":"山川保育所",
"Jusho":"茨城県結城市今宿1167",
"Capacity":"7600",
"la":"36.23251950690",
"ln":"139.87538690800"
},
"geometry":{
"type":"Point",
"coordinates":[
139.875386908,
36.2325195069
]
}
},
{
"type":"Feature",
"properties":{
"Name":"市民文化センターアクロス",
"Jusho":"茨城県結城市中央町2-2",
"Capacity":"5500",
"la":"36.29092199910",
"ln":"139.87187300000"
},
"geometry":{
"type":"Point",
"coordinates":[
139.871873,
36.2909219991
]
}
},
{
"type":"Feature",
"properties":{
"Name":"城西保育所",
"Jusho":"茨城県結城市結城9648",
"Capacity":"300",
"la":"36.28622100000",
"ln":"139.85112400000"
},
"geometry":{
"type":"Point",
"coordinates":[
139.851124,
36.286221
]
}
},
{
"type":"Feature",
"properties":{
"Name":"生きがいふれあいセンター",
"Jusho":"茨城県結城市鹿窪514-9",
"Capacity":"1200",
"la":"36.27625300000",
"ln":"139.88611600000"
},
"geometry":{
"type":"Point",
"coordinates":[
139.886116,
36.276253
]
}
},
{
"type":"Feature",
"properties":{
"Name":"川木谷グランド",
"Jusho":"茨城県結城市川木谷10045-2",
"Capacity":"3700",
"la":"36.29855709200",
"ln":"139.86083895100"
},
"geometry":{
"type":"Point",
"coordinates":[
139.860838951,
36.298557092
]
}
},
{
"type":"Feature",
"properties":{
"Name":"たつのこアリーナ",
"Jusho":"茨城県龍ヶ崎市中里3-2－",
"Capacity":"－",
"la":"35.92649600000",
"ln":"140.20578100000"
},
"geometry":{
"type":"Point",
"coordinates":[
140.205781,
35.926496
]
}
},
{
"type":"Feature",
"properties":{
"Name":"愛国学園大学付属龍ヶ崎高等学校",
"Jusho":"茨城県龍ヶ崎市若柴町2747",
"Capacity":"－",
"la":"35.92738100000",
"ln":"140.15691500000"
},
"geometry":{
"type":"Point",
"coordinates":[
140.156915,
35.927381
]
}
},
{
"type":"Feature",
"properties":{
"Name":"河原代地区公民館",
"Jusho":"茨城県龍ヶ崎市川原代町1665",
"Capacity":"－",
"la":"35.91441000000",
"ln":"140.15513300000"
},
"geometry":{
"type":"Point",
"coordinates":[
140.155133,
35.91441
]
}
},
{
"type":"Feature",
"properties":{
"Name":"久保台地区公民館",
"Jusho":"茨城県龍ヶ崎市久保台4－－2",
"Capacity":"－",
"la":"35.93503400000",
"ln":"140.17903000000"
},
"geometry":{
"type":"Point",
"coordinates":[
140.17903,
35.935034
]
}
},
{
"type":"Feature",
"properties":{
"Name":"県立竜ヶ崎第一高等学校",
"Jusho":"茨城県龍ヶ崎市248",
"Capacity":"－",
"la":"35.91502100000",
"ln":"140.18757900000"
},
"geometry":{
"type":"Point",
"coordinates":[
140.187579,
35.915021
]
}
},
{
"type":"Feature",
"properties":{
"Name":"県立竜ヶ崎第二高等学校",
"Jusho":"茨城県龍ヶ崎市3087",
"Capacity":"－",
"la":"35.90812100000",
"ln":"140.19178700000"
},
"geometry":{
"type":"Point",
"coordinates":[
140.191787,
35.908121
]
}
},
{
"type":"Feature",
"properties":{
"Name":"県立竜ヶ崎南高等学校",
"Jusho":"茨城県龍ヶ崎市北方町120",
"Capacity":"－",
"la":"35.88077500000",
"ln":"140.16061200000"
},
"geometry":{
"type":"Point",
"coordinates":[
140.160612,
35.880775
]
}
},
{
"type":"Feature",
"properties":{
"Name":"松葉地区公民館",
"Jusho":"茨城県龍ヶ崎市松葉5－",
"Capacity":"－",
"la":"35.93722900000",
"ln":"140.15704500000"
},
"geometry":{
"type":"Point",
"coordinates":[
140.157045,
35.937229
]
}
},
{
"type":"Feature",
"properties":{
"Name":"城ノ内地区公民館",
"Jusho":"茨城県龍ヶ崎市白羽1-5-2",
"Capacity":"－",
"la":"35.92292700000",
"ln":"140.21643400000"
},
"geometry":{
"type":"Point",
"coordinates":[
140.216434,
35.922927
]
}
},
{
"type":"Feature",
"properties":{
"Name":"大宮地区公民館",
"Jusho":"茨城県龍ヶ崎市大徳町4901",
"Capacity":"－",
"la":"35.89326900000",
"ln":"140.20476000000"
},
"geometry":{
"type":"Point",
"coordinates":[
140.20476,
35.893269
]
}
},
{
"type":"Feature",
"properties":{
"Name":"中央公民館",
"Jusho":"茨城県龍ヶ崎市馴馬町2445",
"Capacity":"－",
"la":"35.91857900000",
"ln":"140.17791200000"
},
"geometry":{
"type":"Point",
"coordinates":[
140.177912,
35.918579
]
}
},
{
"type":"Feature",
"properties":{
"Name":"中央図書館",
"Jusho":"茨城県龍ヶ崎市馴馬町2630",
"Capacity":"－",
"la":"35.91479100000",
"ln":"140.17857300000"
},
"geometry":{
"type":"Point",
"coordinates":[
140.178573,
35.914791
]
}
},
{
"type":"Feature",
"properties":{
"Name":"長戸地区公民館",
"Jusho":"茨城県龍ヶ崎市高作町162-9",
"Capacity":"－",
"la":"35.92546900000",
"ln":"140.23911900000"
},
"geometry":{
"type":"Point",
"coordinates":[
140.239119,
35.925469
]
}
},
{
"type":"Feature",
"properties":{
"Name":"長山地区公民館",
"Jusho":"茨城県龍ヶ崎市長山3－3－",
"Capacity":"－",
"la":"35.94564800000",
"ln":"140.15800400000"
},
"geometry":{
"type":"Point",
"coordinates":[
140.158004,
35.945648
]
}
},
{
"type":"Feature",
"properties":{
"Name":"馴柴公民館",
"Jusho":"茨城県龍ヶ崎市馴柴町21－",
"Capacity":"－",
"la":"35.92893300000",
"ln":"140.14707200000"
},
"geometry":{
"type":"Point",
"coordinates":[
140.147072,
35.928933
]
}
},
{
"type":"Feature",
"properties":{
"Name":"馴馬台地区公民館",
"Jusho":"茨城県龍ヶ崎市平台5－2-3",
"Capacity":"－",
"la":"35.92251200000",
"ln":"140.16814800000"
},
"geometry":{
"type":"Point",
"coordinates":[
140.168148,
35.922512
]
}
},
{
"type":"Feature",
"properties":{
"Name":"八原地区公民館",
"Jusho":"茨城県龍ヶ崎市藤ヶ丘1-21－4",
"Capacity":"－",
"la":"35.93429800000",
"ln":"140.20017500000"
},
"geometry":{
"type":"Point",
"coordinates":[
140.200175,
35.934298
]
}
},
{
"type":"Feature",
"properties":{
"Name":"北文間地区公民館",
"Jusho":"茨城県龍ヶ崎市長沖町813",
"Capacity":"－",
"la":"35.89194900000",
"ln":"140.15809800000"
},
"geometry":{
"type":"Point",
"coordinates":[
140.158098,
35.891949
]
}
},
{
"type":"Feature",
"properties":{
"Name":"流通経済大学",
"Jusho":"茨城県龍ヶ崎市120",
"Capacity":"－",
"la":"35.91675700000",
"ln":"140.18978500000"
},
"geometry":{
"type":"Point",
"coordinates":[
140.189785,
35.916757
]
}
},
{
"type":"Feature",
"properties":{
"Name":"龍ヶ崎市文化会館",
"Jusho":"茨城県龍ヶ崎市馴馬町2612",
"Capacity":"－",
"la":"35.91556300000",
"ln":"140.17849500000"
},
"geometry":{
"type":"Point",
"coordinates":[
140.178495,
35.915563
]
}
},
{
"type":"Feature",
"properties":{
"Name":"龍ヶ崎西地区公民館",
"Jusho":"茨城県龍ヶ崎市8897－",
"Capacity":"－",
"la":"35.90064899910",
"ln":"140.18067800000"
},
"geometry":{
"type":"Point",
"coordinates":[
140.180678,
35.9006489991
]
}
},
{
"type":"Feature",
"properties":{
"Name":"龍ヶ崎地区公民館",
"Jusho":"茨城県龍ヶ崎市488",
"Capacity":"－",
"la":"35.91148300000",
"ln":"140.19036900000"
},
"geometry":{
"type":"Point",
"coordinates":[
140.190369,
35.911483
]
}
},
{
"type":"Feature",
"properties":{
"Name":"きぬ保育園",
"Jusho":"茨城県下妻市鬼怒254",
"Capacity":"－",
"la":"36.15444300000",
"ln":"139.96231900000"
},
"geometry":{
"type":"Point",
"coordinates":[
139.962319,
36.154443
]
}
},
{
"type":"Feature",
"properties":{
"Name":"ちよかわ幼稚園",
"Jusho":"茨城県下妻市宗道2095",
"Capacity":"－",
"la":"36.15228204280",
"ln":"139.97404245200"
},
"geometry":{
"type":"Point",
"coordinates":[
139.974042452,
36.1522820428
]
}
},
{
"type":"Feature",
"properties":{
"Name":"下妻公民館",
"Jusho":"茨城県下妻市本城町3-36",
"Capacity":"－",
"la":"36.18502200000",
"ln":"139.96869400000"
},
"geometry":{
"type":"Point",
"coordinates":[
139.968694,
36.185022
]
}
},
{
"type":"Feature",
"properties":{
"Name":"下妻第一高等学校",
"Jusho":"茨城県下妻市下妻乙226－",
"Capacity":"－",
"la":"36.18265200000",
"ln":"139.96136900000"
},
"geometry":{
"type":"Point",
"coordinates":[
139.961369,
36.182652
]
}
},
{
"type":"Feature",
"properties":{
"Name":"下妻第二高等学校",
"Jusho":"茨城県下妻市下妻乙347-8",
"Capacity":"－",
"la":"36.17895800000",
"ln":"139.96200800000"
},
"geometry":{
"type":"Point",
"coordinates":[
139.962008,
36.178958
]
}
},
{
"type":"Feature",
"properties":{
"Name":"下妻特別支援学校",
"Jusho":"茨城県下妻市半谷492-4",
"Capacity":"－",
"la":"36.21284299910",
"ln":"139.93548000000"
},
"geometry":{
"type":"Point",
"coordinates":[
139.93548,
36.2128429991
]
}
},
{
"type":"Feature",
"properties":{
"Name":"皆葉生活改善センター",
"Jusho":"茨城県下妻市皆葉2374-2",
"Capacity":"－",
"la":"36.14256800000",
"ln":"139.93947500000"
},
"geometry":{
"type":"Point",
"coordinates":[
139.939475,
36.142568
]
}
},
{
"type":"Feature",
"properties":{
"Name":"桐ヶ瀬農村集落センター",
"Jusho":"茨城県下妻市桐ヶ瀬80",
"Capacity":"－",
"la":"36.20207300000",
"ln":"139.92342200000"
},
"geometry":{
"type":"Point",
"coordinates":[
139.923422,
36.202073
]
}
},
{
"type":"Feature",
"properties":{
"Name":"勤労青少年ホーム",
"Jusho":"茨城県下妻市砂沼新田15",
"Capacity":"－",
"la":"36.18114500000",
"ln":"139.95587800000"
},
"geometry":{
"type":"Point",
"coordinates":[
139.955878,
36.181145
]
}
},
{
"type":"Feature",
"properties":{
"Name":"五箇公民館",
"Jusho":"茨城県下妻市五箇249",
"Capacity":"－",
"la":"36.13836800000",
"ln":"139.92780200000"
},
"geometry":{
"type":"Point",
"coordinates":[
139.927802,
36.138368
]
}
},
{
"type":"Feature",
"properties":{
"Name":"高道祖市民センター",
"Jusho":"茨城県下妻市高道祖1002",
"Capacity":"－",
"la":"36.18955200000",
"ln":"140.00922600000"
},
"geometry":{
"type":"Point",
"coordinates":[
140.009226,
36.189552
]
}
},
{
"type":"Feature",
"properties":{
"Name":"高道祖本田農村集落センター",
"Jusho":"茨城県下妻市高道祖4557",
"Capacity":"－",
"la":"36.19025100000",
"ln":"140.00649600000"
},
"geometry":{
"type":"Point",
"coordinates":[
140.006496,
36.190251
]
}
},
{
"type":"Feature",
"properties":{
"Name":"坂井新農村集落センター",
"Jusho":"茨城県下妻市坂井38－",
"Capacity":"－",
"la":"36.19167900000",
"ln":"139.98178800000"
},
"geometry":{
"type":"Point",
"coordinates":[
139.981788,
36.191679
]
}
},
{
"type":"Feature",
"properties":{
"Name":"上妻市民センター",
"Jusho":"茨城県下妻市柴29",
"Capacity":"－",
"la":"36.21320700000",
"ln":"139.93354800000"
},
"geometry":{
"type":"Point",
"coordinates":[
139.933548,
36.213207
]
}
},
{
"type":"Feature",
"properties":{
"Name":"心身障害者福祉センター",
"Jusho":"茨城県下妻市下木戸493-6",
"Capacity":"－",
"la":"36.19439600000",
"ln":"139.94920000000"
},
"geometry":{
"type":"Point",
"coordinates":[
139.9492,
36.194396
]
}
},
{
"type":"Feature",
"properties":{
"Name":"神明集落センター",
"Jusho":"茨城県下妻市神明122－",
"Capacity":"－",
"la":"36.22146200000",
"ln":"139.96952000000"
},
"geometry":{
"type":"Point",
"coordinates":[
139.96952,
36.221462
]
}
},
{
"type":"Feature",
"properties":{
"Name":"数須新農村集落センター",
"Jusho":"茨城県下妻市数須152",
"Capacity":"－",
"la":"36.21510300000",
"ln":"139.98813500000"
},
"geometry":{
"type":"Point",
"coordinates":[
139.988135,
36.215103
]
}
},
{
"type":"Feature",
"properties":{
"Name":"赤須集落センター",
"Jusho":"茨城県下妻市赤須842",
"Capacity":"－",
"la":"36.20599100000",
"ln":"139.93375300000"
},
"geometry":{
"type":"Point",
"coordinates":[
139.933753,
36.205991
]
}
},
{
"type":"Feature",
"properties":{
"Name":"千代川体育館",
"Jusho":"茨城県下妻市唐崎944",
"Capacity":"－",
"la":"36.15234200000",
"ln":"139.97512800000"
},
"geometry":{
"type":"Point",
"coordinates":[
139.975128,
36.152342
]
}
},
{
"type":"Feature",
"properties":{
"Name":"千代川第２体育館",
"Jusho":"茨城県下妻市原188",
"Capacity":"－",
"la":"36.15310300000",
"ln":"139.96617900000"
},
"geometry":{
"type":"Point",
"coordinates":[
139.966179,
36.153103
]
}
},
{
"type":"Feature",
"properties":{
"Name":"総合体育館",
"Jusho":"茨城県下妻市本城町3-36",
"Capacity":"－",
"la":"36.18512100000",
"ln":"139.96930200000"
},
"geometry":{
"type":"Point",
"coordinates":[
139.969302,
36.185121
]
}
},
{
"type":"Feature",
"properties":{
"Name":"村岡集落センター",
"Jusho":"茨城県下妻市村岡1034－",
"Capacity":"－",
"la":"36.16048100000",
"ln":"139.91936200000"
},
"geometry":{
"type":"Point",
"coordinates":[
139.919362,
36.160481
]
}
},
{
"type":"Feature",
"properties":{
"Name":"多賀谷の郷",
"Jusho":"茨城県下妻市下妻乙823－",
"Capacity":"－",
"la":"36.18798333290",
"ln":"139.96862705100"
},
"geometry":{
"type":"Point",
"coordinates":[
139.968627051,
36.1879833329
]
}
},
{
"type":"Feature",
"properties":{
"Name":"大町コミュニティーセンター",
"Jusho":"茨城県下妻市下妻丙154",
"Capacity":"－",
"la":"36.19016300000",
"ln":"139.95180800000"
},
"geometry":{
"type":"Point",
"coordinates":[
139.951808,
36.190163
]
}
},
{
"type":"Feature",
"properties":{
"Name":"大宝公民館",
"Jusho":"茨城県下妻市大串733",
"Capacity":"－",
"la":"36.19789300000",
"ln":"139.97663100000"
},
"geometry":{
"type":"Point",
"coordinates":[
139.976631,
36.197893
]
}
},
{
"type":"Feature",
"properties":{
"Name":"大木農村集落センター",
"Jusho":"茨城県下妻市大木633",
"Capacity":"－",
"la":"36.21525500000",
"ln":"139.95484300000"
},
"geometry":{
"type":"Point",
"coordinates":[
139.954843,
36.215255
]
}
},
{
"type":"Feature",
"properties":{
"Name":"長塚農村集落センター",
"Jusho":"茨城県下妻市長塚477－",
"Capacity":"－",
"la":"36.18495900000",
"ln":"139.94076300000"
},
"geometry":{
"type":"Point",
"coordinates":[
139.940763,
36.184959
]
}
},
{
"type":"Feature",
"properties":{
"Name":"騰波ノ江市民センター",
"Jusho":"茨城県下妻市若柳甲284",
"Capacity":"－",
"la":"36.21974900000",
"ln":"139.98219100000"
},
"geometry":{
"type":"Point",
"coordinates":[
139.982191,
36.219749
]
}
},
{
"type":"Feature",
"properties":{
"Name":"働く婦人の家",
"Jusho":"茨城県下妻市今泉240",
"Capacity":"－",
"la":"36.17289500000",
"ln":"139.95875900000"
},
"geometry":{
"type":"Point",
"coordinates":[
139.958759,
36.172895
]
}
},
{
"type":"Feature",
"properties":{
"Name":"福祉センターシルピア",
"Jusho":"茨城県下妻市別府545",
"Capacity":"－",
"la":"36.14960600000",
"ln":"139.93982000000"
},
"geometry":{
"type":"Point",
"coordinates":[
139.93982,
36.149606
]
}
},
{
"type":"Feature",
"properties":{
"Name":"豊加美市民センター",
"Jusho":"茨城県下妻市加養98",
"Capacity":"－",
"la":"36.17245400000",
"ln":"139.98837900000"
},
"geometry":{
"type":"Point",
"coordinates":[
139.988379,
36.172454
]
}
},
{
"type":"Feature",
"properties":{
"Name":"牧本農村集落センター",
"Jusho":"茨城県下妻市若柳甲522-2",
"Capacity":"－",
"la":"36.22129100000",
"ln":"139.97772300000"
},
"geometry":{
"type":"Point",
"coordinates":[
139.977723,
36.221291
]
}
},
{
"type":"Feature",
"properties":{
"Name":"あすなろの里",
"Jusho":"茨城県常総市大塚戸町310",
"Capacity":"1350",
"la":"36.00510800000",
"ln":"139.92288500000"
},
"geometry":{
"type":"Point",
"coordinates":[
139.922885,
36.005108
]
}
},
{
"type":"Feature",
"properties":{
"Name":"きぬふれあいセンター",
"Jusho":"茨城県常総市豊岡町乙1522－",
"Capacity":"200",
"la":"36.02645700000",
"ln":"139.98140200000"
},
"geometry":{
"type":"Point",
"coordinates":[
139.981402,
36.026457
]
}
},
{
"type":"Feature",
"properties":{
"Name":"さくら保育園",
"Jusho":"茨城県常総市岡田339",
"Capacity":"726",
"la":"36.11771400000",
"ln":"139.94254000000"
},
"geometry":{
"type":"Point",
"coordinates":[
139.94254,
36.117714
]
}
},
{
"type":"Feature",
"properties":{
"Name":"横曽根集会所",
"Jusho":"茨城県常総市豊岡町乙1742",
"Capacity":"38",
"la":"36.02870700000",
"ln":"139.97704700000"
},
"geometry":{
"type":"Point",
"coordinates":[
139.977047,
36.028707
]
}
},
{
"type":"Feature",
"properties":{
"Name":"岡田田園都市センター",
"Jusho":"茨城県常総市岡田584",
"Capacity":"－",
"la":"36.12910200000",
"ln":"139.93712600000"
},
"geometry":{
"type":"Point",
"coordinates":[
139.937126,
36.129102
]
}
},
{
"type":"Feature",
"properties":{
"Name":"岡田文化センター",
"Jusho":"茨城県常総市杉山676",
"Capacity":"496",
"la":"36.11937000000",
"ln":"139.95402800000"
},
"geometry":{
"type":"Point",
"coordinates":[
139.954028,
36.11937
]
}
},
{
"type":"Feature",
"properties":{
"Name":"岡田幼稚園",
"Jusho":"茨城県常総市蔵持761-2",
"Capacity":"856",
"la":"36.10916000000",
"ln":"139.95431700000"
},
"geometry":{
"type":"Point",
"coordinates":[
139.954317,
36.10916
]
}
},
{
"type":"Feature",
"properties":{
"Name":"玉幼稚園",
"Jusho":"茨城県常総市若宮戸794",
"Capacity":"798",
"la":"36.13746300000",
"ln":"139.96325900000"
},
"geometry":{
"type":"Point",
"coordinates":[
139.963259,
36.137463
]
}
},
{
"type":"Feature",
"properties":{
"Name":"五箇公民館",
"Jusho":"茨城県常総市上蛇町1899－",
"Capacity":"91",
"la":"36.07215700000",
"ln":"140.00262900000"
},
"geometry":{
"type":"Point",
"coordinates":[
140.002629,
36.072157
]
}
},
{
"type":"Feature",
"properties":{
"Name":"御城幼稚園",
"Jusho":"茨城県常総市本石下4610",
"Capacity":"664",
"la":"36.12057600000",
"ln":"139.97148100000"
},
"geometry":{
"type":"Point",
"coordinates":[
139.971481,
36.120576
]
}
},
{
"type":"Feature",
"properties":{
"Name":"坂手公民館",
"Jusho":"茨城県常総市坂手町6219－",
"Capacity":"68",
"la":"36.00796400000",
"ln":"139.96147600000"
},
"geometry":{
"type":"Point",
"coordinates":[
139.961476,
36.007964
]
}
},
{
"type":"Feature",
"properties":{
"Name":"三妻公民館",
"Jusho":"茨城県常総市三坂町1544-3",
"Capacity":"106",
"la":"36.07484900000",
"ln":"139.98110200000"
},
"geometry":{
"type":"Point",
"coordinates":[
139.981102,
36.074849
]
}
},
{
"type":"Feature",
"properties":{
"Name":"図書館",
"Jusho":"茨城県常総市水海道天満町1606",
"Capacity":"153",
"la":"36.01698900000",
"ln":"139.98755100000"
},
"geometry":{
"type":"Point",
"coordinates":[
139.987551,
36.016989
]
}
},
{
"type":"Feature",
"properties":{
"Name":"水海道公民館（勤労青少年ホーム）",
"Jusho":"茨城県常総市水海道栄町2680－",
"Capacity":"270",
"la":"36.01977700000",
"ln":"139.98841200000"
},
"geometry":{
"type":"Point",
"coordinates":[
139.988412,
36.019777
]
}
},
{
"type":"Feature",
"properties":{
"Name":"水海道総合体育館",
"Jusho":"茨城県常総市坂手町3552",
"Capacity":"2173",
"la":"36.02005200000",
"ln":"139.95186800000"
},
"geometry":{
"type":"Point",
"coordinates":[
139.951868,
36.020052
]
}
},
{
"type":"Feature",
"properties":{
"Name":"水海道第一高等学校",
"Jusho":"茨城県常総市水海道亀岡町2543",
"Capacity":"1928",
"la":"36.01813000000",
"ln":"139.98579700000"
},
"geometry":{
"type":"Point",
"coordinates":[
139.985797,
36.01813
]
}
},
{
"type":"Feature",
"properties":{
"Name":"水海道第一保育所",
"Jusho":"茨城県常総市豊岡町乙1670-2",
"Capacity":"77",
"la":"36.03144500000",
"ln":"139.97824600000"
},
"geometry":{
"type":"Point",
"coordinates":[
139.978246,
36.031445
]
}
},
{
"type":"Feature",
"properties":{
"Name":"水海道第五保育所",
"Jusho":"茨城県常総市大生郷町801－",
"Capacity":"158",
"la":"36.06416600000",
"ln":"139.96312300000"
},
"geometry":{
"type":"Point",
"coordinates":[
139.963123,
36.064166
]
}
},
{
"type":"Feature",
"properties":{
"Name":"水海道第三保育所",
"Jusho":"茨城県常総市水海道高野町2081",
"Capacity":"561",
"la":"36.01012100000",
"ln":"139.98584000000"
},
"geometry":{
"type":"Point",
"coordinates":[
139.98584,
36.010121
]
}
},
{
"type":"Feature",
"properties":{
"Name":"水海道第四保育所",
"Jusho":"茨城県常総市菅生町1187-5",
"Capacity":"158",
"la":"35.99303400000",
"ln":"139.93776800000"
},
"geometry":{
"type":"Point",
"coordinates":[
139.937768,
35.993034
]
}
},
{
"type":"Feature",
"properties":{
"Name":"水海道第二高等学校",
"Jusho":"茨城県常総市水海道橋本町3549",
"Capacity":"1735",
"la":"36.02811100000",
"ln":"139.99028800000"
},
"geometry":{
"type":"Point",
"coordinates":[
139.990288,
36.028111
]
}
},
{
"type":"Feature",
"properties":{
"Name":"水海道第二保育所",
"Jusho":"茨城県常総市中妻町3977",
"Capacity":"126",
"la":"36.06286100000",
"ln":"139.98039900000"
},
"geometry":{
"type":"Point",
"coordinates":[
139.980399,
36.062861
]
}
},
{
"type":"Feature",
"properties":{
"Name":"水海道第六保育所",
"Jusho":"茨城県常総市小山戸町186",
"Capacity":"181",
"la":"36.03600300000",
"ln":"139.98306700000"
},
"geometry":{
"type":"Point",
"coordinates":[
139.983067,
36.036003
]
}
},
{
"type":"Feature",
"properties":{
"Name":"菅原公民館",
"Jusho":"茨城県常総市大生郷町1960－",
"Capacity":"101",
"la":"36.06386300000",
"ln":"139.95164700000"
},
"geometry":{
"type":"Point",
"coordinates":[
139.951647,
36.063863
]
}
},
{
"type":"Feature",
"properties":{
"Name":"菅生公民館",
"Jusho":"茨城県常総市菅生町1187－0",
"Capacity":"68",
"la":"35.99260700000",
"ln":"139.93758500000"
},
"geometry":{
"type":"Point",
"coordinates":[
139.937585,
35.992607
]
}
},
{
"type":"Feature",
"properties":{
"Name":"生涯学習センター",
"Jusho":"茨城県常総市水海道天満町4684",
"Capacity":"1333",
"la":"36.01430300000",
"ln":"139.98671000000"
},
"geometry":{
"type":"Point",
"coordinates":[
139.98671,
36.014303
]
}
},
{
"type":"Feature",
"properties":{
"Name":"青少年の家",
"Jusho":"茨城県常総市大生郷町1032-4",
"Capacity":"269",
"la":"36.05768900000",
"ln":"139.95947400000"
},
"geometry":{
"type":"Point",
"coordinates":[
139.959474,
36.057689
]
}
},
{
"type":"Feature",
"properties":{
"Name":"石下啓発センター",
"Jusho":"茨城県常総市豊田1081－",
"Capacity":"478",
"la":"36.11566900000",
"ln":"139.99389400000"
},
"geometry":{
"type":"Point",
"coordinates":[
139.993894,
36.115669
]
}
},
{
"type":"Feature",
"properties":{
"Name":"石下紫峰高校",
"Jusho":"茨城県常総市新石下1192-3",
"Capacity":"4722",
"la":"36.10831100000",
"ln":"139.98195100000"
},
"geometry":{
"type":"Point",
"coordinates":[
139.981951,
36.108311
]
}
},
{
"type":"Feature",
"properties":{
"Name":"石下西公民館",
"Jusho":"茨城県常総市鴻野山156",
"Capacity":"630",
"la":"36.11360100000",
"ln":"139.92513400000"
},
"geometry":{
"type":"Point",
"coordinates":[
139.925134,
36.113601
]
}
},
{
"type":"Feature",
"properties":{
"Name":"石下西体育館",
"Jusho":"茨城県常総市鴻野山164－",
"Capacity":"1240",
"la":"36.11360900000",
"ln":"139.92576400000"
},
"geometry":{
"type":"Point",
"coordinates":[
139.925764,
36.113609
]
}
},
{
"type":"Feature",
"properties":{
"Name":"石下総合体育館",
"Jusho":"茨城県常総市鴻野山1670",
"Capacity":"1685",
"la":"36.10991800000",
"ln":"139.93539800000"
},
"geometry":{
"type":"Point",
"coordinates":[
139.935398,
36.109918
]
}
},
{
"type":"Feature",
"properties":{
"Name":"石下総合福祉センター",
"Jusho":"茨城県常総市新石下4365",
"Capacity":"4690",
"la":"36.11405900000",
"ln":"139.98148200000"
},
"geometry":{
"type":"Point",
"coordinates":[
139.981482,
36.114059
]
}
},
{
"type":"Feature",
"properties":{
"Name":"石下体育館",
"Jusho":"茨城県常総市新石下2010",
"Capacity":"1955",
"la":"36.11275800000",
"ln":"139.98052900000"
},
"geometry":{
"type":"Point",
"coordinates":[
139.980529,
36.112758
]
}
},
{
"type":"Feature",
"properties":{
"Name":"石下中央公民館",
"Jusho":"茨城県常総市本石下85",
"Capacity":"1012",
"la":"36.11967400000",
"ln":"139.96967900000"
},
"geometry":{
"type":"Point",
"coordinates":[
139.969679,
36.119674
]
}
},
{
"type":"Feature",
"properties":{
"Name":"石下婦人の家",
"Jusho":"茨城県常総市原宿1380",
"Capacity":"352",
"la":"36.13777400000",
"ln":"139.96922407200"
},
"geometry":{
"type":"Point",
"coordinates":[
139.969224072,
36.137774
]
}
},
{
"type":"Feature",
"properties":{
"Name":"大花羽公民館",
"Jusho":"茨城県常総市大輪町464-5",
"Capacity":"92",
"la":"36.06678000000",
"ln":"139.97393900000"
},
"geometry":{
"type":"Point",
"coordinates":[
139.973939,
36.06678
]
}
},
{
"type":"Feature",
"properties":{
"Name":"大生公民館",
"Jusho":"茨城県常総市平町44",
"Capacity":"91",
"la":"36.03997500000",
"ln":"140.00540900000"
},
"geometry":{
"type":"Point",
"coordinates":[
140.005409,
36.039975
]
}
},
{
"type":"Feature",
"properties":{
"Name":"地域交流センター",
"Jusho":"茨城県常総市新石下2010",
"Capacity":"5594",
"la":"36.11329800000",
"ln":"139.97994400000"
},
"geometry":{
"type":"Point",
"coordinates":[
139.979944,
36.113298
]
}
},
{
"type":"Feature",
"properties":{
"Name":"中三坂集会所",
"Jusho":"茨城県常総市三坂町684－",
"Capacity":"57",
"la":"36.09077100000",
"ln":"139.96412800000"
},
"geometry":{
"type":"Point",
"coordinates":[
139.964128,
36.090771
]
}
},
{
"type":"Feature",
"properties":{
"Name":"東さくら保育園",
"Jusho":"茨城県常総市本石下3762－",
"Capacity":"772",
"la":"36.12550540660",
"ln":"139.97112202600"
},
"geometry":{
"type":"Point",
"coordinates":[
139.971122026,
36.1255054066
]
}
},
{
"type":"Feature",
"properties":{
"Name":"東野原田園都市センター",
"Jusho":"茨城県常総市東野原92-3",
"Capacity":"－",
"la":"36.10434500000",
"ln":"139.97687600000"
},
"geometry":{
"type":"Point",
"coordinates":[
139.976876,
36.104345
]
}
},
{
"type":"Feature",
"properties":{
"Name":"内守谷公民館",
"Jusho":"茨城県常総市内守谷町2743-2",
"Capacity":"76",
"la":"35.98759000000",
"ln":"139.95829200000"
},
"geometry":{
"type":"Point",
"coordinates":[
139.958292,
35.98759
]
}
},
{
"type":"Feature",
"properties":{
"Name":"飯沼幼稚園",
"Jusho":"茨城県常総市鴻野山157",
"Capacity":"870",
"la":"36.11395279710",
"ln":"139.92646447700"
},
"geometry":{
"type":"Point",
"coordinates":[
139.926464477,
36.1139527971
]
}
},
{
"type":"Feature",
"properties":{
"Name":"豊岡公民館",
"Jusho":"茨城県常総市豊岡町丙1587",
"Capacity":"104",
"la":"36.03065400000",
"ln":"139.96868600000"
},
"geometry":{
"type":"Point",
"coordinates":[
139.968686,
36.030654
]
}
},
{
"type":"Feature",
"properties":{
"Name":"豊田幼稚園",
"Jusho":"茨城県常総市豊田2303-2",
"Capacity":"572",
"la":"36.11635500000",
"ln":"139.99686800000"
},
"geometry":{
"type":"Point",
"coordinates":[
139.996868,
36.116355
]
}
},
{
"type":"Feature",
"properties":{
"Name":"河内公民館",
"Jusho":"茨城県常陸太田市町屋町1289",
"Capacity":"－",
"la":"36.60464600000",
"ln":"140.53920900000"
},
"geometry":{
"type":"Point",
"coordinates":[
140.539209,
36.604646
]
}
},
{
"type":"Feature",
"properties":{
"Name":"機初公民館",
"Jusho":"茨城県常陸太田市幡町1311",
"Capacity":"－",
"la":"36.53710600000",
"ln":"140.54311600000"
},
"geometry":{
"type":"Point",
"coordinates":[
140.543116,
36.537106
]
}
},
{
"type":"Feature",
"properties":{
"Name":"幸久公民館",
"Jusho":"茨城県常陸太田市上河合町1334-3",
"Capacity":"－",
"la":"36.50867400000",
"ln":"140.51606700000"
},
"geometry":{
"type":"Point",
"coordinates":[
140.516067,
36.508674
]
}
},
{
"type":"Feature",
"properties":{
"Name":"幸久幼稚園",
"Jusho":"茨城県常陸太田市上河合町1287-2",
"Capacity":"－",
"la":"36.50679400000",
"ln":"140.51405700000"
},
"geometry":{
"type":"Point",
"coordinates":[
140.514057,
36.506794
]
}
},
{
"type":"Feature",
"properties":{
"Name":"佐竹公民館",
"Jusho":"茨城県常陸太田市稲木町671",
"Capacity":"－",
"la":"36.52504800000",
"ln":"140.51574000000"
},
"geometry":{
"type":"Point",
"coordinates":[
140.51574,
36.525048
]
}
},
{
"type":"Feature",
"properties":{
"Name":"佐竹高等学校",
"Jusho":"茨城県常陸太田市稲木町155",
"Capacity":"－",
"la":"36.52823600000",
"ln":"140.52216700000"
},
"geometry":{
"type":"Point",
"coordinates":[
140.522167,
36.528236
]
}
},
{
"type":"Feature",
"properties":{
"Name":"佐都公民館",
"Jusho":"茨城県常陸太田市常福地町141-2",
"Capacity":"－",
"la":"36.58065900000",
"ln":"140.53830800000"
},
"geometry":{
"type":"Point",
"coordinates":[
140.538308,
36.580659
]
}
},
{
"type":"Feature",
"properties":{
"Name":"市民交流センター",
"Jusho":"茨城県常陸太田市中城町3210",
"Capacity":"－",
"la":"36.54513722460",
"ln":"140.52478058300"
},
"geometry":{
"type":"Point",
"coordinates":[
140.524780583,
36.5451372246
]
}
},
{
"type":"Feature",
"properties":{
"Name":"世矢公民館",
"Jusho":"茨城県常陸太田市亀作町359－",
"Capacity":"－",
"la":"36.52082400000",
"ln":"140.57106900000"
},
"geometry":{
"type":"Point",
"coordinates":[
140.571069,
36.520824
]
}
},
{
"type":"Feature",
"properties":{
"Name":"世矢幼稚園",
"Jusho":"茨城県常陸太田市真弓町1854-53",
"Capacity":"－",
"la":"36.52437700000",
"ln":"140.56944100000"
},
"geometry":{
"type":"Point",
"coordinates":[
140.569441,
36.524377
]
}
},
{
"type":"Feature",
"properties":{
"Name":"生涯学習センター",
"Jusho":"茨城県常陸太田市中城町3280",
"Capacity":"－",
"la":"36.54480700000",
"ln":"140.52644100000"
},
"geometry":{
"type":"Point",
"coordinates":[
140.526441,
36.544807
]
}
},
{
"type":"Feature",
"properties":{
"Name":"西河内市民ふれあいセンター",
"Jusho":"茨城県常陸太田市西河内上町1435",
"Capacity":"－",
"la":"36.63305996750",
"ln":"140.52110335500"
},
"geometry":{
"type":"Point",
"coordinates":[
140.521103355,
36.6330599675
]
}
},
{
"type":"Feature",
"properties":{
"Name":"西小沢公民館",
"Jusho":"茨城県常陸太田市内田町3569－",
"Capacity":"－",
"la":"36.51313600000",
"ln":"140.54705700000"
},
"geometry":{
"type":"Point",
"coordinates":[
140.547057,
36.513136
]
}
},
{
"type":"Feature",
"properties":{
"Name":"西小沢児童クラブ",
"Jusho":"茨城県常陸太田市内田町1096",
"Capacity":"－",
"la":"36.51367739160",
"ln":"140.54766594200"
},
"geometry":{
"type":"Point",
"coordinates":[
140.547665942,
36.5136773916
]
}
},
{
"type":"Feature",
"properties":{
"Name":"太田公民館",
"Jusho":"茨城県常陸太田市中城町144－",
"Capacity":"－",
"la":"36.54566500000",
"ln":"140.52098700000"
},
"geometry":{
"type":"Point",
"coordinates":[
140.520987,
36.545665
]
}
},
{
"type":"Feature",
"properties":{
"Name":"太田市民ふれあいセンター",
"Jusho":"茨城県常陸太田市木崎一町1981-3",
"Capacity":"－",
"la":"36.53624700000",
"ln":"140.52505800000"
},
"geometry":{
"type":"Point",
"coordinates":[
140.525058,
36.536247
]
}
},
{
"type":"Feature",
"properties":{
"Name":"太田進徳幼稚園",
"Jusho":"茨城県常陸太田市内堀町256",
"Capacity":"－",
"la":"36.54420600000",
"ln":"140.52011100000"
},
"geometry":{
"type":"Point",
"coordinates":[
140.520111,
36.544206
]
}
},
{
"type":"Feature",
"properties":{
"Name":"太田第一高等学校",
"Jusho":"茨城県常陸太田市栄町58",
"Capacity":"－",
"la":"36.54909500000",
"ln":"140.52147200000"
},
"geometry":{
"type":"Point",
"coordinates":[
140.521472,
36.549095
]
}
},
{
"type":"Feature",
"properties":{
"Name":"太田第二高等学校",
"Jusho":"茨城県常陸太田市新宿町210",
"Capacity":"－",
"la":"36.53937300000",
"ln":"140.51700000000"
},
"geometry":{
"type":"Point",
"coordinates":[
140.517,
36.539373
]
}
},
{
"type":"Feature",
"properties":{
"Name":"誉田公民館",
"Jusho":"茨城県常陸太田市新宿町1283",
"Capacity":"－",
"la":"36.55414400000",
"ln":"140.51913500000"
},
"geometry":{
"type":"Point",
"coordinates":[
140.519135,
36.554144
]
}
},
{
"type":"Feature",
"properties":{
"Name":"サンスポーツランド高萩",
"Jusho":"茨城県高萩市下手綱2037-2",
"Capacity":"－",
"la":"36.72802332640",
"ln":"140.70833307200"
},
"geometry":{
"type":"Point",
"coordinates":[
140.708333072,
36.7280233264
]
}
},
{
"type":"Feature",
"properties":{
"Name":"リーベロたかはぎ",
"Jusho":"茨城県高萩市春日町3－0－6",
"Capacity":"－",
"la":"36.71879400000",
"ln":"140.71680400000"
},
"geometry":{
"type":"Point",
"coordinates":[
140.716804,
36.718794
]
}
},
{
"type":"Feature",
"properties":{
"Name":"横川生活改善センター",
"Jusho":"茨城県高萩市横川9－",
"Capacity":"－",
"la":"36.80211100000",
"ln":"140.64603200000"
},
"geometry":{
"type":"Point",
"coordinates":[
140.646032,
36.802111
]
}
},
{
"type":"Feature",
"properties":{
"Name":"下組生活改善センター",
"Jusho":"茨城県高萩市上手綱52",
"Capacity":"－",
"la":"36.73577200000",
"ln":"140.69995800000"
},
"geometry":{
"type":"Point",
"coordinates":[
140.699958,
36.735772
]
}
},
{
"type":"Feature",
"properties":{
"Name":"関口集会所",
"Jusho":"茨城県高萩市上手綱2807-9",
"Capacity":"－",
"la":"36.75410399910",
"ln":"140.67542900000"
},
"geometry":{
"type":"Point",
"coordinates":[
140.675429,
36.7541039991
]
}
},
{
"type":"Feature",
"properties":{
"Name":"勤労青少年ホーム",
"Jusho":"茨城県高萩市高浜町1-42",
"Capacity":"－",
"la":"36.70784000000",
"ln":"140.71789000000"
},
"geometry":{
"type":"Point",
"coordinates":[
140.71789,
36.70784
]
}
},
{
"type":"Feature",
"properties":{
"Name":"駒形集会所",
"Jusho":"茨城県高萩市安良川272－64",
"Capacity":"－",
"la":"36.71042500000",
"ln":"140.71526700000"
},
"geometry":{
"type":"Point",
"coordinates":[
140.715267,
36.710425
]
}
},
{
"type":"Feature",
"properties":{
"Name":"駒木原集会所",
"Jusho":"茨城県高萩市高萩790-2",
"Capacity":"－",
"la":"36.72273800000",
"ln":"140.69120300000"
},
"geometry":{
"type":"Point",
"coordinates":[
140.691203,
36.722738
]
}
},
{
"type":"Feature",
"properties":{
"Name":"向洋台集会所",
"Jusho":"茨城県高萩市島名2118-87",
"Capacity":"－",
"la":"36.71467500000",
"ln":"140.69348600000"
},
"geometry":{
"type":"Point",
"coordinates":[
140.693486,
36.714675
]
}
},
{
"type":"Feature",
"properties":{
"Name":"行人塚集会所",
"Jusho":"茨城県高萩市高戸192－",
"Capacity":"－",
"la":"36.72271300000",
"ln":"140.71624300000"
},
"geometry":{
"type":"Point",
"coordinates":[
140.716243,
36.722713
]
}
},
{
"type":"Feature",
"properties":{
"Name":"高戸集会所",
"Jusho":"茨城県高萩市高戸810-3",
"Capacity":"－",
"la":"36.72382200000",
"ln":"140.72435700000"
},
"geometry":{
"type":"Point",
"coordinates":[
140.724357,
36.723822
]
}
},
{
"type":"Feature",
"properties":{
"Name":"高萩高等学校",
"Jusho":"茨城県高萩市高萩1111",
"Capacity":"－",
"la":"36.71638500000",
"ln":"140.70692100000"
},
"geometry":{
"type":"Point",
"coordinates":[
140.706921,
36.716385
]
}
},
{
"type":"Feature",
"properties":{
"Name":"高萩市民センター",
"Jusho":"茨城県高萩市春日町2-22",
"Capacity":"－",
"la":"36.71467200000",
"ln":"140.71392100000"
},
"geometry":{
"type":"Point",
"coordinates":[
140.713921,
36.714672
]
}
},
{
"type":"Feature",
"properties":{
"Name":"高萩清松高等学校",
"Jusho":"茨城県高萩市赤浜1864",
"Capacity":"－",
"la":"36.73632800000",
"ln":"140.71642100000"
},
"geometry":{
"type":"Point",
"coordinates":[
140.716421,
36.736328
]
}
},
{
"type":"Feature",
"properties":{
"Name":"山手集落センター",
"Jusho":"茨城県高萩市高萩460-3",
"Capacity":"－",
"la":"36.72282600000",
"ln":"140.67805200000"
},
"geometry":{
"type":"Point",
"coordinates":[
140.678052,
36.722826
]
}
},
{
"type":"Feature",
"properties":{
"Name":"市民体育館",
"Jusho":"茨城県高萩市高萩17-4",
"Capacity":"－",
"la":"36.71270300000",
"ln":"140.70751600000"
},
"geometry":{
"type":"Point",
"coordinates":[
140.707516,
36.712703
]
}
},
{
"type":"Feature",
"properties":{
"Name":"若栗公民館",
"Jusho":"茨城県高萩市若栗227",
"Capacity":"－",
"la":"36.77172800000",
"ln":"140.63487300000"
},
"geometry":{
"type":"Point",
"coordinates":[
140.634873,
36.771728
]
}
},
{
"type":"Feature",
"properties":{
"Name":"秋山下生活改善センター",
"Jusho":"茨城県高萩市秋山1164",
"Capacity":"－",
"la":"36.70752200000",
"ln":"140.68389800000"
},
"geometry":{
"type":"Point",
"coordinates":[
140.683898,
36.707522
]
}
},
{
"type":"Feature",
"properties":{
"Name":"秋山生活改善センター",
"Jusho":"茨城県高萩市秋山806－",
"Capacity":"－",
"la":"36.71880700000",
"ln":"140.67744300000"
},
"geometry":{
"type":"Point",
"coordinates":[
140.677443,
36.718807
]
}
},
{
"type":"Feature",
"properties":{
"Name":"秋山中集会所",
"Jusho":"茨城県高萩市秋山625-5",
"Capacity":"－",
"la":"36.71622700000",
"ln":"140.68522600000"
},
"geometry":{
"type":"Point",
"coordinates":[
140.685226,
36.716227
]
}
},
{
"type":"Feature",
"properties":{
"Name":"秋山中集落センター",
"Jusho":"茨城県高萩市秋山1829",
"Capacity":"－",
"la":"36.71604100000",
"ln":"140.67746600000"
},
"geometry":{
"type":"Point",
"coordinates":[
140.677466,
36.716041
]
}
},
{
"type":"Feature",
"properties":{
"Name":"秋山南集会所",
"Jusho":"茨城県高萩市秋山2433-9",
"Capacity":"－",
"la":"36.70645300000",
"ln":"140.67313800000"
},
"geometry":{
"type":"Point",
"coordinates":[
140.673138,
36.706453
]
}
},
{
"type":"Feature",
"properties":{
"Name":"松岡地区公民館",
"Jusho":"茨城県高萩市下手綱787－",
"Capacity":"－",
"la":"36.73529800000",
"ln":"140.70721100000"
},
"geometry":{
"type":"Point",
"coordinates":[
140.707211,
36.735298
]
}
},
{
"type":"Feature",
"properties":{
"Name":"上君田生活改善センター",
"Jusho":"茨城県高萩市上君田715",
"Capacity":"－",
"la":"36.79803000000",
"ln":"140.57790600000"
},
"geometry":{
"type":"Point",
"coordinates":[
140.577906,
36.79803
]
}
},
{
"type":"Feature",
"properties":{
"Name":"上原集会所",
"Jusho":"茨城県高萩市上手綱3223－4",
"Capacity":"－",
"la":"36.74809300000",
"ln":"140.68787800000"
},
"geometry":{
"type":"Point",
"coordinates":[
140.687878,
36.748093
]
}
},
{
"type":"Feature",
"properties":{
"Name":"上手綱生活改善センター",
"Jusho":"茨城県高萩市上手綱1769-6",
"Capacity":"－",
"la":"36.73841300000",
"ln":"140.68287600000"
},
"geometry":{
"type":"Point",
"coordinates":[
140.682876,
36.738413
]
}
},
{
"type":"Feature",
"properties":{
"Name":"上島名千代町集会所",
"Jusho":"茨城県高萩市島名2253－42",
"Capacity":"－",
"la":"36.71618300000",
"ln":"140.68940600000"
},
"geometry":{
"type":"Point",
"coordinates":[
140.689406,
36.716183
]
}
},
{
"type":"Feature",
"properties":{
"Name":"石舟生活改善センター",
"Jusho":"茨城県高萩市上手綱3146－",
"Capacity":"－",
"la":"36.75022461270",
"ln":"140.68617278400"
},
"geometry":{
"type":"Point",
"coordinates":[
140.686172784,
36.7502246127
]
}
},
{
"type":"Feature",
"properties":{
"Name":"石滝上ノ台集会所",
"Jusho":"茨城県高萩市石滝2604-3",
"Capacity":"－",
"la":"36.69718000000",
"ln":"140.70635200000"
},
"geometry":{
"type":"Point",
"coordinates":[
140.706352,
36.69718
]
}
},
{
"type":"Feature",
"properties":{
"Name":"赤浜田園都市センター",
"Jusho":"茨城県高萩市赤浜1397－",
"Capacity":"－",
"la":"36.73920600000",
"ln":"140.72173700000"
},
"geometry":{
"type":"Point",
"coordinates":[
140.721737,
36.739206
]
}
},
{
"type":"Feature",
"properties":{
"Name":"千代田集会所",
"Jusho":"茨城県高萩市上手綱1911－",
"Capacity":"－",
"la":"36.74160062150",
"ln":"140.67755301600"
},
"geometry":{
"type":"Point",
"coordinates":[
140.677553016,
36.7416006215
]
}
},
{
"type":"Feature",
"properties":{
"Name":"総合福祉センター",
"Jusho":"茨城県高萩市春日町3－0",
"Capacity":"－",
"la":"36.71945799910",
"ln":"140.71685700000"
},
"geometry":{
"type":"Point",
"coordinates":[
140.716857,
36.7194579991
]
}
},
{
"type":"Feature",
"properties":{
"Name":"台高萩集会所",
"Jusho":"茨城県高萩市高萩903",
"Capacity":"－",
"la":"36.72236000000",
"ln":"140.70078300000"
},
"geometry":{
"type":"Point",
"coordinates":[
140.700783,
36.72236
]
}
},
{
"type":"Feature",
"properties":{
"Name":"大能生活改善センター",
"Jusho":"茨城県高萩市大能653",
"Capacity":"－",
"la":"36.74345500000",
"ln":"140.59304500000"
},
"geometry":{
"type":"Point",
"coordinates":[
140.593045,
36.743455
]
}
},
{
"type":"Feature",
"properties":{
"Name":"中央公民館",
"Jusho":"茨城県高萩市高萩17-3",
"Capacity":"－",
"la":"36.71270600000",
"ln":"140.70797700000"
},
"geometry":{
"type":"Point",
"coordinates":[
140.707977,
36.712706
]
}
},
{
"type":"Feature",
"properties":{
"Name":"中戸川公民館",
"Jusho":"茨城県高萩市中戸川1211",
"Capacity":"－",
"la":"36.72077199910",
"ln":"140.60965300000"
},
"geometry":{
"type":"Point",
"coordinates":[
140.609653,
36.7207719991
]
}
},
{
"type":"Feature",
"properties":{
"Name":"島名多目的研修会館",
"Jusho":"茨城県高萩市島名1606",
"Capacity":"－",
"la":"36.70782300000",
"ln":"140.69085600000"
},
"geometry":{
"type":"Point",
"coordinates":[
140.690856,
36.707823
]
}
},
{
"type":"Feature",
"properties":{
"Name":"肥前町集会所",
"Jusho":"茨城県高萩市肥前町2－-2",
"Capacity":"－",
"la":"36.71859100000",
"ln":"140.71999900000"
},
"geometry":{
"type":"Point",
"coordinates":[
140.719999,
36.718591
]
}
},
{
"type":"Feature",
"properties":{
"Name":"文化会館",
"Jusho":"茨城県高萩市高萩6",
"Capacity":"－",
"la":"36.71187500000",
"ln":"140.70748000000"
},
"geometry":{
"type":"Point",
"coordinates":[
140.70748,
36.711875
]
}
},
{
"type":"Feature",
"properties":{
"Name":"北組コミュニティセンター",
"Jusho":"茨城県高萩市上手綱2485－",
"Capacity":"－",
"la":"36.73899500000",
"ln":"140.68994100000"
},
"geometry":{
"type":"Point",
"coordinates":[
140.689941,
36.738995
]
}
},
{
"type":"Feature",
"properties":{
"Name":"有明町集会所",
"Jusho":"茨城県高萩市有明町2－3－",
"Capacity":"－",
"la":"36.71107000000",
"ln":"140.71901200000"
},
"geometry":{
"type":"Point",
"coordinates":[
140.719012,
36.71107
]
}
},
{
"type":"Feature",
"properties":{
"Name":"緑の郷コミュニティセンター",
"Jusho":"茨城県高萩市下君田755",
"Capacity":"－",
"la":"36.80982518540",
"ln":"140.58962904600"
},
"geometry":{
"type":"Point",
"coordinates":[
140.589629046,
36.8098251854
]
}
},
{
"type":"Feature",
"properties":{
"Name":"和野集会所",
"Jusho":"茨城県高萩市秋山83－",
"Capacity":"－",
"la":"36.73015300000",
"ln":"140.67527400000"
},
"geometry":{
"type":"Point",
"coordinates":[
140.675274,
36.730153
]
}
},
{
"type":"Feature",
"properties":{
"Name":"マウントあかね",
"Jusho":"茨城県北茨城市華川町小豆畑2747",
"Capacity":"－",
"la":"36.83785900000",
"ln":"140.69127800000"
},
"geometry":{
"type":"Point",
"coordinates":[
140.691278,
36.837859
]
}
},
{
"type":"Feature",
"properties":{
"Name":"磯原高等学校",
"Jusho":"茨城県北茨城市磯原町磯原912",
"Capacity":"－",
"la":"36.79579500000",
"ln":"140.74316900000"
},
"geometry":{
"type":"Point",
"coordinates":[
140.743169,
36.795795
]
}
},
{
"type":"Feature",
"properties":{
"Name":"花園地域交流センター",
"Jusho":"茨城県北茨城市華川町花園441-3",
"Capacity":"－",
"la":"36.86456692170",
"ln":"140.64392834800"
},
"geometry":{
"type":"Point",
"coordinates":[
140.643928348,
36.8645669217
]
}
},
{
"type":"Feature",
"properties":{
"Name":"華川町公民館",
"Jusho":"茨城県北茨城市華川町小豆畑912-2",
"Capacity":"－",
"la":"36.82001900000",
"ln":"140.71163600000"
},
"geometry":{
"type":"Point",
"coordinates":[
140.711636,
36.820019
]
}
},
{
"type":"Feature",
"properties":{
"Name":"華川町公民館水沼分館",
"Jusho":"茨城県北茨城市華川町花園686",
"Capacity":"－",
"la":"36.86189300000",
"ln":"140.65522500000"
},
"geometry":{
"type":"Point",
"coordinates":[
140.655225,
36.861893
]
}
},
{
"type":"Feature",
"properties":{
"Name":"関南多目的集会所",
"Jusho":"茨城県北茨城市関南町関本下674",
"Capacity":"－",
"la":"36.83432500000",
"ln":"140.77263500000"
},
"geometry":{
"type":"Point",
"coordinates":[
140.772635,
36.834325
]
}
},
{
"type":"Feature",
"properties":{
"Name":"関南町公民館",
"Jusho":"茨城県北茨城市関南町里根川10-7",
"Capacity":"－",
"la":"36.83707200000",
"ln":"140.77981500000"
},
"geometry":{
"type":"Point",
"coordinates":[
140.779815,
36.837072
]
}
},
{
"type":"Feature",
"properties":{
"Name":"関本多目的研修集会所",
"Jusho":"茨城県北茨城市関本町関本上582－",
"Capacity":"－",
"la":"36.85890640530",
"ln":"140.74960487000"
},
"geometry":{
"type":"Point",
"coordinates":[
140.74960487,
36.8589064053
]
}
},
{
"type":"Feature",
"properties":{
"Name":"腰越集会所（公民館）",
"Jusho":"茨城県北茨城市華川町小豆畑1606－",
"Capacity":"－",
"la":"36.84540455110",
"ln":"140.67392646400"
},
"geometry":{
"type":"Point",
"coordinates":[
140.673926464,
36.8454045511
]
}
},
{
"type":"Feature",
"properties":{
"Name":"才丸農村集落センター",
"Jusho":"茨城県北茨城市関本町才丸528",
"Capacity":"－",
"la":"36.88165500000",
"ln":"140.65468500000"
},
"geometry":{
"type":"Point",
"coordinates":[
140.654685,
36.881655
]
}
},
{
"type":"Feature",
"properties":{
"Name":"市民ふれあいセンター",
"Jusho":"茨城県北茨城市磯原町本町2-5－5",
"Capacity":"－",
"la":"36.78850010380",
"ln":"140.74632730900"
},
"geometry":{
"type":"Point",
"coordinates":[
140.746327309,
36.7885001038
]
}
},
{
"type":"Feature",
"properties":{
"Name":"市民体育館",
"Jusho":"茨城県北茨城市磯原町磯原1630-9",
"Capacity":"－",
"la":"36.80086200000",
"ln":"140.75349000000"
},
"geometry":{
"type":"Point",
"coordinates":[
140.75349,
36.800862
]
}
},
{
"type":"Feature",
"properties":{
"Name":"汐見ヶ丘望海会館",
"Jusho":"茨城県北茨城市中郷町汐見ヶ丘2－259-268",
"Capacity":"－",
"la":"36.76090836330",
"ln":"140.73442671200"
},
"geometry":{
"type":"Point",
"coordinates":[
140.734426712,
36.7609083633
]
}
},
{
"type":"Feature",
"properties":{
"Name":"小川田園都市センター",
"Jusho":"茨城県北茨城市関本町小川318-2",
"Capacity":"－",
"la":"36.91746800000",
"ln":"140.58190848500"
},
"geometry":{
"type":"Point",
"coordinates":[
140.581908485,
36.917468
]
}
},
{
"type":"Feature",
"properties":{
"Name":"心身障害者第一福祉センター",
"Jusho":"茨城県北茨城市華川町臼場187-27",
"Capacity":"－",
"la":"36.79786919380",
"ln":"140.73864264900"
},
"geometry":{
"type":"Point",
"coordinates":[
140.738642649,
36.7978691938
]
}
},
{
"type":"Feature",
"properties":{
"Name":"心身障害者第二福祉センター",
"Jusho":"茨城県北茨城市華川町下小津田797－",
"Capacity":"－",
"la":"36.82322200000",
"ln":"140.72609400000"
},
"geometry":{
"type":"Point",
"coordinates":[
140.726094,
36.823222
]
}
},
{
"type":"Feature",
"properties":{
"Name":"大津漁村センター",
"Jusho":"茨城県北茨城市大津町2650地先",
"Capacity":"－",
"la":"36.83013099910",
"ln":"140.78647600000"
},
"geometry":{
"type":"Point",
"coordinates":[
140.786476,
36.8301309991
]
}
},
{
"type":"Feature",
"properties":{
"Name":"大津町公民館",
"Jusho":"茨城県北茨城市大津町90",
"Capacity":"－",
"la":"36.83109200000",
"ln":"140.79029600000"
},
"geometry":{
"type":"Point",
"coordinates":[
140.790296,
36.831092
]
}
},
{
"type":"Feature",
"properties":{
"Name":"中郷多目的集会所",
"Jusho":"茨城県北茨城市中郷町上桜井844－",
"Capacity":"－",
"la":"36.78051266460",
"ln":"140.73198207300"
},
"geometry":{
"type":"Point",
"coordinates":[
140.731982073,
36.7805126646
]
}
},
{
"type":"Feature",
"properties":{
"Name":"唐虫農村集落センター",
"Jusho":"茨城県北茨城市華川町上小津田1685-31",
"Capacity":"－",
"la":"36.83830900000",
"ln":"140.71180500000"
},
"geometry":{
"type":"Point",
"coordinates":[
140.711805,
36.838309
]
}
},
{
"type":"Feature",
"properties":{
"Name":"平潟町公民館",
"Jusho":"茨城県北茨城市平潟町538",
"Capacity":"－",
"la":"36.85640300000",
"ln":"140.79203500000"
},
"geometry":{
"type":"Point",
"coordinates":[
140.792035,
36.856403
]
}
},
{
"type":"Feature",
"properties":{
"Name":"保健センター",
"Jusho":"茨城県北茨城市華川町臼場187-27",
"Capacity":"－",
"la":"36.79805000000",
"ln":"140.73819700000"
},
"geometry":{
"type":"Point",
"coordinates":[
140.738197,
36.79805
]
}
},
{
"type":"Feature",
"properties":{
"Name":"防災コミュニティセンター",
"Jusho":"茨城県北茨城市磯原町磯原198-8",
"Capacity":"－",
"la":"36.79571500000",
"ln":"140.75609600000"
},
"geometry":{
"type":"Point",
"coordinates":[
140.756096,
36.795715
]
}
},
{
"type":"Feature",
"properties":{
"Name":"北茨城高等学校",
"Jusho":"茨城県北茨城市関南町関本下1059",
"Capacity":"－",
"la":"36.84312300000",
"ln":"140.77024800000"
},
"geometry":{
"type":"Point",
"coordinates":[
140.770248,
36.843123
]
}
},
{
"type":"Feature",
"properties":{
"Name":"北茨城養護学校",
"Jusho":"茨城県北茨城市中郷町小野矢指1657",
"Capacity":"－",
"la":"36.75038200000",
"ln":"140.73239200000"
},
"geometry":{
"type":"Point",
"coordinates":[
140.732392,
36.750382
]
}
},
{
"type":"Feature",
"properties":{
"Name":"木皿シルバーコミュニティセンター",
"Jusho":"茨城県北茨城市磯原町木皿855－",
"Capacity":"－",
"la":"36.79331200000",
"ln":"140.71045200000"
},
"geometry":{
"type":"Point",
"coordinates":[
140.710452,
36.793312
]
}
},
{
"type":"Feature",
"properties":{
"Name":"老人福祉センターライト",
"Jusho":"茨城県北茨城市華川町臼場187-27",
"Capacity":"－",
"la":"36.79813100000",
"ln":"140.73886800000"
},
"geometry":{
"type":"Point",
"coordinates":[
140.738868,
36.798131
]
}
},
{
"type":"Feature",
"properties":{
"Name":"いこいの家はなさか",
"Jusho":"茨城県笠間市橋爪586番地4",
"Capacity":"－",
"la":"36.33483700000",
"ln":"140.29250400000"
},
"geometry":{
"type":"Point",
"coordinates":[
140.292504,
36.334837
]
}
},
{
"type":"Feature",
"properties":{
"Name":"ゆかいふれあいセンター",
"Jusho":"茨城県笠間市仁古田長兎路入会地1番地171",
"Capacity":"－",
"la":"36.31247200000",
"ln":"140.36921800000"
},
"geometry":{
"type":"Point",
"coordinates":[
140.369218,
36.312472
]
}
},
{
"type":"Feature",
"properties":{
"Name":"笠間公民館",
"Jusho":"茨城県笠間市石井2068番地1",
"Capacity":"－",
"la":"36.38599700000",
"ln":"140.24626400000"
},
"geometry":{
"type":"Point",
"coordinates":[
140.246264,
36.385997
]
}
},
{
"type":"Feature",
"properties":{
"Name":"笠間市民体育館",
"Jusho":"茨城県笠間市石井2068番地1",
"Capacity":"－",
"la":"36.38529800000",
"ln":"140.24639500000"
},
"geometry":{
"type":"Point",
"coordinates":[
140.246395,
36.385298
]
}
},
{
"type":"Feature",
"properties":{
"Name":"岩間海洋センター",
"Jusho":"茨城県笠間市押辺2259番地1",
"Capacity":"－",
"la":"36.29081700000",
"ln":"140.31086100000"
},
"geometry":{
"type":"Point",
"coordinates":[
140.310861,
36.290817
]
}
},
{
"type":"Feature",
"properties":{
"Name":"県立笠間高等学校",
"Jusho":"茨城県笠間市笠間1668番地",
"Capacity":"－",
"la":"36.38016300000",
"ln":"140.24697500000"
},
"geometry":{
"type":"Point",
"coordinates":[
140.246975,
36.380163
]
}
},
{
"type":"Feature",
"properties":{
"Name":"県立友部高等学校",
"Jusho":"茨城県笠間市大田町352番地15",
"Capacity":"－",
"la":"36.35094600000",
"ln":"140.28799900000"
},
"geometry":{
"type":"Point",
"coordinates":[
140.287999,
36.350946
]
}
},
{
"type":"Feature",
"properties":{
"Name":"武道館",
"Jusho":"茨城県笠間市石井2068番地1",
"Capacity":"－",
"la":"36.38483366390",
"ln":"140.24574574400"
},
"geometry":{
"type":"Point",
"coordinates":[
140.245745744,
36.3848336639
]
}
},
{
"type":"Feature",
"properties":{
"Name":"友部公民館",
"Jusho":"茨城県笠間市中央3丁目3番6号",
"Capacity":"－",
"la":"36.34459200000",
"ln":"140.30370400000"
},
"geometry":{
"type":"Point",
"coordinates":[
140.303704,
36.344592
]
}
},
{
"type":"Feature",
"properties":{
"Name":"県南総合防災センター",
"Jusho":"茨城県取手市椚木103",
"Capacity":"－",
"la":"35.93045926320",
"ln":"140.10026347800"
},
"geometry":{
"type":"Point",
"coordinates":[
140.100263478,
35.9304592632
]
}
},
{
"type":"Feature",
"properties":{
"Name":"江戸川学園取手中・高等学校",
"Jusho":"茨城県取手市西1-37－",
"Capacity":"－",
"la":"35.90318600000",
"ln":"140.04126100000"
},
"geometry":{
"type":"Point",
"coordinates":[
140.041261,
35.903186
]
}
},
{
"type":"Feature",
"properties":{
"Name":"市之代集会所",
"Jusho":"茨城県取手市市之代499－",
"Capacity":"－",
"la":"35.94904659600",
"ln":"140.02263300000"
},
"geometry":{
"type":"Point",
"coordinates":[
140.022633,
35.949046596
]
}
},
{
"type":"Feature",
"properties":{
"Name":"取手競輪場",
"Jusho":"茨城県取手市白山6-2",
"Capacity":"－",
"la":"35.90182730800",
"ln":"140.05643595600"
},
"geometry":{
"type":"Point",
"coordinates":[
140.056435956,
35.901827308
]
}
},
{
"type":"Feature",
"properties":{
"Name":"取手松陽高等学校",
"Jusho":"茨城県取手市小文間4770",
"Capacity":"－",
"la":"35.87935800000",
"ln":"140.12250300000"
},
"geometry":{
"type":"Point",
"coordinates":[
140.122503,
35.879358
]
}
},
{
"type":"Feature",
"properties":{
"Name":"取手第一高等学校",
"Jusho":"茨城県取手市台宿2-4－",
"Capacity":"－",
"la":"35.89771600000",
"ln":"140.06623100000"
},
"geometry":{
"type":"Point",
"coordinates":[
140.066231,
35.897716
]
}
},
{
"type":"Feature",
"properties":{
"Name":"取手第二高等学校",
"Jusho":"茨城県取手市東2-5－",
"Capacity":"－",
"la":"35.89143900000",
"ln":"140.06870300000"
},
"geometry":{
"type":"Point",
"coordinates":[
140.068703,
35.891439
]
}
},
{
"type":"Feature",
"properties":{
"Name":"小堀集会所",
"Jusho":"茨城県取手市小堀3894－",
"Capacity":"－",
"la":"35.87989970130",
"ln":"140.07415340600"
},
"geometry":{
"type":"Point",
"coordinates":[
140.074153406,
35.8798997013
]
}
},
{
"type":"Feature",
"properties":{
"Name":"藤代スポーツセンター",
"Jusho":"茨城県取手市椚木15",
"Capacity":"－",
"la":"35.93127700000",
"ln":"140.09349200000"
},
"geometry":{
"type":"Point",
"coordinates":[
140.093492,
35.931277
]
}
},
{
"type":"Feature",
"properties":{
"Name":"藤代高等学校",
"Jusho":"茨城県取手市毛有640",
"Capacity":"－",
"la":"35.91065900000",
"ln":"140.08586800000"
},
"geometry":{
"type":"Point",
"coordinates":[
140.085868,
35.910659
]
}
},
{
"type":"Feature",
"properties":{
"Name":"藤代紫水高校",
"Jusho":"茨城県取手市浜田660",
"Capacity":"－",
"la":"35.93804500000",
"ln":"140.09342100000"
},
"geometry":{
"type":"Point",
"coordinates":[
140.093421,
35.938045
]
}
},
{
"type":"Feature",
"properties":{
"Name":"北浦川緑地",
"Jusho":"茨城県取手市中田",
"Capacity":"－",
"la":"35.90806936000",
"ln":"140.11522724000"
},
"geometry":{
"type":"Point",
"coordinates":[
140.11522724,
35.90806936
]
}
},
{
"type":"Feature",
"properties":{
"Name":"かわはら台自治会館",
"Jusho":"茨城県牛久市神谷1－1－2",
"Capacity":"－",
"la":"35.97407912210",
"ln":"140.15263013600"
},
"geometry":{
"type":"Point",
"coordinates":[
140.152630136,
35.9740791221
]
}
},
{
"type":"Feature",
"properties":{
"Name":"つつじヶ丘区民館",
"Jusho":"茨城県牛久市田宮町518－6",
"Capacity":"－",
"la":"35.97826156490",
"ln":"140.13329214900"
},
"geometry":{
"type":"Point",
"coordinates":[
140.133292149,
35.9782615649
]
}
},
{
"type":"Feature",
"properties":{
"Name":"びゅうパルクひたち野タウンセンター",
"Jusho":"茨城県牛久市ひたち野東108－",
"Capacity":"－",
"la":"36.00329009790",
"ln":"140.15934814300"
},
"geometry":{
"type":"Point",
"coordinates":[
140.159348143,
36.0032900979
]
}
},
{
"type":"Feature",
"properties":{
"Name":"みどり野区民会館",
"Jusho":"茨城県牛久市南4-37－0",
"Capacity":"－",
"la":"35.96607100000",
"ln":"140.14464100000"
},
"geometry":{
"type":"Point",
"coordinates":[
140.144641,
35.966071
]
}
},
{
"type":"Feature",
"properties":{
"Name":"むつみ会館",
"Jusho":"茨城県牛久市上柏田1－9-2",
"Capacity":"－",
"la":"35.99406500000",
"ln":"140.15184200000"
},
"geometry":{
"type":"Point",
"coordinates":[
140.151842,
35.994065
]
}
},
{
"type":"Feature",
"properties":{
"Name":"井ノ岡公会堂",
"Jusho":"茨城県牛久市井ノ岡町2640-3他",
"Capacity":"－",
"la":"35.96122400000",
"ln":"140.24755400000"
},
"geometry":{
"type":"Point",
"coordinates":[
140.247554,
35.961224
]
}
},
{
"type":"Feature",
"properties":{
"Name":"一厚公民館",
"Jusho":"茨城県牛久市猪子町992-692",
"Capacity":"－",
"la":"35.99222300000",
"ln":"140.13976300000"
},
"geometry":{
"type":"Point",
"coordinates":[
140.139763,
35.992223
]
}
},
{
"type":"Feature",
"properties":{
"Name":"栄西集会所",
"Jusho":"茨城県牛久市栄町1-56-65",
"Capacity":"－",
"la":"35.98881500000",
"ln":"140.14865100000"
},
"geometry":{
"type":"Point",
"coordinates":[
140.148651,
35.988815
]
}
},
{
"type":"Feature",
"properties":{
"Name":"栄町区民会館",
"Jusho":"茨城県牛久市神谷1-2－",
"Capacity":"－",
"la":"35.97608612790",
"ln":"140.15254015800"
},
"geometry":{
"type":"Point",
"coordinates":[
140.152540158,
35.9760861279
]
}
},
{
"type":"Feature",
"properties":{
"Name":"奥原公会堂",
"Jusho":"茨城県牛久市奥原町2219",
"Capacity":"－",
"la":"35.94509400000",
"ln":"140.25176300000"
},
"geometry":{
"type":"Point",
"coordinates":[
140.251763,
35.945094
]
}
},
{
"type":"Feature",
"properties":{
"Name":"岡見会館",
"Jusho":"茨城県牛久市岡見町1453-9",
"Capacity":"－",
"la":"35.97624725370",
"ln":"140.17631572400"
},
"geometry":{
"type":"Point",
"coordinates":[
140.176315724,
35.9762472537
]
}
},
{
"type":"Feature",
"properties":{
"Name":"下根ヶ丘自治会館",
"Jusho":"茨城県牛久市下根町1305-2、3",
"Capacity":"－",
"la":"35.98874100000",
"ln":"140.17146600000"
},
"geometry":{
"type":"Point",
"coordinates":[
140.171466,
35.988741
]
}
},
{
"type":"Feature",
"properties":{
"Name":"下根区民会館",
"Jusho":"茨城県牛久市下根町787",
"Capacity":"－",
"la":"35.99858736000",
"ln":"140.16315232800"
},
"geometry":{
"type":"Point",
"coordinates":[
140.163152328,
35.99858736
]
}
},
{
"type":"Feature",
"properties":{
"Name":"下町自治会館",
"Jusho":"茨城県牛久市牛久町29－",
"Capacity":"－",
"la":"35.96302776010",
"ln":"140.13891940600"
},
"geometry":{
"type":"Point",
"coordinates":[
140.138919406,
35.9630277601
]
}
},
{
"type":"Feature",
"properties":{
"Name":"下柏田会館",
"Jusho":"茨城県牛久市柏田町267-3",
"Capacity":"－",
"la":"35.97199472020",
"ln":"140.16582888400"
},
"geometry":{
"type":"Point",
"coordinates":[
140.165828884,
35.9719947202
]
}
},
{
"type":"Feature",
"properties":{
"Name":"刈谷自治会館",
"Jusho":"茨城県牛久市刈谷町1－76-2",
"Capacity":"－",
"la":"35.97285300000",
"ln":"140.12499500000"
},
"geometry":{
"type":"Point",
"coordinates":[
140.124995,
35.972853
]
}
},
{
"type":"Feature",
"properties":{
"Name":"久野公会堂",
"Jusho":"茨城県牛久市久野町1277",
"Capacity":"－",
"la":"35.96968620180",
"ln":"140.22481495600"
},
"geometry":{
"type":"Point",
"coordinates":[
140.224814956,
35.9696862018
]
}
},
{
"type":"Feature",
"properties":{
"Name":"牛久栄進高等学校",
"Jusho":"茨城県牛久市東猯穴町876",
"Capacity":"－",
"la":"36.01942500000",
"ln":"140.14441400000"
},
"geometry":{
"type":"Point",
"coordinates":[
140.144414,
36.019425
]
}
},
{
"type":"Feature",
"properties":{
"Name":"牛久高等学校",
"Jusho":"茨城県牛久市岡見町2081－",
"Capacity":"－",
"la":"35.98529000000",
"ln":"140.16821800000"
},
"geometry":{
"type":"Point",
"coordinates":[
140.168218,
35.98529
]
}
},
{
"type":"Feature",
"properties":{
"Name":"牛久市総合福祉センター",
"Jusho":"茨城県牛久市女化町859-3",
"Capacity":"－",
"la":"35.95854199910",
"ln":"140.18447300000"
},
"geometry":{
"type":"Point",
"coordinates":[
140.184473,
35.9585419991
]
}
},
{
"type":"Feature",
"properties":{
"Name":"牛久市中央生涯学習センター",
"Jusho":"茨城県牛久市柏田町1606－",
"Capacity":"－",
"la":"35.98195300000",
"ln":"140.15486200000"
},
"geometry":{
"type":"Point",
"coordinates":[
140.154862,
35.981953
]
}
},
{
"type":"Feature",
"properties":{
"Name":"桂区民会館",
"Jusho":"茨城県牛久市桂町727-2",
"Capacity":"－",
"la":"35.97348100000",
"ln":"140.24047600000"
},
"geometry":{
"type":"Point",
"coordinates":[
140.240476,
35.973481
]
}
},
{
"type":"Feature",
"properties":{
"Name":"向原区民会館",
"Jusho":"茨城県牛久市小坂町字鹿ヶ作3389－",
"Capacity":"－",
"la":"35.97207137310",
"ln":"140.19733802700"
},
"geometry":{
"type":"Point",
"coordinates":[
140.197338027,
35.9720713731
]
}
},
{
"type":"Feature",
"properties":{
"Name":"向台自治会館",
"Jusho":"茨城県牛久市牛久町字甲塚1214-9",
"Capacity":"－",
"la":"35.96016479850",
"ln":"140.14710354000"
},
"geometry":{
"type":"Point",
"coordinates":[
140.14710354,
35.9601647985
]
}
},
{
"type":"Feature",
"properties":{
"Name":"秋住団地自治会館",
"Jusho":"茨城県牛久市刈谷2－88-83",
"Capacity":"－",
"la":"35.97280554430",
"ln":"140.13171418800"
},
"geometry":{
"type":"Point",
"coordinates":[
140.131714188,
35.9728055443
]
}
},
{
"type":"Feature",
"properties":{
"Name":"女化区民会館",
"Jusho":"茨城県牛久市女化町391－",
"Capacity":"－",
"la":"35.94931300000",
"ln":"140.17150200000"
},
"geometry":{
"type":"Point",
"coordinates":[
140.171502,
35.949313
]
}
},
{
"type":"Feature",
"properties":{
"Name":"女化西区民会館",
"Jusho":"茨城県牛久市さくら台3-28－7",
"Capacity":"－",
"la":"35.96000500000",
"ln":"140.16129800000"
},
"geometry":{
"type":"Point",
"coordinates":[
140.161298,
35.960005
]
}
},
{
"type":"Feature",
"properties":{
"Name":"小坂ふるさとコミュニティセンター",
"Jusho":"茨城県牛久市小坂町2593－",
"Capacity":"－",
"la":"35.96177800000",
"ln":"140.20729000000"
},
"geometry":{
"type":"Point",
"coordinates":[
140.20729,
35.961778
]
}
},
{
"type":"Feature",
"properties":{
"Name":"小坂団地区民会館",
"Jusho":"茨城県牛久市小坂町3392－7",
"Capacity":"－",
"la":"35.97180745680",
"ln":"140.19645007600"
},
"geometry":{
"type":"Point",
"coordinates":[
140.196450076,
35.9718074568
]
}
},
{
"type":"Feature",
"properties":{
"Name":"松ケ丘自治会館",
"Jusho":"茨城県牛久市上柏田4-25－5",
"Capacity":"－",
"la":"35.98632381010",
"ln":"140.15794285600"
},
"geometry":{
"type":"Point",
"coordinates":[
140.157942856,
35.9863238101
]
}
},
{
"type":"Feature",
"properties":{
"Name":"上太田会館",
"Jusho":"茨城県牛久市上太田町573",
"Capacity":"－",
"la":"35.96324174710",
"ln":"140.18756836900"
},
"geometry":{
"type":"Point",
"coordinates":[
140.187568369,
35.9632417471
]
}
},
{
"type":"Feature",
"properties":{
"Name":"上池台会館",
"Jusho":"茨城県牛久市岡見町2075-3",
"Capacity":"－",
"la":"35.98681634970",
"ln":"140.16756624900"
},
"geometry":{
"type":"Point",
"coordinates":[
140.167566249,
35.9868163497
]
}
},
{
"type":"Feature",
"properties":{
"Name":"上町区民会館",
"Jusho":"茨城県牛久市牛久町1－",
"Capacity":"－",
"la":"35.96575557810",
"ln":"140.13684076800"
},
"geometry":{
"type":"Point",
"coordinates":[
140.136840768,
35.9657555781
]
}
},
{
"type":"Feature",
"properties":{
"Name":"上柏田区民会館",
"Jusho":"茨城県牛久市上柏田3-8－",
"Capacity":"－",
"la":"35.99230676950",
"ln":"140.16163771000"
},
"geometry":{
"type":"Point",
"coordinates":[
140.16163771,
35.9923067695
]
}
},
{
"type":"Feature",
"properties":{
"Name":"城中区民会館",
"Jusho":"茨城県牛久市城中町244",
"Capacity":"－",
"la":"35.95763471300",
"ln":"140.13149902800"
},
"geometry":{
"type":"Point",
"coordinates":[
140.131499028,
35.957634713
]
}
},
{
"type":"Feature",
"properties":{
"Name":"新地公会堂",
"Jusho":"茨城県牛久市新地町194",
"Capacity":"－",
"la":"35.96188885690",
"ln":"140.12183936200"
},
"geometry":{
"type":"Point",
"coordinates":[
140.121839362,
35.9618888569
]
}
},
{
"type":"Feature",
"properties":{
"Name":"神谷区公会堂",
"Jusho":"茨城県牛久市神谷2-21-3",
"Capacity":"－",
"la":"35.96714100000",
"ln":"140.15372100000"
},
"geometry":{
"type":"Point",
"coordinates":[
140.153721,
35.967141
]
}
},
{
"type":"Feature",
"properties":{
"Name":"神谷二区区民会館",
"Jusho":"茨城県牛久市田宮2-36-6",
"Capacity":"－",
"la":"35.98486443230",
"ln":"140.14254443600"
},
"geometry":{
"type":"Point",
"coordinates":[
140.142544436,
35.9848644323
]
}
},
{
"type":"Feature",
"properties":{
"Name":"成井公会堂",
"Jusho":"茨城県牛久市城中町1277",
"Capacity":"－",
"la":"35.94921700000",
"ln":"140.14718000000"
},
"geometry":{
"type":"Point",
"coordinates":[
140.14718,
35.949217
]
}
},
{
"type":"Feature",
"properties":{
"Name":"正直公会堂",
"Jusho":"茨城県牛久市正直町1155",
"Capacity":"－",
"la":"35.95348133000",
"ln":"140.22210460800"
},
"geometry":{
"type":"Point",
"coordinates":[
140.222104608,
35.95348133
]
}
},
{
"type":"Feature",
"properties":{
"Name":"大中公民館",
"Jusho":"茨城県牛久市中根町382",
"Capacity":"－",
"la":"36.00352729930",
"ln":"140.15583752100"
},
"geometry":{
"type":"Point",
"coordinates":[
140.155837521,
36.0035272993
]
}
},
{
"type":"Feature",
"properties":{
"Name":"大和田公会堂",
"Jusho":"茨城県牛久市久野町432－",
"Capacity":"－",
"la":"35.95960057110",
"ln":"140.23714442000"
},
"geometry":{
"type":"Point",
"coordinates":[
140.23714442,
35.9596005711
]
}
},
{
"type":"Feature",
"properties":{
"Name":"第８岡見自治会館",
"Jusho":"茨城県牛久市岡見町2792-31",
"Capacity":"－",
"la":"35.98703650340",
"ln":"140.17776882600"
},
"geometry":{
"type":"Point",
"coordinates":[
140.177768826,
35.9870365034
]
}
},
{
"type":"Feature",
"properties":{
"Name":"竹の台自治会館",
"Jusho":"茨城県牛久市上柏田1－5-7",
"Capacity":"－",
"la":"35.99376200000",
"ln":"140.15543100000"
},
"geometry":{
"type":"Point",
"coordinates":[
140.155431,
35.993762
]
}
},
{
"type":"Feature",
"properties":{
"Name":"中央公会堂",
"Jusho":"茨城県牛久市久野町690－",
"Capacity":"－",
"la":"35.96069699930",
"ln":"140.22738558900"
},
"geometry":{
"type":"Point",
"coordinates":[
140.227385589,
35.9606969993
]
}
},
{
"type":"Feature",
"properties":{
"Name":"中柏田区公会堂",
"Jusho":"茨城県牛久市柏田町大日堂1506",
"Capacity":"－",
"la":"35.98142806250",
"ln":"140.16009932500"
},
"geometry":{
"type":"Point",
"coordinates":[
140.160099325,
35.9814280625
]
}
},
{
"type":"Feature",
"properties":{
"Name":"猪子区民会館",
"Jusho":"茨城県牛久市猪子町9",
"Capacity":"－",
"la":"35.99515300000",
"ln":"140.14895400000"
},
"geometry":{
"type":"Point",
"coordinates":[
140.148954,
35.995153
]
}
},
{
"type":"Feature",
"properties":{
"Name":"田宮区民会館",
"Jusho":"茨城県牛久市田宮町1084-3",
"Capacity":"－",
"la":"35.98496449500",
"ln":"140.13748353600"
},
"geometry":{
"type":"Point",
"coordinates":[
140.137483536,
35.984964495
]
}
},
{
"type":"Feature",
"properties":{
"Name":"島田公会堂",
"Jusho":"茨城県牛久市島田町1750",
"Capacity":"－",
"la":"35.95118226900",
"ln":"140.23551269100"
},
"geometry":{
"type":"Point",
"coordinates":[
140.235512691,
35.951182269
]
}
},
{
"type":"Feature",
"properties":{
"Name":"東みどり野区民会館",
"Jusho":"茨城県牛久市南4－0－8",
"Capacity":"－",
"la":"35.96661600000",
"ln":"140.14701100000"
},
"geometry":{
"type":"Point",
"coordinates":[
140.147011,
35.966616
]
}
},
{
"type":"Feature",
"properties":{
"Name":"東岡見区民会館",
"Jusho":"茨城県牛久市岡見町971－",
"Capacity":"－",
"la":"35.97033938210",
"ln":"140.18503201400"
},
"geometry":{
"type":"Point",
"coordinates":[
140.185032014,
35.9703393821
]
}
},
{
"type":"Feature",
"properties":{
"Name":"東下根区民館",
"Jusho":"茨城県牛久市下根町1322-80",
"Capacity":"－",
"la":"35.99377292510",
"ln":"140.17692028500"
},
"geometry":{
"type":"Point",
"coordinates":[
140.176920285,
35.9937729251
]
}
},
{
"type":"Feature",
"properties":{
"Name":"東区会館",
"Jusho":"茨城県牛久市南2-23-2",
"Capacity":"－",
"la":"35.97177929340",
"ln":"140.14419605800"
},
"geometry":{
"type":"Point",
"coordinates":[
140.144196058,
35.9717792934
]
}
},
{
"type":"Feature",
"properties":{
"Name":"東洋大附属牛久高等学校",
"Jusho":"茨城県牛久市柏田町1360-2",
"Capacity":"－",
"la":"35.97943000000",
"ln":"140.16096900000"
},
"geometry":{
"type":"Point",
"coordinates":[
140.160969,
35.97943
]
}
},
{
"type":"Feature",
"properties":{
"Name":"東猯穴公会堂",
"Jusho":"茨城県牛久市東猯穴町字寺町609－",
"Capacity":"－",
"la":"36.01475899560",
"ln":"140.14725767400"
},
"geometry":{
"type":"Point",
"coordinates":[
140.147257674,
36.0147589956
]
}
},
{
"type":"Feature",
"properties":{
"Name":"柏田台集会所",
"Jusho":"茨城県牛久市さくら台2-6-2",
"Capacity":"－",
"la":"35.96236204730",
"ln":"140.15944869600"
},
"geometry":{
"type":"Point",
"coordinates":[
140.159448696,
35.9623620473
]
}
},
{
"type":"Feature",
"properties":{
"Name":"報徳公民館",
"Jusho":"茨城県牛久市桂町2656-4",
"Capacity":"－",
"la":"35.98144400000",
"ln":"140.25065300000"
},
"geometry":{
"type":"Point",
"coordinates":[
140.250653,
35.981444
]
}
},
{
"type":"Feature",
"properties":{
"Name":"北部区民館",
"Jusho":"茨城県牛久市ひたち野西56-2",
"Capacity":"－",
"la":"36.01107667660",
"ln":"140.15795568900"
},
"geometry":{
"type":"Point",
"coordinates":[
140.157955689,
36.0110766766
]
}
},
{
"type":"Feature",
"properties":{
"Name":"緑ケ丘区民館",
"Jusho":"茨城県牛久市南5－9-37",
"Capacity":"－",
"la":"35.96676424380",
"ln":"140.14982794200"
},
"geometry":{
"type":"Point",
"coordinates":[
140.149827942,
35.9667642438
]
}
},
{
"type":"Feature",
"properties":{
"Name":"吉沼交流センター",
"Jusho":"茨城県つくば市吉沼790",
"Capacity":"－",
"la":"36.14738609350",
"ln":"140.01526538500"
},
"geometry":{
"type":"Point",
"coordinates":[
140.015265385,
36.1473860935
]
}
},
{
"type":"Feature",
"properties":{
"Name":"吉沼児童館",
"Jusho":"茨城県つくば市吉沼814－",
"Capacity":"－",
"la":"36.14772400000",
"ln":"140.01645700000"
},
"geometry":{
"type":"Point",
"coordinates":[
140.016457,
36.147724
]
}
},
{
"type":"Feature",
"properties":{
"Name":"吉沼体育館",
"Jusho":"茨城県つくば市西高野821",
"Capacity":"－",
"la":"36.14137500000",
"ln":"140.02039800000"
},
"geometry":{
"type":"Point",
"coordinates":[
140.020398,
36.141375
]
}
},
{
"type":"Feature",
"properties":{
"Name":"大穂交流センター",
"Jusho":"茨城県つくば市筑穂1－0-4",
"Capacity":"－",
"la":"36.13644622470",
"ln":"140.08203510300"
},
"geometry":{
"type":"Point",
"coordinates":[
140.082035103,
36.1364462247
]
}
},
{
"type":"Feature",
"properties":{
"Name":"大穂体育館",
"Jusho":"茨城県つくば市筑穂1－0-4",
"Capacity":"－",
"la":"36.13638621850",
"ln":"140.08203314200"
},
"geometry":{
"type":"Point",
"coordinates":[
140.082033142,
36.1363862185
]
}
},
{
"type":"Feature",
"properties":{
"Name":"大穂保育所",
"Jusho":"茨城県つくば市大曽根3410",
"Capacity":"－",
"la":"36.13891000000",
"ln":"140.08505400000"
},
"geometry":{
"type":"Point",
"coordinates":[
140.085054,
36.13891
]
}
},
{
"type":"Feature",
"properties":{
"Name":"大穂幼稚園",
"Jusho":"茨城県つくば市篠崎557－",
"Capacity":"－",
"la":"36.13663200000",
"ln":"140.06022300000"
},
"geometry":{
"type":"Point",
"coordinates":[
140.060223,
36.136632
]
}
},
{
"type":"Feature",
"properties":{
"Name":"１中地区コミュニティセンター",
"Jusho":"茨城県ひたちなか市長堀町3-4－",
"Capacity":"－",
"la":"36.38804100000",
"ln":"140.54233000000"
},
"geometry":{
"type":"Point",
"coordinates":[
140.54233,
36.388041
]
}
},
{
"type":"Feature",
"properties":{
"Name":"ひたちなか市文化会館",
"Jusho":"茨城県ひたちなか市青葉町1－",
"Capacity":"－",
"la":"36.38742400000",
"ln":"140.52844700000"
},
"geometry":{
"type":"Point",
"coordinates":[
140.528447,
36.387424
]
}
},
{
"type":"Feature",
"properties":{
"Name":"ワークプラザ勝田",
"Jusho":"茨城県ひたちなか市東石川1279番",
"Capacity":"－",
"la":"36.39856400000",
"ln":"140.53782500000"
},
"geometry":{
"type":"Point",
"coordinates":[
140.537825,
36.398564
]
}
},
{
"type":"Feature",
"properties":{
"Name":"茨城工業高等専門学校",
"Jusho":"茨城県ひたちなか市中根866",
"Capacity":"－",
"la":"36.40000100000",
"ln":"140.55219600000"
},
"geometry":{
"type":"Point",
"coordinates":[
140.552196,
36.400001
]
}
},
{
"type":"Feature",
"properties":{
"Name":"茨城大学附属特別支援学校",
"Jusho":"茨城県ひたちなか市津田1955",
"Capacity":"－",
"la":"36.41305399910",
"ln":"140.50747800000"
},
"geometry":{
"type":"Point",
"coordinates":[
140.507478,
36.4130539991
]
}
},
{
"type":"Feature",
"properties":{
"Name":"金上ふれあいセンター",
"Jusho":"茨城県ひたちなか市金上562－",
"Capacity":"－",
"la":"36.37127100000",
"ln":"140.53996600000"
},
"geometry":{
"type":"Point",
"coordinates":[
140.539966,
36.371271
]
}
},
{
"type":"Feature",
"properties":{
"Name":"県立勝田特別支援学校",
"Jusho":"茨城県ひたちなか市",
"Capacity":"－",
"la":"36.43342700000",
"ln":"140.52768700000"
},
"geometry":{
"type":"Point",
"coordinates":[
140.527687,
36.433427
]
}
},
{
"type":"Feature",
"properties":{
"Name":"佐野公民館",
"Jusho":"茨城県ひたちなか市高場190",
"Capacity":"－",
"la":"36.43471100000",
"ln":"140.53350500000"
},
"geometry":{
"type":"Point",
"coordinates":[
140.533505,
36.434711
]
}
},
{
"type":"Feature",
"properties":{
"Name":"佐和高等学校",
"Jusho":"茨城県ひたちなか市稲田636－",
"Capacity":"－",
"la":"36.44119100000",
"ln":"140.53616800000"
},
"geometry":{
"type":"Point",
"coordinates":[
140.536168,
36.441191
]
}
},
{
"type":"Feature",
"properties":{
"Name":"市毛公民館",
"Jusho":"茨城県ひたちなか市市毛980",
"Capacity":"－",
"la":"36.39570300000",
"ln":"140.51163100000"
},
"geometry":{
"type":"Point",
"coordinates":[
140.511631,
36.395703
]
}
},
{
"type":"Feature",
"properties":{
"Name":"勝田勤労青少年ホーム",
"Jusho":"茨城県ひたちなか市勝田中央14-2",
"Capacity":"－",
"la":"36.39406500000",
"ln":"140.53037700000"
},
"geometry":{
"type":"Point",
"coordinates":[
140.530377,
36.394065
]
}
},
{
"type":"Feature",
"properties":{
"Name":"勝田工業高等学校",
"Jusho":"茨城県ひたちなか市松戸町3－0－",
"Capacity":"－",
"la":"36.39044600000",
"ln":"140.54705800000"
},
"geometry":{
"type":"Point",
"coordinates":[
140.547058,
36.390446
]
}
},
{
"type":"Feature",
"properties":{
"Name":"勝田高等学校",
"Jusho":"茨城県ひたちなか市足崎1458",
"Capacity":"－",
"la":"36.40607500000",
"ln":"140.55535900000"
},
"geometry":{
"type":"Point",
"coordinates":[
140.555359,
36.406075
]
}
},
{
"type":"Feature",
"properties":{
"Name":"松戸体育館",
"Jusho":"茨城県ひたちなか市松戸町2-6－",
"Capacity":"－",
"la":"36.39451800000",
"ln":"140.54704400000"
},
"geometry":{
"type":"Point",
"coordinates":[
140.547044,
36.394518
]
}
},
{
"type":"Feature",
"properties":{
"Name":"生涯保健センター（ヘルスケアセンター）",
"Jusho":"茨城県ひたちなか市松戸町1－4－",
"Capacity":"－",
"la":"36.39369000000",
"ln":"140.54556700000"
},
"geometry":{
"type":"Point",
"coordinates":[
140.545567,
36.39369
]
}
},
{
"type":"Feature",
"properties":{
"Name":"前渡公民館",
"Jusho":"茨城県ひたちなか市馬渡2980－",
"Capacity":"－",
"la":"36.41166400000",
"ln":"140.57109100000"
},
"geometry":{
"type":"Point",
"coordinates":[
140.571091,
36.411664
]
}
},
{
"type":"Feature",
"properties":{
"Name":"総合福祉センター",
"Jusho":"茨城県ひたちなか市西大島3－6－",
"Capacity":"－",
"la":"36.40850000000",
"ln":"140.52304000000"
},
"geometry":{
"type":"Point",
"coordinates":[
140.52304,
36.4085
]
}
},
{
"type":"Feature",
"properties":{
"Name":"大島コミュニティセンター",
"Jusho":"茨城県ひたちなか市外野1－－",
"Capacity":"－",
"la":"36.40384200000",
"ln":"140.53542000000"
},
"geometry":{
"type":"Point",
"coordinates":[
140.53542,
36.403842
]
}
},
{
"type":"Feature",
"properties":{
"Name":"中央公民館",
"Jusho":"茨城県ひたちなか市勝田中央14-9",
"Capacity":"－",
"la":"36.39416000000",
"ln":"140.53069900000"
},
"geometry":{
"type":"Point",
"coordinates":[
140.530699,
36.39416
]
}
},
{
"type":"Feature",
"properties":{
"Name":"中央図書館",
"Jusho":"茨城県ひたちなか市元町5番3号",
"Capacity":"－",
"la":"36.39646299910",
"ln":"140.52737800000"
},
"geometry":{
"type":"Point",
"coordinates":[
140.527378,
36.3964629991
]
}
},
{
"type":"Feature",
"properties":{
"Name":"津田公民館",
"Jusho":"茨城県ひたちなか市津田2732",
"Capacity":"－",
"la":"36.40639600000",
"ln":"140.49577900000"
},
"geometry":{
"type":"Point",
"coordinates":[
140.495779,
36.406396
]
}
},
{
"type":"Feature",
"properties":{
"Name":"田彦公民館",
"Jusho":"茨城県ひたちなか市田彦950－28",
"Capacity":"－",
"la":"36.41961300000",
"ln":"140.51740700000"
},
"geometry":{
"type":"Point",
"coordinates":[
140.517407,
36.419613
]
}
},
{
"type":"Feature",
"properties":{
"Name":"那珂湊勤労青少年ホーム",
"Jusho":"茨城県ひたちなか市湊中央1丁目1番1号",
"Capacity":"－",
"la":"36.34048400000",
"ln":"140.58885600000"
},
"geometry":{
"type":"Point",
"coordinates":[
140.588856,
36.340484
]
}
},
{
"type":"Feature",
"properties":{
"Name":"那珂湊公民館",
"Jusho":"茨城県ひたちなか市鍜治屋窪3566",
"Capacity":"－",
"la":"36.35276000000",
"ln":"140.59247000000"
},
"geometry":{
"type":"Point",
"coordinates":[
140.59247,
36.35276
]
}
},
{
"type":"Feature",
"properties":{
"Name":"那珂湊高等学校",
"Jusho":"茨城県ひたちなか市",
"Capacity":"－",
"la":"36.34293400000",
"ln":"140.58457400000"
},
"geometry":{
"type":"Point",
"coordinates":[
140.584574,
36.342934
]
}
},
{
"type":"Feature",
"properties":{
"Name":"那珂湊総合福祉センター（しあわせプラザ）",
"Jusho":"茨城県ひたちなか市南神敷台17番地6号",
"Capacity":"－",
"la":"36.35385099910",
"ln":"140.59307700000"
},
"geometry":{
"type":"Point",
"coordinates":[
140.593077,
36.3538509991
]
}
},
{
"type":"Feature",
"properties":{
"Name":"那珂湊保健相談センター",
"Jusho":"茨城県ひたちなか市和田町二丁目11番21号",
"Capacity":"－",
"la":"36.34391500000",
"ln":"140.60065600000"
},
"geometry":{
"type":"Point",
"coordinates":[
140.600656,
36.343915
]
}
},
{
"type":"Feature",
"properties":{
"Name":"部田野公民館",
"Jusho":"茨城県ひたちなか市部田野1180－",
"Capacity":"－",
"la":"36.36570800000",
"ln":"140.58061100000"
},
"geometry":{
"type":"Point",
"coordinates":[
140.580611,
36.365708
]
}
},
{
"type":"Feature",
"properties":{
"Name":"柳沢公民館",
"Jusho":"茨城県ひたちなか市柳沢472",
"Capacity":"－",
"la":"36.35750100000",
"ln":"140.57009600000"
},
"geometry":{
"type":"Point",
"coordinates":[
140.570096,
36.357501
]
}
},
{
"type":"Feature",
"properties":{
"Name":"老人福祉センター高場荘",
"Jusho":"茨城県ひたちなか市高場594-2",
"Capacity":"－",
"la":"36.42794005700",
"ln":"140.53976498600"
},
"geometry":{
"type":"Point",
"coordinates":[
140.539764986,
36.427940057
]
}
},
{
"type":"Feature",
"properties":{
"Name":"カシマスポーツセンター",
"Jusho":"茨城県鹿嶋市神向寺23-2",
"Capacity":"－",
"la":"35.99032700000",
"ln":"140.63897700000"
},
"geometry":{
"type":"Point",
"coordinates":[
140.638977,
35.990327
]
}
},
{
"type":"Feature",
"properties":{
"Name":"はまなすまちづくりセンター",
"Jusho":"茨城県鹿嶋市角折2096－",
"Capacity":"－",
"la":"36.03376000000",
"ln":"140.62737100000"
},
"geometry":{
"type":"Point",
"coordinates":[
140.627371,
36.03376
]
}
},
{
"type":"Feature",
"properties":{
"Name":"はまなす幼稚園",
"Jusho":"茨城県鹿嶋市中595",
"Capacity":"－",
"la":"36.01150437090",
"ln":"140.58891787000"
},
"geometry":{
"type":"Point",
"coordinates":[
140.58891787,
36.0115043709
]
}
},
{
"type":"Feature",
"properties":{
"Name":"まちづくり市民センター",
"Jusho":"茨城県鹿嶋市宮中4631－",
"Capacity":"－",
"la":"35.97877600000",
"ln":"140.63315200000"
},
"geometry":{
"type":"Point",
"coordinates":[
140.633152,
35.978776
]
}
},
{
"type":"Feature",
"properties":{
"Name":"宮下保育園",
"Jusho":"茨城県鹿嶋市宮下1-9-5",
"Capacity":"－",
"la":"35.97288700000",
"ln":"140.63453600000"
},
"geometry":{
"type":"Point",
"coordinates":[
140.634536,
35.972887
]
}
},
{
"type":"Feature",
"properties":{
"Name":"高松まちづくりセンター",
"Jusho":"茨城県鹿嶋市木滝478-53",
"Capacity":"－",
"la":"35.94384500000",
"ln":"140.64943200000"
},
"geometry":{
"type":"Point",
"coordinates":[
140.649432,
35.943845
]
}
},
{
"type":"Feature",
"properties":{
"Name":"佐田保育園",
"Jusho":"茨城県鹿嶋市佐田503",
"Capacity":"－",
"la":"35.95319600000",
"ln":"140.64000800000"
},
"geometry":{
"type":"Point",
"coordinates":[
140.640008,
35.953196
]
}
},
{
"type":"Feature",
"properties":{
"Name":"三笠まちづくりセンター",
"Jusho":"茨城県鹿嶋市宮中2042－",
"Capacity":"－",
"la":"35.97078104380",
"ln":"140.64573509900"
},
"geometry":{
"type":"Point",
"coordinates":[
140.645735099,
35.9707810438
]
}
},
{
"type":"Feature",
"properties":{
"Name":"三笠幼稚園（旧第一幼稚園）",
"Jusho":"茨城県鹿嶋市平井1184-4",
"Capacity":"－",
"la":"35.97088800000",
"ln":"140.64711800000"
},
"geometry":{
"type":"Point",
"coordinates":[
140.647118,
35.970888
]
}
},
{
"type":"Feature",
"properties":{
"Name":"鹿島まちづくりセンター",
"Jusho":"茨城県鹿嶋市城山4-7－7",
"Capacity":"－",
"la":"35.96178700000",
"ln":"140.62126200000"
},
"geometry":{
"type":"Point",
"coordinates":[
140.621262,
35.961787
]
}
},
{
"type":"Feature",
"properties":{
"Name":"鹿嶋勤労文化会館",
"Jusho":"茨城県鹿嶋市宮中325－",
"Capacity":"－",
"la":"35.96310100000",
"ln":"140.64431800000"
},
"geometry":{
"type":"Point",
"coordinates":[
140.644318,
35.963101
]
}
},
{
"type":"Feature",
"properties":{
"Name":"総合福祉センター",
"Jusho":"茨城県鹿嶋市平井1350-45",
"Capacity":"－",
"la":"35.95853200000",
"ln":"140.66017800000"
},
"geometry":{
"type":"Point",
"coordinates":[
140.660178,
35.958532
]
}
},
{
"type":"Feature",
"properties":{
"Name":"大船津保育園",
"Jusho":"茨城県鹿嶋市大船津3537",
"Capacity":"－",
"la":"35.94852900000",
"ln":"140.62434400000"
},
"geometry":{
"type":"Point",
"coordinates":[
140.624344,
35.948529
]
}
},
{
"type":"Feature",
"properties":{
"Name":"大野ふれあいセンター",
"Jusho":"茨城県鹿嶋市津賀1919－",
"Capacity":"－",
"la":"36.04996381500",
"ln":"140.59892296900"
},
"geometry":{
"type":"Point",
"coordinates":[
140.598922969,
36.049963815
]
}
},
{
"type":"Feature",
"properties":{
"Name":"大野北いきいきふれあいプラザ",
"Jusho":"茨城県鹿嶋市荒井370－",
"Capacity":"－",
"la":"36.05546900000",
"ln":"140.61687700000"
},
"geometry":{
"type":"Point",
"coordinates":[
140.616877,
36.055469
]
}
},
{
"type":"Feature",
"properties":{
"Name":"波野まちづくりセンター",
"Jusho":"茨城県鹿嶋市明石520-2",
"Capacity":"－",
"la":"35.99176300000",
"ln":"140.64670600000"
},
"geometry":{
"type":"Point",
"coordinates":[
140.646706,
35.991763
]
}
},
{
"type":"Feature",
"properties":{
"Name":"波野幼稚園（旧第三幼稚園）",
"Jusho":"茨城県鹿嶋市神向寺126",
"Capacity":"－",
"la":"35.98855200000",
"ln":"140.64267300000"
},
"geometry":{
"type":"Point",
"coordinates":[
140.642673,
35.988552
]
}
},
{
"type":"Feature",
"properties":{
"Name":"鉢形まちづくりセンター",
"Jusho":"茨城県鹿嶋市鉢形台3－5－",
"Capacity":"－",
"la":"35.95900100000",
"ln":"140.65126500000"
},
"geometry":{
"type":"Point",
"coordinates":[
140.651265,
35.959001
]
}
},
{
"type":"Feature",
"properties":{
"Name":"平井コミュニティーセンター",
"Jusho":"茨城県鹿嶋市平井1-300",
"Capacity":"－",
"la":"35.96347000000",
"ln":"140.67451000000"
},
"geometry":{
"type":"Point",
"coordinates":[
140.67451,
35.96347
]
}
},
{
"type":"Feature",
"properties":{
"Name":"平井まちづくりセンター",
"Jusho":"茨城県鹿嶋市平井1128-64",
"Capacity":"－",
"la":"35.97151600000",
"ln":"140.66663500000"
},
"geometry":{
"type":"Point",
"coordinates":[
140.666635,
35.971516
]
}
},
{
"type":"Feature",
"properties":{
"Name":"平井保育園",
"Jusho":"茨城県鹿嶋市平井565－",
"Capacity":"－",
"la":"35.95905600000",
"ln":"140.67086500000"
},
"geometry":{
"type":"Point",
"coordinates":[
140.670865,
35.959056
]
}
},
{
"type":"Feature",
"properties":{
"Name":"平井幼稚園（旧第五幼稚園）",
"Jusho":"茨城県鹿嶋市港ヶ丘273-72",
"Capacity":"－",
"la":"35.97238700000",
"ln":"140.66147700000"
},
"geometry":{
"type":"Point",
"coordinates":[
140.661477,
35.972387
]
}
},
{
"type":"Feature",
"properties":{
"Name":"豊郷まちづくりセンター",
"Jusho":"茨城県鹿嶋市須賀1692－",
"Capacity":"－",
"la":"35.98543300000",
"ln":"140.61159100000"
},
"geometry":{
"type":"Point",
"coordinates":[
140.611591,
35.985433
]
}
},
{
"type":"Feature",
"properties":{
"Name":"豊津まちづくりセンター",
"Jusho":"茨城県鹿嶋市大船津4277-6",
"Capacity":"－",
"la":"35.96086200000",
"ln":"140.61454100000"
},
"geometry":{
"type":"Point",
"coordinates":[
140.614541,
35.960862
]
}
},
{
"type":"Feature",
"properties":{
"Name":"あやめコミュニティセンター",
"Jusho":"茨城県潮来市あやめ2-27-7",
"Capacity":"－",
"la":"35.93759000000",
"ln":"140.55207500000"
},
"geometry":{
"type":"Point",
"coordinates":[
140.552075,
35.93759
]
}
},
{
"type":"Feature",
"properties":{
"Name":"永山農村集落センター",
"Jusho":"茨城県潮来市永山1216－",
"Capacity":"－",
"la":"35.96826300000",
"ln":"140.50733000000"
},
"geometry":{
"type":"Point",
"coordinates":[
140.50733,
35.968263
]
}
},
{
"type":"Feature",
"properties":{
"Name":"横須賀西農村集落センター",
"Jusho":"茨城県潮来市上戸2183",
"Capacity":"－",
"la":"35.95431300000",
"ln":"140.52607300000"
},
"geometry":{
"type":"Point",
"coordinates":[
140.526073,
35.954313
]
}
},
{
"type":"Feature",
"properties":{
"Name":"下丁会館",
"Jusho":"茨城県潮来市",
"Capacity":"－",
"la":"35.93776586570",
"ln":"140.54525940600"
},
"geometry":{
"type":"Point",
"coordinates":[
140.545259406,
35.9377658657
]
}
},
{
"type":"Feature",
"properties":{
"Name":"下田農村集落センター",
"Jusho":"茨城県潮来市宮前1-8－",
"Capacity":"－",
"la":"35.95861100000",
"ln":"140.59042000000"
},
"geometry":{
"type":"Point",
"coordinates":[
140.59042,
35.958611
]
}
},
{
"type":"Feature",
"properties":{
"Name":"貝塚農村集落センター",
"Jusho":"茨城県潮来市築地192-2",
"Capacity":"－",
"la":"35.96777600000",
"ln":"140.55387000000"
},
"geometry":{
"type":"Point",
"coordinates":[
140.55387,
35.967776
]
}
},
{
"type":"Feature",
"properties":{
"Name":"釜谷農村集落センター",
"Jusho":"茨城県潮来市釜谷1418番地",
"Capacity":"－",
"la":"35.99144800000",
"ln":"140.56517700000"
},
"geometry":{
"type":"Point",
"coordinates":[
140.565177,
35.991448
]
}
},
{
"type":"Feature",
"properties":{
"Name":"牛堀地区コミュニティセンター",
"Jusho":"茨城県潮来市牛堀176",
"Capacity":"－",
"la":"35.96002600000",
"ln":"140.51365400000"
},
"geometry":{
"type":"Point",
"coordinates":[
140.513654,
35.960026
]
}
},