var o={
"type":"FeatureCollection",
"features":[
{
"type":"Feature",
"properties":{
"Name":"開新高校",
"Jusho":"熊本県熊本市中央区大江6丁目1-33",
"Capacity":"－",
"la":"32.80006699910",
"ln":"130.72632900000"
},
"geometry":{
"type":"Point",
"coordinates":[
130.726329,
32.8000669991
]
}
},
{
"type":"Feature",
"properties":{
"Name":"銀座橋一帯白川川岸",
"Jusho":"熊本県熊本市中央区中央街",
"Capacity":"－",
"la":"32.80008548540",
"ln":"130.71274495000"
},
"geometry":{
"type":"Point",
"coordinates":[
130.71274495,
32.8000854854
]
}
},
{
"type":"Feature",
"properties":{
"Name":"九州学院高校",
"Jusho":"熊本県熊本市中央区大江5丁目2－",
"Capacity":"－",
"la":"32.79776200000",
"ln":"130.72110700000"
},
"geometry":{
"type":"Point",
"coordinates":[
130.721107,
32.797762
]
}
},
{
"type":"Feature",
"properties":{
"Name":"熊本学園大学",
"Jusho":"熊本県熊本市中央区大江2丁目5－",
"Capacity":"－",
"la":"32.80437199910",
"ln":"130.72944000000"
},
"geometry":{
"type":"Point",
"coordinates":[
130.72944,
32.8043719991
]
}
},
{
"type":"Feature",
"properties":{
"Name":"熊本工業高校",
"Jusho":"熊本県熊本市中央区上京塚町5－",
"Capacity":"－",
"la":"32.79239300000",
"ln":"130.74707500000"
},
"geometry":{
"type":"Point",
"coordinates":[
130.747075,
32.792393
]
}
},
{
"type":"Feature",
"properties":{
"Name":"熊本高校",
"Jusho":"熊本県熊本市中央区新大江1丁目8－",
"Capacity":"－",
"la":"32.79994400000",
"ln":"130.72925400000"
},
"geometry":{
"type":"Point",
"coordinates":[
130.729254,
32.799944
]
}
},
{
"type":"Feature",
"properties":{
"Name":"熊本国府高校",
"Jusho":"熊本県熊本市中央区国府2丁目15－",
"Capacity":"－",
"la":"32.78773499910",
"ln":"130.72821800000"
},
"geometry":{
"type":"Point",
"coordinates":[
130.728218,
32.7877349991
]
}
},
{
"type":"Feature",
"properties":{
"Name":"熊本商業高校",
"Jusho":"熊本県熊本市中央区神水1丁目1-2",
"Capacity":"－",
"la":"32.78648500000",
"ln":"130.74041200000"
},
"geometry":{
"type":"Point",
"coordinates":[
130.740412,
32.786485
]
}
},
{
"type":"Feature",
"properties":{
"Name":"熊本城",
"Jusho":"熊本県熊本市中央区本丸1－",
"Capacity":"－",
"la":"32.80625556630",
"ln":"130.70592808200"
},
"geometry":{
"type":"Point",
"coordinates":[
130.705928082,
32.8062555663
]
}
},
{
"type":"Feature",
"properties":{
"Name":"熊本大学黒髪地区",
"Jusho":"熊本県熊本市中央区黒髪2丁目39－",
"Capacity":"－",
"la":"32.81339700000",
"ln":"130.72807300000"
},
"geometry":{
"type":"Point",
"coordinates":[
130.728073,
32.813397
]
}
},
{
"type":"Feature",
"properties":{
"Name":"熊本大学薬学部",
"Jusho":"熊本県熊本市中央区大江本町5－",
"Capacity":"－",
"la":"32.79487300000",
"ln":"130.72085700000"
},
"geometry":{
"type":"Point",
"coordinates":[
130.720857,
32.794873
]
}
},
{
"type":"Feature",
"properties":{
"Name":"済々黌高校",
"Jusho":"熊本県熊本市中央区黒髪2丁目22－",
"Capacity":"－",
"la":"32.81739900000",
"ln":"130.72288400000"
},
"geometry":{
"type":"Point",
"coordinates":[
130.722884,
32.817399
]
}
},
{
"type":"Feature",
"properties":{
"Name":"子飼橋下流左岸",
"Jusho":"熊本県熊本市中央区大江1丁目、新屋敷2丁目",
"Capacity":"－",
"la":"32.81144946520",
"ln":"130.72312073000"
},
"geometry":{
"type":"Point",
"coordinates":[
130.72312073,
32.8114494652
]
}
},
{
"type":"Feature",
"properties":{
"Name":"子飼橋上流右岸",
"Jusho":"熊本県熊本市中央区黒髪2丁目",
"Capacity":"－",
"la":"32.81032220660",
"ln":"130.72683864600"
},
"geometry":{
"type":"Point",
"coordinates":[
130.726838646,
32.8103222066
]
}
},
{
"type":"Feature",
"properties":{
"Name":"子飼橋上流左岸",
"Jusho":"熊本県熊本市中央区大江1丁目、新屋敷2丁目",
"Capacity":"－",
"la":"32.81157681120",
"ln":"130.72311775900"
},
"geometry":{
"type":"Point",
"coordinates":[
130.723117759,
32.8115768112
]
}
},
{
"type":"Feature",
"properties":{
"Name":"市立必由館高校",
"Jusho":"熊本県熊本市中央区坪井4丁目15－",
"Capacity":"－",
"la":"32.81586000000",
"ln":"130.71401000000"
},
"geometry":{
"type":"Point",
"coordinates":[
130.71401,
32.81586
]
}
},
{
"type":"Feature",
"properties":{
"Name":"代継橋下流左右岸",
"Jusho":"熊本県熊本市中央区本荘35丁目",
"Capacity":"－",
"la":"32.79570559510",
"ln":"130.70694337000"
},
"geometry":{
"type":"Point",
"coordinates":[
130.70694337,
32.7957055951
]
}
},
{
"type":"Feature",
"properties":{
"Name":"大江出張所",
"Jusho":"熊本県熊本市中央区大江6丁目1-85",
"Capacity":"－",
"la":"32.79901340690",
"ln":"130.72512988400"
},
"geometry":{
"type":"Point",
"coordinates":[
130.725129884,
32.7990134069
]
}
},
{
"type":"Feature",
"properties":{
"Name":"第一高校",
"Jusho":"熊本県熊本市中央区古城町3－",
"Capacity":"－",
"la":"32.80115000000",
"ln":"130.70008100000"
},
"geometry":{
"type":"Point",
"coordinates":[
130.700081,
32.80115
]
}
},
{
"type":"Feature",
"properties":{
"Name":"中央公民館",
"Jusho":"熊本県熊本市中央区草葉町5－",
"Capacity":"－",
"la":"32.80463400000",
"ln":"130.71537400000"
},
"geometry":{
"type":"Point",
"coordinates":[
130.715374,
32.804634
]
}
},
{
"type":"Feature",
"properties":{
"Name":"長六橋上下流左岸",
"Jusho":"熊本県熊本市中央区迎町1丁目、本荘5丁目",
"Capacity":"－",
"la":"32.79388527770",
"ln":"130.70256044400"
},
"geometry":{
"type":"Point",
"coordinates":[
130.702560444,
32.7938852777
]
}
},
{
"type":"Feature",
"properties":{
"Name":"白川橋上下流左岸",
"Jusho":"熊本県熊本市中央区本山23丁目",
"Capacity":"－",
"la":"32.79164707110",
"ln":"130.69522794500"
},
"geometry":{
"type":"Point",
"coordinates":[
130.695227945,
32.7916470711
]
}
},
{
"type":"Feature",
"properties":{
"Name":"湧心館高校",
"Jusho":"熊本県熊本市中央区出水4丁目1-2",
"Capacity":"－",
"la":"32.78131900000",
"ln":"130.73016200000"
},
"geometry":{
"type":"Point",
"coordinates":[
130.730162,
32.781319
]
}
},
{
"type":"Feature",
"properties":{
"Name":"熊本マリスト学園",
"Jusho":"熊本県熊本市東区健軍2丁目11-54",
"Capacity":"－",
"la":"32.78329099910",
"ln":"130.75049400000"
},
"geometry":{
"type":"Point",
"coordinates":[
130.750494,
32.7832909991
]
}
},
{
"type":"Feature",
"properties":{
"Name":"熊本星翔高校",
"Jusho":"熊本県熊本市東区渡鹿9丁目1－",
"Capacity":"－",
"la":"32.81317700000",
"ln":"130.74527200000"
},
"geometry":{
"type":"Point",
"coordinates":[
130.745272,
32.813177
]
}
},
{
"type":"Feature",
"properties":{
"Name":"香りの森",
"Jusho":"熊本県熊本市東区戸島西7丁目3",
"Capacity":"－",
"la":"32.80272900000",
"ln":"130.78712900000"
},
"geometry":{
"type":"Point",
"coordinates":[
130.787129,
32.802729
]
}
},
{
"type":"Feature",
"properties":{
"Name":"秋津出張所",
"Jusho":"熊本県熊本市東区秋津3丁目15－",
"Capacity":"－",
"la":"32.77131529600",
"ln":"130.77323756800"
},
"geometry":{
"type":"Point",
"coordinates":[
130.773237568,
32.771315296
]
}
},
{
"type":"Feature",
"properties":{
"Name":"第二高校",
"Jusho":"熊本県熊本市東区東町3－3－",
"Capacity":"－",
"la":"32.78220800000",
"ln":"130.76679900000"
},
"geometry":{
"type":"Point",
"coordinates":[
130.766799,
32.782208
]
}
},
{
"type":"Feature",
"properties":{
"Name":"託麻総合出張所",
"Jusho":"熊本県熊本市東区長嶺東7丁目11－5",
"Capacity":"－",
"la":"32.82795400000",
"ln":"130.77918700000"
},
"geometry":{
"type":"Point",
"coordinates":[
130.779187,
32.827954
]
}
},
{
"type":"Feature",
"properties":{
"Name":"東海大学",
"Jusho":"熊本県熊本市東区渡鹿9丁目1－",
"Capacity":"－",
"la":"32.81156600000",
"ln":"130.74493900000"
},
"geometry":{
"type":"Point",
"coordinates":[
130.744939,
32.811566
]
}
},
{
"type":"Feature",
"properties":{
"Name":"東部出張所",
"Jusho":"熊本県熊本市東区錦ケ丘1－",
"Capacity":"－",
"la":"32.78853144570",
"ln":"130.75347730500"
},
"geometry":{
"type":"Point",
"coordinates":[
130.753477305,
32.7885314457
]
}
},
{
"type":"Feature",
"properties":{
"Name":"東稜高校",
"Jusho":"熊本県熊本市東区小峰3丁目1",
"Capacity":"－",
"la":"32.80037400000",
"ln":"130.77885300000"
},
"geometry":{
"type":"Point",
"coordinates":[
130.778853,
32.800374
]
}
},
{
"type":"Feature",
"properties":{
"Name":"河内総合出張所",
"Jusho":"熊本県熊本市西区河内町船津2069-5",
"Capacity":"－",
"la":"32.83114299910",
"ln":"130.58725600000"
},
"geometry":{
"type":"Point",
"coordinates":[
130.587256,
32.8311429991
]
}
},
{
"type":"Feature",
"properties":{
"Name":"花園総合出張所",
"Jusho":"熊本県熊本市西区花園5丁目8-3",
"Capacity":"－",
"la":"32.81763602040",
"ln":"130.69498221500"
},
"geometry":{
"type":"Point",
"coordinates":[
130.694982215,
32.8176360204
]
}
},
{
"type":"Feature",
"properties":{
"Name":"熊本西高校",
"Jusho":"熊本県熊本市西区城山大塘5丁目5－5",
"Capacity":"－",
"la":"32.78251200000",
"ln":"130.64908500000"
},
"geometry":{
"type":"Point",
"coordinates":[
130.649085,
32.782512
]
}
},
{
"type":"Feature",
"properties":{
"Name":"市立千原台高校",
"Jusho":"熊本県熊本市西区島崎2丁目37－",
"Capacity":"－",
"la":"32.80709399910",
"ln":"130.68697100000"
},
"geometry":{
"type":"Point",
"coordinates":[
130.686971,
32.8070939991
]
}
},
{
"type":"Feature",
"properties":{
"Name":"西区役所",
"Jusho":"熊本県熊本市西区小島2丁目7－",
"Capacity":"－",
"la":"32.77621513710",
"ln":"130.64745423200"
},
"geometry":{
"type":"Point",
"coordinates":[
130.647454232,
32.7762151371
]
}
},
{
"type":"Feature",
"properties":{
"Name":"西部スポーツセンター",
"Jusho":"熊本県熊本市西区城山半田4丁目16－",
"Capacity":"－",
"la":"32.77577794790",
"ln":"130.65043394200"
},
"geometry":{
"type":"Point",
"coordinates":[
130.650433942,
32.7757779479
]
}
},
{
"type":"Feature",
"properties":{
"Name":"池田１丁目西児童遊園",
"Jusho":"熊本県熊本市西区池田1丁目19",
"Capacity":"－",
"la":"32.82150900000",
"ln":"130.70199700000"
},
"geometry":{
"type":"Point",
"coordinates":[
130.701997,
32.821509
]
}
},
{
"type":"Feature",
"properties":{
"Name":"白川中原緑地",
"Jusho":"熊本県熊本市西区小島上町2334－",
"Capacity":"－",
"la":"32.77033440000",
"ln":"130.64200892000"
},
"geometry":{
"type":"Point",
"coordinates":[
130.64200892,
32.7703344
]
}
},
{
"type":"Feature",
"properties":{
"Name":"芳野コミュニティセンター",
"Jusho":"熊本県熊本市西区河内町野出1410",
"Capacity":"－",
"la":"32.84340183620",
"ln":"130.64306325900"
},
"geometry":{
"type":"Point",
"coordinates":[
130.643063259,
32.8434018362
]
}
},
{
"type":"Feature",
"properties":{
"Name":"アクアドームくまもと",
"Jusho":"熊本県熊本市南区荒尾2丁目1－",
"Capacity":"－",
"la":"32.76329500000",
"ln":"130.66786300000"
},
"geometry":{
"type":"Point",
"coordinates":[
130.667863,
32.763295
]
}
},
{
"type":"Feature",
"properties":{
"Name":"アスパル富合",
"Jusho":"熊本県熊本市南区富合町清藤400",
"Capacity":"－",
"la":"32.71606000000",
"ln":"130.67799400000"
},
"geometry":{
"type":"Point",
"coordinates":[
130.677994,
32.71606
]
}
},
{
"type":"Feature",
"properties":{
"Name":"火の君文化センター",
"Jusho":"熊本県熊本市南区城南町舞原394番地1",
"Capacity":"－",
"la":"32.70747000000",
"ln":"130.73999500000"
},
"geometry":{
"type":"Point",
"coordinates":[
130.739995,
32.70747
]
}
},
{
"type":"Feature",
"properties":{
"Name":"雁回館",
"Jusho":"熊本県熊本市南区富合町清藤405－",
"Capacity":"－",
"la":"32.71536997410",
"ln":"130.67814549200"
},
"geometry":{
"type":"Point",
"coordinates":[
130.678145492,
32.7153699741
]
}
},
{
"type":"Feature",
"properties":{
"Name":"熊本農業高校",
"Jusho":"熊本県熊本市南区元三町5丁目1－",
"Capacity":"－",
"la":"32.74371000000",
"ln":"130.69452700000"
},
"geometry":{
"type":"Point",
"coordinates":[
130.694527,
32.74371
]
}
},
{
"type":"Feature",
"properties":{
"Name":"幸田総合出張所",
"Jusho":"熊本県熊本市南区幸田2丁目4－",
"Capacity":"－",
"la":"32.76677900000",
"ln":"130.71235000000"
},
"geometry":{
"type":"Point",
"coordinates":[
130.71235,
32.766779
]
}
},
{
"type":"Feature",
"properties":{
"Name":"高グラウンド",
"Jusho":"熊本県熊本市南区城南町大字高482番地",
"Capacity":"－",
"la":"32.72586735600",
"ln":"130.71370168600"
},
"geometry":{
"type":"Point",
"coordinates":[
130.713701686,
32.725867356
]
}
},
{
"type":"Feature",
"properties":{
"Name":"坂野グラウンド",
"Jusho":"熊本県熊本市南区城南町大字坂野65番地1",
"Capacity":"－",
"la":"32.72319400000",
"ln":"130.73829200000"
},
"geometry":{
"type":"Point",
"coordinates":[
130.738292,
32.723194
]
}
},
{
"type":"Feature",
"properties":{
"Name":"城南Ｂ＆Ｇ海洋センター",
"Jusho":"熊本県熊本市南区城南町舞原134番地1",
"Capacity":"－",
"la":"32.70868699910",
"ln":"130.74757000000"
},
"geometry":{
"type":"Point",
"coordinates":[
130.74757,
32.7086869991
]
}
},
{
"type":"Feature",
"properties":{
"Name":"城南福祉センター",
"Jusho":"熊本県熊本市南区城南町宮地1050番地",
"Capacity":"－",
"la":"32.70910349850",
"ln":"130.72881582300"
},
"geometry":{
"type":"Point",
"coordinates":[
130.728815823,
32.7091034985
]
}
},
{
"type":"Feature",
"properties":{
"Name":"塚原グラウンド",
"Jusho":"熊本県熊本市南区城南町大字塚原60番地",
"Capacity":"－",
"la":"32.69477413120",
"ln":"130.73512974400"
},
"geometry":{
"type":"Point",
"coordinates":[
130.735129744,
32.6947741312
]
}
},
{
"type":"Feature",
"properties":{
"Name":"天明運動施設体育館",
"Jusho":"熊本県熊本市南区奥古閑町2035",
"Capacity":"－",
"la":"32.73247799910",
"ln":"130.63587000000"
},
"geometry":{
"type":"Point",
"coordinates":[
130.63587,
32.7324779991
]
}
},
{
"type":"Feature",
"properties":{
"Name":"天明総合出張所",
"Jusho":"熊本県熊本市南区奥古閑町2035",
"Capacity":"－",
"la":"32.73297598720",
"ln":"130.63633736500"
},
"geometry":{
"type":"Point",
"coordinates":[
130.636337365,
32.7329759872
]
}
},
{
"type":"Feature",
"properties":{
"Name":"天明農業研修所",
"Jusho":"熊本県熊本市南区奥古閑町1905－",
"Capacity":"－",
"la":"32.73320351060",
"ln":"130.63675513000"
},
"geometry":{
"type":"Point",
"coordinates":[
130.63675513,
32.7332035106
]
}
},
{
"type":"Feature",
"properties":{
"Name":"南部出張所",
"Jusho":"熊本県熊本市南区南高江6丁目7-35",
"Capacity":"－",
"la":"32.74843073580",
"ln":"130.68633558600"
},
"geometry":{
"type":"Point",
"coordinates":[
130.686335586,
32.7484307358
]
}
},
{
"type":"Feature",
"properties":{
"Name":"南部総合スポーツセンター",
"Jusho":"熊本県熊本市南区白藤5丁目2－",
"Capacity":"－",
"la":"32.75525899910",
"ln":"130.67350200000"
},
"geometry":{
"type":"Point",
"coordinates":[
130.673502,
32.7552589991
]
}
},
{
"type":"Feature",
"properties":{
"Name":"白川平田十禅寺緑地",
"Jusho":"熊本県熊本市南区平田町、十禅寺町",
"Capacity":"－",
"la":"32.77705299000",
"ln":"130.69190924000"
},
"geometry":{
"type":"Point",
"coordinates":[
130.69190924,
32.77705299
]
}
},
{
"type":"Feature",
"properties":{
"Name":"白川飽田緑地",
"Jusho":"熊本県熊本市南区今町、土河原町",
"Capacity":"－",
"la":"32.76935873600",
"ln":"130.66092448500"
},
"geometry":{
"type":"Point",
"coordinates":[
130.660924485,
32.769358736
]
}
},
{
"type":"Feature",
"properties":{
"Name":"飽田総合出張所",
"Jusho":"熊本県熊本市南区会富町1333－",
"Capacity":"－",
"la":"32.75434654350",
"ln":"130.65358608700"
},
"geometry":{
"type":"Point",
"coordinates":[
130.653586087,
32.7543465435
]
}
},
{
"type":"Feature",
"properties":{
"Name":"緑川右岸第１号緑地",
"Jusho":"熊本県熊本市南区元三町4丁目",
"Capacity":"－",
"la":"32.73599099460",
"ln":"130.69576468000"
},
"geometry":{
"type":"Point",
"coordinates":[
130.69576468,
32.7359909946
]
}
},
{
"type":"Feature",
"properties":{
"Name":"緑川右岸第２号緑地",
"Jusho":"熊本県熊本市南区野田1丁目3丁目",
"Capacity":"－",
"la":"32.73151223000",
"ln":"130.68916501000"
},
"geometry":{
"type":"Point",
"coordinates":[
130.68916501,
32.73151223
]
}
},
{
"type":"Feature",
"properties":{
"Name":"ＴＫＵぷらざ",
"Jusho":"熊本県熊本市北区徳王1丁目8－",
"Capacity":"－",
"la":"32.83955795440",
"ln":"130.70778000000"
},
"geometry":{
"type":"Point",
"coordinates":[
130.70778,
32.8395579544
]
}
},
{
"type":"Feature",
"properties":{
"Name":"熊本北高校",
"Jusho":"熊本県熊本市北区兎谷3丁目5－",
"Capacity":"－",
"la":"32.84165000000",
"ln":"130.74668500000"
},
"geometry":{
"type":"Point",
"coordinates":[
130.746685,
32.84165
]
}
},
{
"type":"Feature",
"properties":{
"Name":"芝生広場",
"Jusho":"熊本県熊本市北区植木町岩野269番地2",
"Capacity":"－",
"la":"32.90274598570",
"ln":"130.69717978800"
},
"geometry":{
"type":"Point",
"coordinates":[
130.697179788,
32.9027459857
]
}
},
{
"type":"Feature",
"properties":{
"Name":"植木文化センター",
"Jusho":"熊本県熊本市北区植木町岩野238番地1",
"Capacity":"－",
"la":"32.90381717930",
"ln":"130.69549940600"
},
"geometry":{
"type":"Point",
"coordinates":[
130.695499406,
32.9038171793
]
}
},
{
"type":"Feature",
"properties":{
"Name":"清水スポーツセンター",
"Jusho":"熊本県熊本市北区清水万石2丁目3-73",
"Capacity":"－",
"la":"32.82956000000",
"ln":"130.72883700000"
},
"geometry":{
"type":"Point",
"coordinates":[
130.728837,
32.82956
]
}
},
{
"type":"Feature",
"properties":{
"Name":"清水総合出張所",
"Jusho":"熊本県熊本市北区清水亀井町14-7",
"Capacity":"－",
"la":"32.84143779990",
"ln":"130.72163058000"
},
"geometry":{
"type":"Point",
"coordinates":[
130.72163058,
32.8414377999
]
}
},
{
"type":"Feature",
"properties":{
"Name":"坪井川緑地",
"Jusho":"熊本県熊本市北区清水町室園",
"Capacity":"－",
"la":"32.82389902000",
"ln":"130.71966806000"
},
"geometry":{
"type":"Point",
"coordinates":[
130.71966806,
32.82389902
]
}
},
{
"type":"Feature",
"properties":{
"Name":"北部総合出張所",
"Jusho":"熊本県熊本市北区鹿子木町66",
"Capacity":"－",
"la":"32.87002565930",
"ln":"130.70297397100"
},
"geometry":{
"type":"Point",
"coordinates":[
130.702973971,
32.8700256593
]
}
},
{
"type":"Feature",
"properties":{
"Name":"龍田出張所",
"Jusho":"熊本県熊本市北区龍田弓削1丁目1－0",
"Capacity":"－",
"la":"32.84401470780",
"ln":"130.76435702900"
},
"geometry":{
"type":"Point",
"coordinates":[
130.764357029,
32.8440147078
]
}
},
{
"type":"Feature",
"properties":{
"Name":"くま川ワイワイパーク",
"Jusho":"熊本県八代市坂本町坂本3433－",
"Capacity":"－",
"la":"32.43804604690",
"ln":"130.66408415900"
},
"geometry":{
"type":"Point",
"coordinates":[
130.664084159,
32.4380460469
]
}
},
{
"type":"Feature",
"properties":{
"Name":"グリーンパークさかもと",
"Jusho":"熊本県八代市坂本町坂本4228－",
"Capacity":"－",
"la":"32.43600661150",
"ln":"130.65745072500"
},
"geometry":{
"type":"Point",
"coordinates":[
130.657450725,
32.4360066115
]
}
},
{
"type":"Feature",
"properties":{
"Name":"さかもと温泉センター",
"Jusho":"熊本県八代市",
"Capacity":"300",
"la":"32.41361517500",
"ln":"130.63867592800"
},
"geometry":{
"type":"Point",
"coordinates":[
130.638675928,
32.413615175
]
}
},
{
"type":"Feature",
"properties":{
"Name":"さかもと青少年センター",
"Jusho":"熊本県八代市",
"Capacity":"600",
"la":"32.44369745310",
"ln":"130.66922394900"
},
"geometry":{
"type":"Point",
"coordinates":[
130.669223949,
32.4436974531
]
}
},
{
"type":"Feature",
"properties":{
"Name":"さかもと青少年センタ一分館",
"Jusho":"熊本県八代市",
"Capacity":"150",
"la":"32.44313067350",
"ln":"130.67357375700"
},
"geometry":{
"type":"Point",
"coordinates":[
130.673573757,
32.4431306735
]
}
},
{
"type":"Feature",
"properties":{
"Name":"サンライフ八代",
"Jusho":"熊本県八代市日置町692番地1",
"Capacity":"300",
"la":"32.50862100000",
"ln":"130.62319200000"
},
"geometry":{
"type":"Point",
"coordinates":[
130.623192,
32.508621
]
}
},
{
"type":"Feature",
"properties":{
"Name":"鮎帰社会教育センター",
"Jusho":"熊本県八代市坂本町鮎帰は867",
"Capacity":"600",
"la":"32.43222889370",
"ln":"130.69580403100"
},
"geometry":{
"type":"Point",
"coordinates":[
130.695804031,
32.4322288937
]
}
},
{
"type":"Feature",
"properties":{
"Name":"鮎帰生活館",
"Jusho":"熊本県八代市",
"Capacity":"75",
"la":"32.43339636600",
"ln":"130.69424558800"
},
"geometry":{
"type":"Point",
"coordinates":[
130.694245588,
32.433396366
]
}
},
{
"type":"Feature",
"properties":{
"Name":"河俣山村広場",
"Jusho":"熊本県八代市東陽町河俣2650-2",
"Capacity":"－",
"la":"32.51564563240",
"ln":"130.74452874300"
},
"geometry":{
"type":"Point",
"coordinates":[
130.744528743,
32.5156456324
]
}
},
{
"type":"Feature",
"properties":{
"Name":"久多良木社会教育センター",
"Jusho":"熊本県八代市坂本町百済来下664番",
"Capacity":"600",
"la":"32.39824197390",
"ln":"130.59692984300"
},
"geometry":{
"type":"Point",
"coordinates":[
130.596929843,
32.3982419739
]
}
},
{
"type":"Feature",
"properties":{
"Name":"久多良木多目的集会施設",
"Jusho":"熊本県八代市",
"Capacity":"100",
"la":"32.39663572270",
"ln":"130.59630604100"
},
"geometry":{
"type":"Point",
"coordinates":[
130.596306041,
32.3966357227
]
}
},
{
"type":"Feature",
"properties":{
"Name":"久連子古代の里",
"Jusho":"熊本県八代市泉町久連子72番地",
"Capacity":"100",
"la":"32.45887915050",
"ln":"130.91401118600"
},
"geometry":{
"type":"Point",
"coordinates":[
130.914011186,
32.4588791505
]
}
},
{
"type":"Feature",
"properties":{
"Name":"宮地公民館",
"Jusho":"熊本県八代市宮地町383番地",
"Capacity":"200",
"la":"32.49937000000",
"ln":"130.63988000000"
},
"geometry":{
"type":"Point",
"coordinates":[
130.63988,
32.49937
]
}
},
{
"type":"Feature",
"properties":{
"Name":"鏡支所",
"Jusho":"熊本県八代市鏡町内田453－",
"Capacity":"40",
"la":"32.56280200000",
"ln":"130.64887200000"
},
"geometry":{
"type":"Point",
"coordinates":[
130.648872,
32.562802
]
}
},
{
"type":"Feature",
"properties":{
"Name":"鏡保健センター",
"Jusho":"熊本県八代市",
"Capacity":"160",
"la":"32.56294429660",
"ln":"130.64847391000"
},
"geometry":{
"type":"Point",
"coordinates":[
130.64847391,
32.5629442966
]
}
},
{
"type":"Feature",
"properties":{
"Name":"勤労青少年ホーム",
"Jusho":"熊本県八代市",
"Capacity":"100",
"la":"32.50443700000",
"ln":"130.59210500000"
},
"geometry":{
"type":"Point",
"coordinates":[
130.592105,
32.504437
]
}
},
{
"type":"Feature",
"properties":{
"Name":"勤労福祉会館",
"Jusho":"熊本県八代市",
"Capacity":"200",
"la":"32.50767900000",
"ln":"130.59494200000"
},
"geometry":{
"type":"Point",
"coordinates":[
130.594942,
32.507679
]
}
},
{
"type":"Feature",
"properties":{
"Name":"金剛公民館",
"Jusho":"熊本県八代市揚町800番地2",
"Capacity":"200",
"la":"32.46986700000",
"ln":"130.58814300000"
},
"geometry":{
"type":"Point",
"coordinates":[
130.588143,
32.469867
]
}
},
{
"type":"Feature",
"properties":{
"Name":"金剛敷川内分校",
"Jusho":"熊本県八代市",
"Capacity":"110",
"la":"32.45276099910",
"ln":"130.59418500000"
},
"geometry":{
"type":"Point",
"coordinates":[
130.594185,
32.4527609991
]
}
},
{
"type":"Feature",
"properties":{
"Name":"郡築公民館",
"Jusho":"熊本県八代市郡築六番町61番地2",
"Capacity":"200",
"la":"32.53543700000",
"ln":"130.57293500000"
},
"geometry":{
"type":"Point",
"coordinates":[
130.572935,
32.535437
]
}
},
{
"type":"Feature",
"properties":{
"Name":"古麓町公民館",
"Jusho":"熊本県八代市古麓町",
"Capacity":"30",
"la":"32.49246173110",
"ln":"130.63572704400"
},
"geometry":{
"type":"Point",
"coordinates":[
130.635727044,
32.4924617311
]
}
},
{
"type":"Feature",
"properties":{
"Name":"五家荘憩いの家",
"Jusho":"熊本県八代市",
"Capacity":"200",
"la":"32.48986077220",
"ln":"130.90347894200"
},
"geometry":{
"type":"Point",
"coordinates":[
130.903478942,
32.4898607722
]
}
},
{
"type":"Feature",
"properties":{
"Name":"五家荘自然塾",
"Jusho":"熊本県八代市泉町仁田尾25番地",
"Capacity":"80",
"la":"32.55609908290",
"ln":"130.89092800000"
},
"geometry":{
"type":"Point",
"coordinates":[
130.890928,
32.5560990829
]
}
},
{
"type":"Feature",
"properties":{
"Name":"厚生会館",
"Jusho":"熊本県八代市",
"Capacity":"500",
"la":"32.50785400000",
"ln":"130.59814100000"
},
"geometry":{
"type":"Point",
"coordinates":[
130.598141,
32.507854
]
}
},
{
"type":"Feature",
"properties":{
"Name":"広域交流センターさかもと館",
"Jusho":"熊本県八代市",
"Capacity":"200",
"la":"32.42684219500",
"ln":"130.64078736900"
},
"geometry":{
"type":"Point",
"coordinates":[
130.640787369,
32.426842195
]
}
},
{
"type":"Feature",
"properties":{
"Name":"高田公民館",
"Jusho":"熊本県八代市本野町505番地",
"Capacity":"200",
"la":"32.48706800000",
"ln":"130.61670400000"
},
"geometry":{
"type":"Point",
"coordinates":[
130.616704,
32.487068
]
}
},
{
"type":"Feature",
"properties":{
"Name":"坂本憩いの家",
"Jusho":"熊本県八代市",
"Capacity":"150",
"la":"32.41723894920",
"ln":"130.61722981200"
},
"geometry":{
"type":"Point",
"coordinates":[
130.617229812,
32.4172389492
]
}
},
{
"type":"Feature",
"properties":{
"Name":"坂本支所",
"Jusho":"熊本県八代市坂本町坂本4228－2",
"Capacity":"100",
"la":"32.43551800000",
"ln":"130.65732000000"
},
"geometry":{
"type":"Point",
"coordinates":[
130.65732,
32.435518
]
}
},
{
"type":"Feature",
"properties":{
"Name":"二見公民館",
"Jusho":"熊本県八代市二見下大野町2432番地1",
"Capacity":"200",
"la":"32.40714800000",
"ln":"130.55910900000"
},
"geometry":{
"type":"Point",
"coordinates":[
130.559109,
32.407148
]
}
},
{
"type":"Feature",
"properties":{
"Name":"市保健センター",
"Jusho":"熊本県八代市",
"Capacity":"672",
"la":"32.48751341640",
"ln":"130.60816878200"
},
"geometry":{
"type":"Point",
"coordinates":[
130.608168782,
32.4875134164
]
}
},
{
"type":"Feature",
"properties":{
"Name":"市民球場",
"Jusho":"熊本県八代市",
"Capacity":"100",
"la":"32.53076800000",
"ln":"130.60649900000"
},
"geometry":{
"type":"Point",
"coordinates":[
130.606499,
32.530768
]
}
},
{
"type":"Feature",
"properties":{
"Name":"秀岳館高校",
"Jusho":"熊本県八代市",
"Capacity":"2950",
"la":"32.51686600000",
"ln":"130.60440400000"
},
"geometry":{
"type":"Point",
"coordinates":[
130.604404,
32.516866
]
}
},
{
"type":"Feature",
"properties":{
"Name":"松高公民館",
"Jusho":"熊本県八代市永碇町754番地2",
"Capacity":"200",
"la":"32.51934100000",
"ln":"130.59226100000"
},
"geometry":{
"type":"Point",
"coordinates":[
130.592261,
32.519341
]
}
},
{
"type":"Feature",
"properties":{
"Name":"植柳公民館",
"Jusho":"熊本県八代市植柳下町4251番地2",
"Capacity":"200",
"la":"32.48540300000",
"ln":"130.59874700000"
},
"geometry":{
"type":"Point",
"coordinates":[
130.598747,
32.485403
]
}
},
{
"type":"Feature",
"properties":{
"Name":"新開新浜町公民館",
"Jusho":"熊本県八代市新開町",
"Capacity":"30",
"la":"32.50731482440",
"ln":"130.58030080500"
},
"geometry":{
"type":"Point",
"coordinates":[
130.580300805,
32.5073148244
]
}
},
{
"type":"Feature",
"properties":{
"Name":"深水社会教育センタ",
"Jusho":"熊本県八代市坂本町深水い1471",
"Capacity":"600",
"la":"32.46999082830",
"ln":"130.69298030500"
},
"geometry":{
"type":"Point",
"coordinates":[
130.692980305,
32.4699908283
]
}
},
{
"type":"Feature",
"properties":{
"Name":"深水生活改善センター",
"Jusho":"熊本県八代市坂本町深水い1542-2",
"Capacity":"100",
"la":"32.46985939980",
"ln":"130.69476676900"
},
"geometry":{
"type":"Point",
"coordinates":[
130.694766769,
32.4698593998
]
}
},
{
"type":"Feature",
"properties":{
"Name":"西部社会教育センター",
"Jusho":"熊本県八代市",
"Capacity":"600",
"la":"32.46815212020",
"ln":"130.64624815400"
},
"geometry":{
"type":"Point",
"coordinates":[
130.646248154,
32.4681521202
]
}
},
{
"type":"Feature",
"properties":{
"Name":"西部多目的集会施設",
"Jusho":"熊本県八代市坂本町西部は1896",
"Capacity":"100",
"la":"32.46787778870",
"ln":"130.64656859100"
},
"geometry":{
"type":"Point",
"coordinates":[
130.646568591,
32.4678777887
]
}
},
{
"type":"Feature",
"properties":{
"Name":"千丁公民館",
"Jusho":"熊本県八代市千丁町新牟田1434番地",
"Capacity":"100",
"la":"32.53496400000",
"ln":"130.63370000000"
},
"geometry":{
"type":"Point",
"coordinates":[
130.6337,
32.534964
]
}
},
{
"type":"Feature",
"properties":{
"Name":"千丁支所",
"Jusho":"熊本県八代市千丁町新牟田1502－",
"Capacity":"40",
"la":"32.53434800000",
"ln":"130.63299100000"
},
"geometry":{
"type":"Point",
"coordinates":[
130.632991,
32.534348
]
}
},
{
"type":"Feature",
"properties":{
"Name":"千丁体育館",
"Jusho":"熊本県八代市",
"Capacity":"400",
"la":"32.53614699910",
"ln":"130.63004100000"
},
"geometry":{
"type":"Point",
"coordinates":[
130.630041,
32.5361469991
]
}
},
{
"type":"Feature",
"properties":{
"Name":"泉支所",
"Jusho":"熊本県八代市泉町柿迫3131",
"Capacity":"800",
"la":"32.54763500000",
"ln":"130.80974800000"
},
"geometry":{
"type":"Point",
"coordinates":[
130.809748,
32.547635
]
}
},
{
"type":"Feature",
"properties":{
"Name":"総合体育館",
"Jusho":"熊本県八代市",
"Capacity":"3000",
"la":"32.50479299910",
"ln":"130.61045100000"
},
"geometry":{
"type":"Point",
"coordinates":[
130.610451,
32.5047929991
]
}
},
{
"type":"Feature",
"properties":{
"Name":"太田郷公民館",
"Jusho":"熊本県八代市井上町601番地1",
"Capacity":"300",
"la":"32.51522400000",
"ln":"130.63002800000"
},
"geometry":{
"type":"Point",
"coordinates":[
130.630028,
32.515224
]
}
},
{
"type":"Feature",
"properties":{
"Name":"代陽公民館",
"Jusho":"熊本県八代市西松江城町2番18号",
"Capacity":"200",
"la":"32.50710600000",
"ln":"130.59732100000"
},
"geometry":{
"type":"Point",
"coordinates":[
130.597321,
32.507106
]
}
},
{
"type":"Feature",
"properties":{
"Name":"大島公民館（大島分校跡）",
"Jusho":"熊本県八代市",
"Capacity":"80",
"la":"32.53859371820",
"ln":"130.55492865200"
},
"geometry":{
"type":"Point",
"coordinates":[
130.554928652,
32.5385937182
]
}
},
{
"type":"Feature",
"properties":{
"Name":"大島石灰事務所",
"Jusho":"熊本県八代市",
"Capacity":"100",
"la":"32.53953906210",
"ln":"130.55649175100"
},
"geometry":{
"type":"Point",
"coordinates":[
130.556491751,
32.5395390621
]
}
},
{
"type":"Feature",
"properties":{
"Name":"中九州短期大学",
"Jusho":"熊本県八代市平山新町4438",
"Capacity":"890",
"la":"32.47714800000",
"ln":"130.60840400000"
},
"geometry":{
"type":"Point",
"coordinates":[
130.608404,
32.477148
]
}
},
{
"type":"Feature",
"properties":{
"Name":"中津道社会教育センター",
"Jusho":"熊本県八代市",
"Capacity":"600",
"la":"32.38235300000",
"ln":"130.65441400000"
},
"geometry":{
"type":"Point",
"coordinates":[
130.654414,
32.382353
]
}
},
{
"type":"Feature",
"properties":{
"Name":"鶴喰生活改善センター",
"Jusho":"熊本県八代市坂本町鶴喰2220",
"Capacity":"100",
"la":"32.41756024580",
"ln":"130.62296865300"
},
"geometry":{
"type":"Point",
"coordinates":[
130.622968653,
32.4175602458
]
}
},
{
"type":"Feature",
"properties":{
"Name":"田上社会教育センター",
"Jusho":"熊本県八代市坂本町田上2006",
"Capacity":"600",
"la":"32.41123381970",
"ln":"130.62964404800"
},
"geometry":{
"type":"Point",
"coordinates":[
130.629644048,
32.4112338197
]
}
},
{
"type":"Feature",
"properties":{
"Name":"藤本社会教育センター",
"Jusho":"熊本県八代市坂本町葉木4259番地",
"Capacity":"600",
"la":"32.42964950230",
"ln":"130.64909435000"
},
"geometry":{
"type":"Point",
"coordinates":[
130.64909435,
32.4296495023
]
}
},
{
"type":"Feature",
"properties":{
"Name":"働く婦人の家",
"Jusho":"熊本県八代市",
"Capacity":"250",
"la":"32.50569600000",
"ln":"130.61583100000"
},
"geometry":{
"type":"Point",
"coordinates":[
130.615831,
32.505696
]
}
},
{
"type":"Feature",
"properties":{
"Name":"南部市民センター",
"Jusho":"熊本県八代市日奈久塩南町甲13",
"Capacity":"100",
"la":"32.43493687980",
"ln":"130.57879966000"
},
"geometry":{
"type":"Point",
"coordinates":[
130.57879966,
32.4349368798
]
}
},
{
"type":"Feature",
"properties":{
"Name":"日奈久ドリームランド「シー・湯・遊」",
"Jusho":"熊本県八代市日奈久平成町1－1",
"Capacity":"－",
"la":"32.43138504910",
"ln":"130.56680047000"
},
"geometry":{
"type":"Point",
"coordinates":[
130.56680047,
32.4313850491
]
}
},
{
"type":"Feature",
"properties":{
"Name":"日奈久温泉センター",
"Jusho":"熊本県八代市",
"Capacity":"90",
"la":"32.43237764990",
"ln":"130.57509552200"
},
"geometry":{
"type":"Point",
"coordinates":[
130.575095522,
32.4323776499
]
}
},
{
"type":"Feature",
"properties":{
"Name":"日奈久老人憩いの家",
"Jusho":"熊本県八代市日奈久中西町392",
"Capacity":"116",
"la":"32.43231683510",
"ln":"130.57337160500"
},
"geometry":{
"type":"Point",
"coordinates":[
130.573371605,
32.4323168351
]
}
},
{
"type":"Feature",
"properties":{
"Name":"農村婦人の家",
"Jusho":"熊本県八代市",
"Capacity":"200",
"la":"32.55972997290",
"ln":"130.60359469600"
},
"geometry":{
"type":"Point",
"coordinates":[
130.603594696,
32.5597299729
]
}
},
{
"type":"Feature",
"properties":{
"Name":"白百合学園高校",
"Jusho":"熊本県八代市",
"Capacity":"1860",
"la":"32.51853463520",
"ln":"130.63135498300"
},
"geometry":{
"type":"Point",
"coordinates":[
130.631354983,
32.5185346352
]
}
},
{
"type":"Feature",
"properties":{
"Name":"麦島公民館",
"Jusho":"熊本県八代市古城町2259番地",
"Capacity":"500",
"la":"32.49727600000",
"ln":"130.59244700000"
},
"geometry":{
"type":"Point",
"coordinates":[
130.592447,
32.497276
]
}
},
{
"type":"Feature",
"properties":{
"Name":"八千把公民館",
"Jusho":"熊本県八代市上野町1193番地1",
"Capacity":"200",
"la":"32.51841500000",
"ln":"130.61412300000"
},
"geometry":{
"type":"Point",
"coordinates":[
130.614123,
32.518415
]
}
},
{
"type":"Feature",
"properties":{
"Name":"八千把小浜分校",
"Jusho":"熊本県八代市",
"Capacity":"25",
"la":"32.53905899910",
"ln":"130.60426400000"
},
"geometry":{
"type":"Point",
"coordinates":[
130.604264,
32.5390589991
]
}
},
{
"type":"Feature",
"properties":{
"Name":"八代公民館",
"Jusho":"熊本県八代市新地町6番3号",
"Capacity":"200",
"la":"32.50917200000",
"ln":"130.59050000000"
},
"geometry":{
"type":"Point",
"coordinates":[
130.5905,
32.509172
]
}
},
{
"type":"Feature",
"properties":{
"Name":"八代工業高等専門学校",
"Jusho":"熊本県八代市平山新町2627",
"Capacity":"510",
"la":"32.47606500000",
"ln":"130.60707100000"
},
"geometry":{
"type":"Point",
"coordinates":[
130.607071,
32.476065
]
}
},
{
"type":"Feature",
"properties":{
"Name":"八代工業高校",
"Jusho":"熊本県八代市",
"Capacity":"630",
"la":"32.48747999910",
"ln":"130.60587600000"
},
"geometry":{
"type":"Point",
"coordinates":[
130.605876,
32.4874799991
]
}
},
{
"type":"Feature",
"properties":{
"Name":"八代高校",
"Jusho":"熊本県八代市",
"Capacity":"1800",
"la":"32.51956000000",
"ln":"130.59712600000"
},
"geometry":{
"type":"Point",
"coordinates":[
130.597126,
32.51956
]
}
},
{
"type":"Feature",
"properties":{
"Name":"八代高等職業訓練校",
"Jusho":"熊本県八代市清水町2番94号",
"Capacity":"300",
"la":"32.50583129950",
"ln":"130.61588447800"
},
"geometry":{
"type":"Point",
"coordinates":[
130.615884478,
32.5058312995
]
}
},
{
"type":"Feature",
"properties":{
"Name":"八代市坂本公民館",
"Jusho":"熊本県八代市坂本町坂本4228番地24",
"Capacity":"500",
"la":"32.43510799830",
"ln":"130.65724192800"
},
"geometry":{
"type":"Point",
"coordinates":[
130.657241928,
32.4351079983
]
}
},
{
"type":"Feature",
"properties":{
"Name":"八代市坂本地域福祉センター",
"Jusho":"熊本県八代市坂本町荒期1307",
"Capacity":"500",
"la":"32.42574200000",
"ln":"130.64035900000"
},
"geometry":{
"type":"Point",
"coordinates":[
130.640359,
32.425742
]
}
},
{
"type":"Feature",
"properties":{
"Name":"八代市泉憩いの家",
"Jusho":"熊本県八代市泉町下岳2974番地",
"Capacity":"200",
"la":"32.57579848320",
"ln":"130.79119807200"
},
"geometry":{
"type":"Point",
"coordinates":[
130.791198072,
32.5757984832
]
}
},
{
"type":"Feature",
"properties":{
"Name":"八代市東陽公民館及びスポーツセンター",
"Jusho":"熊本県八代市",
"Capacity":"850",
"la":"32.54394006330",
"ln":"130.71136515500"
},
"geometry":{
"type":"Point",
"coordinates":[
130.711365155,
32.5439400633
]
}
},
{
"type":"Feature",
"properties":{
"Name":"八代市東陽地域福祉保健センター",
"Jusho":"熊本県八代市東場町南1075",
"Capacity":"440",
"la":"32.54595300000",
"ln":"130.71772900000"
},
"geometry":{
"type":"Point",
"coordinates":[
130.717729,
32.545953
]
}
},
{
"type":"Feature",
"properties":{
"Name":"八代市東陽定住センター",
"Jusho":"熊本県八代市東陽町南1058番地1",
"Capacity":"170",
"la":"32.54750178970",
"ln":"130.71607153600"
},
"geometry":{
"type":"Point",
"coordinates":[
130.716071536,
32.5475017897
]
}
},
{
"type":"Feature",
"properties":{
"Name":"八代市農村環境改善センター",
"Jusho":"熊本県八代市",
"Capacity":"250",
"la":"32.56207303540",
"ln":"130.64477900000"
},
"geometry":{
"type":"Point",
"coordinates":[
130.644779,
32.5620730354
]
}
},
{
"type":"Feature",
"properties":{
"Name":"八代実業専門学校",
"Jusho":"熊本県八代市",
"Capacity":"200",
"la":"32.49784092770",
"ln":"130.60128536200"
},
"geometry":{
"type":"Point",
"coordinates":[
130.601285362,
32.4978409277
]
}
},
{
"type":"Feature",
"properties":{
"Name":"八代地域農協金剛支所",
"Jusho":"熊本県八代市",
"Capacity":"50",
"la":"32.47036860720",
"ln":"130.58674878800"
},
"geometry":{
"type":"Point",
"coordinates":[
130.586748788,
32.4703686072
]
}
},
{
"type":"Feature",
"properties":{
"Name":"八代地域農協郡築支所",
"Jusho":"熊本県八代市",
"Capacity":"100",
"la":"32.53334080830",
"ln":"130.57329302400"
},
"geometry":{
"type":"Point",
"coordinates":[
130.573293024,
32.5333408083
]
}
},
{
"type":"Feature",
"properties":{
"Name":"八代地域農協高田支所",
"Jusho":"熊本県八代市",
"Capacity":"50",
"la":"32.48848067500",
"ln":"130.61765418800"
},
"geometry":{
"type":"Point",
"coordinates":[
130.617654188,
32.488480675
]
}
},
{
"type":"Feature",
"properties":{
"Name":"八代地域農協昭和支所",
"Jusho":"熊本県八代市",
"Capacity":"150",
"la":"32.55833416100",
"ln":"130.60174972800"
},
"geometry":{
"type":"Point",
"coordinates":[
130.601749728,
32.558334161
]
}
},
{
"type":"Feature",
"properties":{
"Name":"八代地域農協松高支所",
"Jusho":"熊本県八代市",
"Capacity":"50",
"la":"32.51955517900",
"ln":"130.59504420900"
},
"geometry":{
"type":"Point",
"coordinates":[
130.595044209,
32.519555179
]
}
},
{
"type":"Feature",
"properties":{
"Name":"八代地域農協植柳支所",
"Jusho":"熊本県八代市",
"Capacity":"50",
"la":"32.49105199070",
"ln":"130.60183710200"
},
"geometry":{
"type":"Point",
"coordinates":[
130.601837102,
32.4910519907
]
}
},
{
"type":"Feature",
"properties":{
"Name":"八代地域農協太田郷支所",
"Jusho":"熊本県八代市",
"Capacity":"410",
"la":"32.51150728820",
"ln":"130.62611687200"
},
"geometry":{
"type":"Point",
"coordinates":[
130.626116872,
32.5115072882
]
}
},
{
"type":"Feature",
"properties":{
"Name":"八代地域農協日奈久支所",
"Jusho":"熊本県八代市",
"Capacity":"50",
"la":"32.43736520900",
"ln":"130.58238726900"
},
"geometry":{
"type":"Point",
"coordinates":[
130.582387269,
32.437365209
]
}
},
{
"type":"Feature",
"properties":{
"Name":"八代地域農協八千把支所",
"Jusho":"熊本県八代市",
"Capacity":"50",
"la":"32.51756982160",
"ln":"130.61245384000"
},
"geometry":{
"type":"Point",
"coordinates":[
130.61245384,
32.5175698216
]
}
},
{
"type":"Feature",
"properties":{
"Name":"八代地域農協平和支所",
"Jusho":"熊本県八代市",
"Capacity":"60",
"la":"32.48517133540",
"ln":"130.55680284100"
},
"geometry":{
"type":"Point",
"coordinates":[
130.556802841,
32.4851713354
]
}
},
{
"type":"Feature",
"properties":{
"Name":"八代地域農協本所",
"Jusho":"熊本県八代市",
"Capacity":"150",
"la":"32.49527050400",
"ln":"130.58643221000"
},
"geometry":{
"type":"Point",
"coordinates":[
130.58643221,
32.495270504
]
}
},
{
"type":"Feature",
"properties":{
"Name":"八代地域農協龍峯支所",
"Jusho":"熊本県八代市",
"Capacity":"65",
"la":"32.53244856700",
"ln":"130.66307733100"
},
"geometry":{
"type":"Point",
"coordinates":[
130.663077331,
32.532448567
]
}
},
{
"type":"Feature",
"properties":{
"Name":"八代東高校",
"Jusho":"熊本県八代市",
"Capacity":"920",
"la":"32.51077299910",
"ln":"130.60359000000"
},
"geometry":{
"type":"Point",
"coordinates":[
130.60359,
32.5107729991
]
}
},
{
"type":"Feature",
"properties":{
"Name":"板木・保口地区集会所",
"Jusho":"熊本県八代市泉町柿迫板木、保口",
"Capacity":"200",
"la":"32.48505337060",
"ln":"130.87515742500"
},
"geometry":{
"type":"Point",
"coordinates":[
130.875157425,
32.4850533706
]
}
},
{
"type":"Feature",
"properties":{
"Name":"百済来スポーツセンター",
"Jusho":"熊本県八代市坂本町田上150番地",
"Capacity":"100",
"la":"32.40504788300",
"ln":"130.61701103200"
},
"geometry":{
"type":"Point",
"coordinates":[
130.617011032,
32.405047883
]
}
},
{
"type":"Feature",
"properties":{
"Name":"北新地グランド",
"Jusho":"熊本県八代市鏡町北新地1205",
"Capacity":"－",
"la":"32.58457650500",
"ln":"130.60582986800"
},
"geometry":{
"type":"Point",
"coordinates":[
130.605829868,
32.584576505
]
}
},
{
"type":"Feature",
"properties":{
"Name":"龍峯農業研修所（龍峯出張所）",
"Jusho":"熊本県八代市",
"Capacity":"230",
"la":"32.52933854070",
"ln":"130.66400495600"
},
"geometry":{
"type":"Point",
"coordinates":[
130.664004956,
32.5293385407
]
}
},
{
"type":"Feature",
"properties":{
"Name":"うぐいす荘",
"Jusho":"熊本県人吉市蟹作町西中通222－",
"Capacity":"－",
"la":"32.19385200000",
"ln":"130.78148300000"
},
"geometry":{
"type":"Point",
"coordinates":[
130.781483,
32.193852
]
}
},
{
"type":"Feature",
"properties":{
"Name":"井ノ口町公民館",
"Jusho":"熊本県人吉市井ノ口町",
"Capacity":"－",
"la":"32.24637713930",
"ln":"130.74529877000"
},
"geometry":{
"type":"Point",
"coordinates":[
130.74529877,
32.2463771393
]
}
},
{
"type":"Feature",
"properties":{
"Name":"羽田公民館",
"Jusho":"熊本県人吉市",
"Capacity":"－",
"la":"32.23154615800",
"ln":"130.73234643500"
},
"geometry":{
"type":"Point",
"coordinates":[
130.732346435,
32.231546158
]
}
},
{
"type":"Feature",
"properties":{
"Name":"瓜生田地域学習センター",
"Jusho":"熊本県人吉市",
"Capacity":"－",
"la":"32.23007315810",
"ln":"130.71700030200"
},
"geometry":{
"type":"Point",
"coordinates":[
130.717000302,
32.2300731581
]
}
},
{
"type":"Feature",
"properties":{
"Name":"永国寺",
"Jusho":"熊本県人吉市",
"Capacity":"－",
"la":"32.20803173530",
"ln":"130.75610549200"
},
"geometry":{
"type":"Point",
"coordinates":[
130.756105492,
32.2080317353
]
}
},
{
"type":"Feature",
"properties":{
"Name":"下新町会館",
"Jusho":"熊本県人吉市",
"Capacity":"－",
"la":"32.21570996090",
"ln":"130.76886739100"
},
"geometry":{
"type":"Point",
"coordinates":[
130.768867391,
32.2157099609
]
}
},
{
"type":"Feature",
"properties":{
"Name":"下青井町内会館",
"Jusho":"熊本県人吉市下青井町",
"Capacity":"－",
"la":"32.21136594310",
"ln":"130.75118850500"
},
"geometry":{
"type":"Point",
"coordinates":[
130.751188505,
32.2113659431
]
}
},
{
"type":"Feature",
"properties":{
"Name":"下林２区公民館",
"Jusho":"熊本県人吉市下林町",
"Capacity":"－",
"la":"32.21976966060",
"ln":"130.73018656700"
},
"geometry":{
"type":"Point",
"coordinates":[
130.730186567,
32.2197696606
]
}
},
{
"type":"Feature",
"properties":{
"Name":"下林町仮屋公民館",
"Jusho":"熊本県人吉市下林町",
"Capacity":"－",
"la":"32.21825778220",
"ln":"130.73231519300"
},
"geometry":{
"type":"Point",
"coordinates":[
130.732315193,
32.2182577822
]
}
},
{
"type":"Feature",
"properties":{
"Name":"下林町前村公民館",
"Jusho":"熊本県人吉市下林町",
"Capacity":"－",
"la":"32.22032004270",
"ln":"130.73379037900"
},
"geometry":{
"type":"Point",
"coordinates":[
130.733790379,
32.2203200427
]
}
},
{
"type":"Feature",
"properties":{
"Name":"蟹作町公民館",
"Jusho":"熊本県人吉市蟹作町",
"Capacity":"－",
"la":"32.19605422900",
"ln":"130.77934227100"
},
"geometry":{
"type":"Point",
"coordinates":[
130.779342271,
32.196054229
]
}
},
{
"type":"Feature",
"properties":{
"Name":"楽行寺",
"Jusho":"熊本県人吉市",
"Capacity":"－",
"la":"32.21896826500",
"ln":"130.73289495300"
},
"geometry":{
"type":"Point",
"coordinates":[
130.732894953,
32.218968265
]
}
},
{
"type":"Feature",
"properties":{
"Name":"観音寺",
"Jusho":"熊本県人吉市",
"Capacity":"－",
"la":"32.21643477200",
"ln":"130.77289624200"
},
"geometry":{
"type":"Point",
"coordinates":[
130.772896242,
32.216434772
]
}
},
{
"type":"Feature",
"properties":{
"Name":"願成寺",
"Jusho":"熊本県人吉市",
"Capacity":"－",
"la":"32.21830475540",
"ln":"130.77247842100"
},
"geometry":{
"type":"Point",
"coordinates":[
130.772478421,
32.2183047554
]
}
},
{
"type":"Feature",
"properties":{
"Name":"鬼木会館",
"Jusho":"熊本県人吉市",
"Capacity":"－",
"la":"32.22224421060",
"ln":"130.76463939100"
},
"geometry":{
"type":"Point",
"coordinates":[
130.764639391,
32.2222442106
]
}
},
{
"type":"Feature",
"properties":{
"Name":"球磨工業高校",
"Jusho":"熊本県人吉市城本町800",
"Capacity":"－",
"la":"32.21940000000",
"ln":"130.75254300000"
},
"geometry":{
"type":"Point",
"coordinates":[
130.752543,
32.2194
]
}
},
{
"type":"Feature",
"properties":{
"Name":"牛塚公民館",
"Jusho":"熊本県人吉市",
"Capacity":"－",
"la":"32.24178358110",
"ln":"130.73879660200"
},
"geometry":{
"type":"Point",
"coordinates":[
130.738796602,
32.2417835811
]
}
},
{
"type":"Feature",
"properties":{
"Name":"駒井田町会館",
"Jusho":"熊本県人吉市",
"Capacity":"－",
"la":"32.21669750580",
"ln":"130.75787147800"
},
"geometry":{
"type":"Point",
"coordinates":[
130.757871478,
32.2166975058
]
}
},
{
"type":"Feature",
"properties":{
"Name":"元商工センター",
"Jusho":"熊本県人吉市九日町",
"Capacity":"－",
"la":"32.21440285150",
"ln":"130.75906487400"
},
"geometry":{
"type":"Point",
"coordinates":[
130.759064874,
32.2144028515
]
}
},
{
"type":"Feature",
"properties":{
"Name":"古仏頂町公民館",
"Jusho":"熊本県人吉市古仏頂町",
"Capacity":"－",
"la":"32.17111362360",
"ln":"130.76123990300"
},
"geometry":{
"type":"Point",
"coordinates":[
130.761239903,
32.1711136236
]
}
},
{
"type":"Feature",
"properties":{
"Name":"荒毛集落センター",
"Jusho":"熊本県人吉市",
"Capacity":"－",
"la":"32.22992150680",
"ln":"130.72900839200"
},
"geometry":{
"type":"Point",
"coordinates":[
130.729008392,
32.2299215068
]
}
},
{
"type":"Feature",
"properties":{
"Name":"高仁田公民館",
"Jusho":"熊本県人吉市田野町高仁田",
"Capacity":"－",
"la":"32.12526037020",
"ln":"130.68760783000"
},
"geometry":{
"type":"Point",
"coordinates":[
130.68760783,
32.1252603702
]
}
},
{
"type":"Feature",
"properties":{
"Name":"合ノ原町公民館",
"Jusho":"熊本県人吉市",
"Capacity":"－",
"la":"32.23303229880",
"ln":"130.74936255000"
},
"geometry":{
"type":"Point",
"coordinates":[
130.74936255,
32.2330322988
]
}
},
{
"type":"Feature",
"properties":{
"Name":"紺屋町会館",
"Jusho":"熊本県人吉市",
"Capacity":"－",
"la":"32.21634506930",
"ln":"130.75951131100"
},
"geometry":{
"type":"Point",
"coordinates":[
130.759511311,
32.2163450693
]
}
},
{
"type":"Feature",
"properties":{
"Name":"嵯峨里公民館",
"Jusho":"熊本県人吉市",
"Capacity":"－",
"la":"32.23861331510",
"ln":"130.72569126100"
},
"geometry":{
"type":"Point",
"coordinates":[
130.725691261,
32.2386133151
]
}
},
{
"type":"Feature",
"properties":{
"Name":"七地町公民館",
"Jusho":"熊本県人吉市七地町",
"Capacity":"－",
"la":"32.20886519300",
"ln":"130.77701169500"
},
"geometry":{
"type":"Point",
"coordinates":[
130.777011695,
32.208865193
]
}
},
{
"type":"Feature",
"properties":{
"Name":"七日町会館",
"Jusho":"熊本県人吉市七日町",
"Capacity":"－",
"la":"32.21518063800",
"ln":"130.76598693900"
},
"geometry":{
"type":"Point",
"coordinates":[
130.765986939,
32.215180638
]
}
},
{
"type":"Feature",
"properties":{
"Name":"若宮神社",
"Jusho":"熊本県人吉市",
"Capacity":"－",
"la":"32.21503795830",
"ln":"130.76455736200"
},
"geometry":{
"type":"Point",
"coordinates":[
130.764557362,
32.2150379583
]
}
},
{
"type":"Feature",
"properties":{
"Name":"修成館",
"Jusho":"熊本県人吉市",
"Capacity":"－",
"la":"32.22102635930",
"ln":"130.75821865200"
},
"geometry":{
"type":"Point",
"coordinates":[
130.758218652,
32.2210263593
]
}
},
{
"type":"Feature",
"properties":{
"Name":"小柿公民館",
"Jusho":"熊本県人吉市",
"Capacity":"－",
"la":"32.21371599340",
"ln":"130.72306752200"
},
"geometry":{
"type":"Point",
"coordinates":[
130.723067522,
32.2137159934
]
}
},
{
"type":"Feature",
"properties":{
"Name":"菖浦町内会館",
"Jusho":"熊本県人吉市",
"Capacity":"－",
"la":"32.25198262630",
"ln":"130.73851422900"
},
"geometry":{
"type":"Point",
"coordinates":[
130.738514229,
32.2519826263
]
}
},
{
"type":"Feature",
"properties":{
"Name":"上原町内会館",
"Jusho":"熊本県人吉市",
"Capacity":"－",
"la":"32.23940280080",
"ln":"130.73332749300"
},
"geometry":{
"type":"Point",
"coordinates":[
130.733327493,
32.2394028008
]
}
},
{
"type":"Feature",
"properties":{
"Name":"上原田活性化センター",
"Jusho":"熊本県人吉市",
"Capacity":"－",
"la":"32.24389532310",
"ln":"130.73511166700"
},
"geometry":{
"type":"Point",
"coordinates":[
130.735111667,
32.2438953231
]
}
},
{
"type":"Feature",
"properties":{
"Name":"上林１区公民館",
"Jusho":"熊本県人吉市",
"Capacity":"－",
"la":"32.22990391640",
"ln":"130.74308450700"
},
"geometry":{
"type":"Point",
"coordinates":[
130.743084507,
32.2299039164
]
}
},
{
"type":"Feature",
"properties":{
"Name":"上林二区公民館",
"Jusho":"熊本県人吉市上林町",
"Capacity":"－",
"la":"32.22750994270",
"ln":"130.74115354600"
},
"geometry":{
"type":"Point",
"coordinates":[
130.741153546,
32.2275099427
]
}
},
{
"type":"Feature",
"properties":{
"Name":"人吉スポーツパレス",
"Jusho":"熊本県人吉市下城本町1566－",
"Capacity":"－",
"la":"32.21737500000",
"ln":"130.74009500000"
},
"geometry":{
"type":"Point",
"coordinates":[
130.740095,
32.217375
]
}
},
{
"type":"Feature",
"properties":{
"Name":"人吉高校",
"Jusho":"熊本県人吉市北泉田町350",
"Capacity":"－",
"la":"32.22034500000",
"ln":"130.76801400000"
},
"geometry":{
"type":"Point",
"coordinates":[
130.768014,
32.220345
]
}
},
{
"type":"Feature",
"properties":{
"Name":"人吉市役所",
"Jusho":"熊本県人吉市麓町16",
"Capacity":"－",
"la":"32.21004000000",
"ln":"130.76251500000"
},
"geometry":{
"type":"Point",
"coordinates":[
130.762515,
32.21004
]
}
},
{
"type":"Feature",
"properties":{
"Name":"人吉市役所別館",
"Jusho":"熊本県人吉市",
"Capacity":"－",
"la":"32.20586861330",
"ln":"130.75922175400"
},
"geometry":{
"type":"Point",
"coordinates":[
130.759221754,
32.2058686133
]
}
},
{
"type":"Feature",
"properties":{
"Name":"人吉商工会議所",
"Jusho":"熊本県人吉市",
"Capacity":"－",
"la":"32.21750877900",
"ln":"130.76122244900"
},
"geometry":{
"type":"Point",
"coordinates":[
130.761222449,
32.217508779
]
}
},
{
"type":"Feature",
"properties":{
"Name":"西間下町公民館",
"Jusho":"熊本県人吉市西間下町",
"Capacity":"－",
"la":"32.20223950370",
"ln":"130.75954401000"
},
"geometry":{
"type":"Point",
"coordinates":[
130.75954401,
32.2022395037
]
}
},
{
"type":"Feature",
"properties":{
"Name":"西間上町公民館",
"Jusho":"熊本県人吉市西間上町",
"Capacity":"－",
"la":"32.19836865090",
"ln":"130.76282484300"
},
"geometry":{
"type":"Point",
"coordinates":[
130.762824843,
32.1983686509
]
}
},
{
"type":"Feature",
"properties":{
"Name":"西門地域学習センター",
"Jusho":"熊本県人吉市",
"Capacity":"－",
"la":"32.23581252220",
"ln":"130.71996105800"
},
"geometry":{
"type":"Point",
"coordinates":[
130.719961058,
32.2358125222
]
}
},
{
"type":"Feature",
"properties":{
"Name":"青井神社",
"Jusho":"熊本県人吉市",
"Capacity":"－",
"la":"32.21839173400",
"ln":"130.75598580300"
},
"geometry":{
"type":"Point",
"coordinates":[
130.755985803,
32.218391734
]
}
},
{
"type":"Feature",
"properties":{
"Name":"青井幼稚園",
"Jusho":"熊本県人吉市上青井町117-2",
"Capacity":"－",
"la":"32.21304000000",
"ln":"130.75262700000"
},
"geometry":{
"type":"Point",
"coordinates":[
130.752627,
32.21304
]
}
},
{
"type":"Feature",
"properties":{
"Name":"赤池原町公民館",
"Jusho":"熊本県人吉市",
"Capacity":"－",
"la":"32.19025742660",
"ln":"130.78378231700"
},
"geometry":{
"type":"Point",
"coordinates":[
130.783782317,
32.1902574266
]
}
},
{
"type":"Feature",
"properties":{
"Name":"赤池水無町外園公民館",
"Jusho":"熊本県人吉市",
"Capacity":"－",
"la":"32.18779438560",
"ln":"130.78056279700"
},
"geometry":{
"type":"Point",
"coordinates":[
130.780562797,
32.1877943856
]
}
},
{
"type":"Feature",
"properties":{
"Name":"赤池水無町公民館",
"Jusho":"熊本県人吉市赤池水無町",
"Capacity":"－",
"la":"32.18808601100",
"ln":"130.78000284300"
},
"geometry":{
"type":"Point",
"coordinates":[
130.780002843,
32.188086011
]
}
},
{
"type":"Feature",
"properties":{
"Name":"相良神社",
"Jusho":"熊本県人吉市",
"Capacity":"－",
"la":"32.21100748460",
"ln":"130.76400316700"
},
"geometry":{
"type":"Point",
"coordinates":[
130.764003167,
32.2110074846
]
}
},
{
"type":"Feature",
"properties":{
"Name":"総合福祉センター",
"Jusho":"熊本県人吉市",
"Capacity":"－",
"la":"32.20677662360",
"ln":"130.75976201300"
},
"geometry":{
"type":"Point",
"coordinates":[
130.759762013,
32.2067766236
]
}
},
{
"type":"Feature",
"properties":{
"Name":"大柿公民館",
"Jusho":"熊本県人吉市中神小柿",
"Capacity":"－",
"la":"32.22334474130",
"ln":"130.71065431100"
},
"geometry":{
"type":"Point",
"coordinates":[
130.710654311,
32.2233447413
]
}
},
{
"type":"Feature",
"properties":{
"Name":"大工町会館",
"Jusho":"熊本県人吉市",
"Capacity":"－",
"la":"32.21597985440",
"ln":"130.76240542000"
},
"geometry":{
"type":"Point",
"coordinates":[
130.76240542,
32.2159798544
]
}
},
{
"type":"Feature",
"properties":{
"Name":"大信寺",
"Jusho":"熊本県人吉市",
"Capacity":"－",
"la":"32.21743400900",
"ln":"130.76641749900"
},
"geometry":{
"type":"Point",
"coordinates":[
130.766417499,
32.217434009
]
}
},
{
"type":"Feature",
"properties":{
"Name":"東大塚町公民館",
"Jusho":"熊本県人吉市東大塚町",
"Capacity":"－",
"la":"32.13252446340",
"ln":"130.71548664500"
},
"geometry":{
"type":"Point",
"coordinates":[
130.715486645,
32.1325244634
]
}
},
{
"type":"Feature",
"properties":{
"Name":"鍛冶屋町会館",
"Jusho":"熊本県人吉市鍛冶屋町",
"Capacity":"－",
"la":"32.21675392550",
"ln":"130.76122759500"
},
"geometry":{
"type":"Point",
"coordinates":[
130.761227595,
32.2167539255
]
}
},
{
"type":"Feature",
"properties":{
"Name":"段地域学習センター",
"Jusho":"熊本県人吉市",
"Capacity":"－",
"la":"32.22587641020",
"ln":"130.72119891300"
},
"geometry":{
"type":"Point",
"coordinates":[
130.721198913,
32.2258764102
]
}
},
{
"type":"Feature",
"properties":{
"Name":"中原コミュニティセンター",
"Jusho":"熊本県人吉市下原田町字荒毛2136番地",
"Capacity":"－",
"la":"32.23171203390",
"ln":"130.72410612400"
},
"geometry":{
"type":"Point",
"coordinates":[
130.724106124,
32.2317120339
]
}
},
{
"type":"Feature",
"properties":{
"Name":"中小企業大学校",
"Jusho":"熊本県人吉市",
"Capacity":"－",
"la":"32.23002400000",
"ln":"130.77693100000"
},
"geometry":{
"type":"Point",
"coordinates":[
130.776931,
32.230024
]
}
},
{
"type":"Feature",
"properties":{
"Name":"中神城本地域学習センター",
"Jusho":"熊本県人吉市中神城本",
"Capacity":"－",
"la":"32.21857980350",
"ln":"130.72697187700"
},
"geometry":{
"type":"Point",
"coordinates":[
130.726971877,
32.2185798035
]
}
},
{
"type":"Feature",
"properties":{
"Name":"中林町公民館",
"Jusho":"熊本県人吉市中林町",
"Capacity":"－",
"la":"32.22254937210",
"ln":"130.73441468600"
},
"geometry":{
"type":"Point",
"coordinates":[
130.734414686,
32.2225493721
]
}
},
{
"type":"Feature",
"properties":{
"Name":"鶴田町会館",
"Jusho":"熊本県人吉市",
"Capacity":"－",
"la":"32.22245212290",
"ln":"130.76157765000"
},
"geometry":{
"type":"Point",
"coordinates":[
130.76157765,
32.2224521229
]
}
},
{
"type":"Feature",
"properties":{
"Name":"田町地域学習センター",
"Jusho":"熊本県人吉市",
"Capacity":"－",
"la":"32.20797331530",
"ln":"130.76385085700"
},
"geometry":{
"type":"Point",
"coordinates":[
130.763850857,
32.2079733153
]
}
},
{
"type":"Feature",
"properties":{
"Name":"田野活性化センター",
"Jusho":"熊本県人吉市田野町",
"Capacity":"－",
"la":"32.13820358330",
"ln":"130.68230355100"
},
"geometry":{
"type":"Point",
"coordinates":[
130.682303551,
32.1382035833
]
}
},
{
"type":"Feature",
"properties":{
"Name":"東間コミュニティセンター",
"Jusho":"熊本県人吉市蟹作町1531番地1",
"Capacity":"－",
"la":"32.19629963250",
"ln":"130.77531687000"
},
"geometry":{
"type":"Point",
"coordinates":[
130.77531687,
32.1962996325
]
}
},
{
"type":"Feature",
"properties":{
"Name":"東間下町公民館",
"Jusho":"熊本県人吉市東間下町",
"Capacity":"－",
"la":"32.19709170440",
"ln":"130.77312069300"
},
"geometry":{
"type":"Point",
"coordinates":[
130.773120693,
32.1970917044
]
}
},
{
"type":"Feature",
"properties":{
"Name":"東間上町公民館",
"Jusho":"熊本県人吉市",
"Capacity":"－",
"la":"32.19465324130",
"ln":"130.76840558700"
},
"geometry":{
"type":"Point",
"coordinates":[
130.768405587,
32.1946532413
]
}
},
{
"type":"Feature",
"properties":{
"Name":"東西コミュニティセンター",
"Jusho":"熊本県人吉市城本町1088番地",
"Capacity":"－",
"la":"32.21930876050",
"ln":"130.75951138500"
},
"geometry":{
"type":"Point",
"coordinates":[
130.759511385,
32.2193087605
]
}
},
{
"type":"Feature",
"properties":{
"Name":"南願成寺町内会館",
"Jusho":"熊本県人吉市南願成寺町",
"Capacity":"－",
"la":"32.21562426380",
"ln":"130.77472878600"
},
"geometry":{
"type":"Point",
"coordinates":[
130.774728786,
32.2156242638
]
}
},
{
"type":"Feature",
"properties":{
"Name":"南寺町町内会館",
"Jusho":"熊本県人吉市",
"Capacity":"－",
"la":"32.20380094900",
"ln":"130.76221733400"
},
"geometry":{
"type":"Point",
"coordinates":[
130.762217334,
32.203800949
]
}
},
{
"type":"Feature",
"properties":{
"Name":"二日町町内会館",
"Jusho":"熊本県人吉市",
"Capacity":"－",
"la":"32.21571466210",
"ln":"130.76247275500"
},
"geometry":{
"type":"Point",
"coordinates":[
130.762472755,
32.2157146621
]
}
},
{
"type":"Feature",
"properties":{
"Name":"尾崎公民館",
"Jusho":"熊本県人吉市上原田町尾崎",
"Capacity":"－",
"la":"32.24374071920",
"ln":"130.72906116500"
},
"geometry":{
"type":"Point",
"coordinates":[
130.729061165,
32.2437407192
]
}
},
{
"type":"Feature",
"properties":{
"Name":"保健センター",
"Jusho":"熊本県人吉市",
"Capacity":"－",
"la":"32.20642942570",
"ln":"130.76029971900"
},
"geometry":{
"type":"Point",
"coordinates":[
130.760299719,
32.2064294257
]
}
},
{
"type":"Feature",
"properties":{
"Name":"北願成寺町公民館",
"Jusho":"熊本県人吉市",
"Capacity":"－",
"la":"32.21866567090",
"ln":"130.77400523500"
},
"geometry":{
"type":"Point",
"coordinates":[
130.774005235,
32.2186656709
]
}
},
{
"type":"Feature",
"properties":{
"Name":"北泉田町内会館",
"Jusho":"熊本県人吉市",
"Capacity":"－",
"la":"32.21939522560",
"ln":"130.76407616000"
},
"geometry":{
"type":"Point",
"coordinates":[
130.76407616,
32.2193952256
]
}
},
{
"type":"Feature",
"properties":{
"Name":"蓑野町公民館",
"Jusho":"熊本県人吉市",
"Capacity":"－",
"la":"32.18523130310",
"ln":"130.76898806100"
},
"geometry":{
"type":"Point",
"coordinates":[
130.768988061,
32.1852313031
]
}
},
{
"type":"Feature",
"properties":{
"Name":"木地屋町公民館",
"Jusho":"熊本県人吉市木地屋町",
"Capacity":"－",
"la":"32.15161765810",
"ln":"130.74363508800"
},
"geometry":{
"type":"Point",
"coordinates":[
130.743635088,
32.1516176581
]
}
},
{
"type":"Feature",
"properties":{
"Name":"林鹿寺",
"Jusho":"熊本県人吉市",
"Capacity":"－",
"la":"32.20952424930",
"ln":"130.76429800000"
},
"geometry":{
"type":"Point",
"coordinates":[
130.764298,
32.2095242493
]
}
},
{
"type":"Feature",
"properties":{
"Name":"浪床町公民館",
"Jusho":"熊本県人吉市",
"Capacity":"－",
"la":"32.20559910810",
"ln":"130.77137002800"
},
"geometry":{
"type":"Point",
"coordinates":[
130.771370028,
32.2055991081
]
}
},
{
"type":"Feature",
"properties":{
"Name":"老神神社",
"Jusho":"熊本県人吉市",
"Capacity":"－",
"la":"32.21062548370",
"ln":"130.75866876500"
},
"geometry":{
"type":"Point",
"coordinates":[
130.758668765,
32.2106254837
]
}
},
{
"type":"Feature",
"properties":{
"Name":"老人福祉センター",
"Jusho":"熊本県人吉市",
"Capacity":"－",
"la":"32.21467800000",
"ln":"130.72812900000"
},
"geometry":{
"type":"Point",
"coordinates":[
130.728129,
32.214678
]
}
},
{
"type":"Feature",
"properties":{
"Name":"あらおシティモール駐車場及び施設",
"Jusho":"熊本県荒尾市",
"Capacity":"－",
"la":"32.98347482970",
"ln":"130.47092849200"
},
"geometry":{
"type":"Point",
"coordinates":[
130.470928492,
32.9834748297
]
}
},
{
"type":"Feature",
"properties":{
"Name":"ふれあい福祉センター",
"Jusho":"熊本県荒尾市川登1777－2",
"Capacity":"250",
"la":"32.97340700000",
"ln":"130.46363700000"
},
"geometry":{
"type":"Point",
"coordinates":[
130.463637,
32.973407
]
}
},
{
"type":"Feature",
"properties":{
"Name":"みどり蒼生館",
"Jusho":"熊本県荒尾市平山2119-3",
"Capacity":"130",
"la":"32.99091100000",
"ln":"130.48907700000"
},
"geometry":{
"type":"Point",
"coordinates":[
130.489077,
32.990911
]
}
},
{
"type":"Feature",
"properties":{
"Name":"メディア交流館",
"Jusho":"熊本県荒尾市大正町2丁目3-2",
"Capacity":"130",
"la":"32.99846700000",
"ln":"130.43350000000"
},
"geometry":{
"type":"Point",
"coordinates":[
130.4335,
32.998467
]
}
},
{
"type":"Feature",
"properties":{
"Name":"市民病院",
"Jusho":"熊本県荒尾市",
"Capacity":"500",
"la":"32.97568599910",
"ln":"130.44670800000"
},
"geometry":{
"type":"Point",
"coordinates":[
130.446708,
32.9756859991
]
}
},
{
"type":"Feature",
"properties":{
"Name":"市役所",
"Jusho":"熊本県荒尾市",
"Capacity":"200",
"la":"32.98674100000",
"ln":"130.43318100000"
},
"geometry":{
"type":"Point",
"coordinates":[
130.433181,
32.986741
]
}
},
{
"type":"Feature",
"properties":{
"Name":"小岱工芸館",
"Jusho":"熊本県荒尾市野原1523番地",
"Capacity":"130",
"la":"32.96056422250",
"ln":"130.48251144300"
},
"geometry":{
"type":"Point",
"coordinates":[
130.482511443,
32.9605642225
]
}
},
{
"type":"Feature",
"properties":{
"Name":"松ヶ浦環境センター",
"Jusho":"熊本県荒尾市宮内1081",
"Capacity":"50",
"la":"32.98673528600",
"ln":"130.44899827500"
},
"geometry":{
"type":"Point",
"coordinates":[
130.448998275,
32.986735286
]
}
},
{
"type":"Feature",
"properties":{
"Name":"浄水センター",
"Jusho":"熊本県荒尾市大島町4－-73",
"Capacity":"100",
"la":"32.99629609860",
"ln":"130.42742007200"
},
"geometry":{
"type":"Point",
"coordinates":[
130.427420072,
32.9962960986
]
}
},
{
"type":"Feature",
"properties":{
"Name":"総合文化センター",
"Jusho":"熊本県荒尾市",
"Capacity":"650",
"la":"32.98467799910",
"ln":"130.46397700000"
},
"geometry":{
"type":"Point",
"coordinates":[
130.463977,
32.9846779991
]
}
},
{
"type":"Feature",
"properties":{
"Name":"中央公民館",
"Jusho":"熊本県荒尾市増永633番地",
"Capacity":"300",
"la":"32.97294199910",
"ln":"130.43631500000"
},
"geometry":{
"type":"Point",
"coordinates":[
130.436315,
32.9729419991
]
}
},
{
"type":"Feature",
"properties":{
"Name":"福祉村（小岱作業所）",
"Jusho":"熊本県荒尾市",
"Capacity":"290",
"la":"32.97321399910",
"ln":"130.45223500000"
},
"geometry":{
"type":"Point",
"coordinates":[
130.452235,
32.9732139991
]
}
},
{
"type":"Feature",
"properties":{
"Name":"万田炭鉱館",
"Jusho":"熊本県荒尾市原万田213番地31",
"Capacity":"130",
"la":"33.00045400000",
"ln":"130.45146000000"
},
"geometry":{
"type":"Point",
"coordinates":[
130.45146,
33.000454
]
}
},
{
"type":"Feature",
"properties":{
"Name":"１６部消防格納庫",
"Jusho":"熊本県水俣市長崎",
"Capacity":"20",
"la":"32.17586658080",
"ln":"130.41345879400"
},
"geometry":{
"type":"Point",
"coordinates":[
130.413458794,
32.1758665808
]
}
},
{
"type":"Feature",
"properties":{
"Name":"２０区公民館",
"Jusho":"熊本県水俣市山手町1丁目",
"Capacity":"20",
"la":"32.20484378060",
"ln":"130.39858684400"
},
"geometry":{
"type":"Point",
"coordinates":[
130.398586844,
32.2048437806
]
}
},
{
"type":"Feature",
"properties":{
"Name":"２１区公民館",
"Jusho":"熊本県水俣市百間町2丁目",
"Capacity":"30",
"la":"32.20129494280",
"ln":"130.38968667100"
},
"geometry":{
"type":"Point",
"coordinates":[
130.389686671,
32.2012949428
]
}
},
{
"type":"Feature",
"properties":{
"Name":"２２区白浜集会所",
"Jusho":"熊本県水俣市白浜町",
"Capacity":"30",
"la":"32.22242513110",
"ln":"130.40218802000"
},
"geometry":{
"type":"Point",
"coordinates":[
130.40218802,
32.2224251311
]
}
},
{
"type":"Feature",
"properties":{
"Name":"２３区集会所",
"Jusho":"熊本県水俣市久木野",
"Capacity":"50",
"la":"32.17302217590",
"ln":"130.52574829500"
},
"geometry":{
"type":"Point",
"coordinates":[
130.525748295,
32.1730221759
]
}
},
{
"type":"Feature",
"properties":{
"Name":"４区公民館",
"Jusho":"熊本県水俣市丸島町3丁目",
"Capacity":"30",
"la":"32.21116207060",
"ln":"130.38920159900"
},
"geometry":{
"type":"Point",
"coordinates":[
130.389201599,
32.2111620706
]
}
},
{
"type":"Feature",
"properties":{
"Name":"５区公民館",
"Jusho":"熊本県水俣市旭町2丁目",
"Capacity":"20",
"la":"32.20848780280",
"ln":"130.40250372800"
},
"geometry":{
"type":"Point",
"coordinates":[
130.402503728,
32.2084878028
]
}
},
{
"type":"Feature",
"properties":{
"Name":"７区公民館",
"Jusho":"熊本県水俣市長野町",
"Capacity":"20",
"la":"32.20248463610",
"ln":"130.42363392000"
},
"geometry":{
"type":"Point",
"coordinates":[
130.42363392,
32.2024846361
]
}
},
{
"type":"Feature",
"properties":{
"Name":"おれんじ館",
"Jusho":"熊本県水俣市月浦",
"Capacity":"50",
"la":"32.18878400000",
"ln":"130.38255600000"
},
"geometry":{
"type":"Point",
"coordinates":[
130.382556,
32.188784
]
}
},
{
"type":"Feature",
"properties":{
"Name":"グリーンスポーツ駐車場",
"Jusho":"熊本県水俣市袋",
"Capacity":"－",
"la":"32.17884453490",
"ln":"130.36574760600"
},
"geometry":{
"type":"Point",
"coordinates":[
130.365747606,
32.1788445349
]
}
},
{
"type":"Feature",
"properties":{
"Name":"グリンコープほのぼの水俣",
"Jusho":"熊本県水俣市汐見町1丁目",
"Capacity":"20",
"la":"32.20175494400",
"ln":"130.38626002900"
},
"geometry":{
"type":"Point",
"coordinates":[
130.386260029,
32.201754944
]
}
},
{
"type":"Feature",
"properties":{
"Name":"たから館",
"Jusho":"熊本県水俣市宝川内",
"Capacity":"50",
"la":"32.18570096150",
"ln":"130.47543368500"
},
"geometry":{
"type":"Point",
"coordinates":[
130.475433685,
32.1857009615
]
}
},
{
"type":"Feature",
"properties":{
"Name":"はぜのき館",
"Jusho":"熊本県水俣市月浦453番地3",
"Capacity":"20",
"la":"32.19377339100",
"ln":"130.39395493400"
},
"geometry":{
"type":"Point",
"coordinates":[
130.393954934,
32.193773391
]
}
},
{
"type":"Feature",
"properties":{
"Name":"もやい館",
"Jusho":"熊本県水俣市牧ノ内",
"Capacity":"300",
"la":"32.21472599910",
"ln":"130.40698900000"
},
"geometry":{
"type":"Point",
"coordinates":[
130.406989,
32.2147259991
]
}
},
{
"type":"Feature",
"properties":{
"Name":"愛林館",
"Jusho":"熊本県水俣市久木野",
"Capacity":"50",
"la":"32.17195595110",
"ln":"130.52764544400"
},
"geometry":{
"type":"Point",
"coordinates":[
130.527645444,
32.1719559511
]
}
},
{
"type":"Feature",
"properties":{
"Name":"浦上町公民館",
"Jusho":"熊本県水俣市浦上町",
"Capacity":"20",
"la":"32.19682947380",
"ln":"130.38642076300"
},
"geometry":{
"type":"Point",
"coordinates":[
130.386420763,
32.1968294738
]
}
},
{
"type":"Feature",
"properties":{
"Name":"越小場公民館",
"Jusho":"熊本県水俣市越小場",
"Capacity":"50",
"la":"32.15276287350",
"ln":"130.52115398500"
},
"geometry":{
"type":"Point",
"coordinates":[
130.521153985,
32.1527628735
]
}
},
{
"type":"Feature",
"properties":{
"Name":"塩浜グラウンド",
"Jusho":"熊本県水俣市塩浜町",
"Capacity":"－",
"la":"32.21473567700",
"ln":"130.39396287900"
},
"geometry":{
"type":"Point",
"coordinates":[
130.393962879,
32.214735677
]
}
},
{
"type":"Feature",
"properties":{
"Name":"河村電気産業（株）水俣工場",
"Jusho":"熊本県水俣市桜ヶ丘",
"Capacity":"100",
"la":"32.21848300000",
"ln":"130.40810100000"
},
"geometry":{
"type":"Point",
"coordinates":[
130.408101,
32.218483
]
}
},
{
"type":"Feature",
"properties":{
"Name":"葛彩館",
"Jusho":"熊本県水俣市葛渡",
"Capacity":"200",
"la":"32.17343949210",
"ln":"130.45905323100"
},
"geometry":{
"type":"Point",
"coordinates":[
130.459053231,
32.1734394921
]
}
},
{
"type":"Feature",
"properties":{
"Name":"葛渡集会所",
"Jusho":"熊本県水俣市葛渡",
"Capacity":"30",
"la":"32.16612324860",
"ln":"130.46894445700"
},
"geometry":{
"type":"Point",
"coordinates":[
130.468944457,
32.1661232486
]
}
},
{
"type":"Feature",
"properties":{
"Name":"旧石飛分校",
"Jusho":"熊本県水俣市石坂川石飛",
"Capacity":"30",
"la":"32.13843099910",
"ln":"130.49617800000"
},
"geometry":{
"type":"Point",
"coordinates":[
130.496178,
32.1384309991
]
}
},
{
"type":"Feature",
"properties":{
"Name":"月浦公民館",
"Jusho":"熊本県水俣市月浦",
"Capacity":"20",
"la":"32.19044725170",
"ln":"130.38119430200"
},
"geometry":{
"type":"Point",
"coordinates":[
130.381194302,
32.1904472517
]
}
},
{
"type":"Feature",
"properties":{
"Name":"古賀公民館",
"Jusho":"熊本県水俣市古賀町1丁目",
"Capacity":"20",
"la":"32.21005194810",
"ln":"130.40009221500"
},
"geometry":{
"type":"Point",
"coordinates":[
130.400092215,
32.2100519481
]
}
},
{
"type":"Feature",
"properties":{
"Name":"公民館",
"Jusho":"熊本県水俣市浜町二丁目10-26",
"Capacity":"100",
"la":"32.21293000000",
"ln":"130.40317600000"
},
"geometry":{
"type":"Point",
"coordinates":[
130.403176,
32.21293
]
}
},
{
"type":"Feature",
"properties":{
"Name":"公民館分館（旧勤労青少年ホーム）",
"Jusho":"熊本県水俣市洗切町1番1号",
"Capacity":"300",
"la":"32.21354600000",
"ln":"130.40082600000"
},
"geometry":{
"type":"Point",
"coordinates":[
130.400826,
32.213546
]
}
},
{
"type":"Feature",
"properties":{
"Name":"坂口公民館",
"Jusho":"熊本県水俣市月浦",
"Capacity":"20",
"la":"32.18943313840",
"ln":"130.38691038900"
},
"geometry":{
"type":"Point",
"coordinates":[
130.386910389,
32.1894331384
]
}
},
{
"type":"Feature",
"properties":{
"Name":"桜野集会所",
"Jusho":"熊本県水俣市薄原",
"Capacity":"50",
"la":"32.17510825570",
"ln":"130.45095023200"
},
"geometry":{
"type":"Point",
"coordinates":[
130.450950232,
32.1751082557
]
}
},
{
"type":"Feature",
"properties":{
"Name":"汐見町公民館",
"Jusho":"熊本県水俣市汐見町1丁目",
"Capacity":"30",
"la":"32.20251925280",
"ln":"130.38835269600"
},
"geometry":{
"type":"Point",
"coordinates":[
130.388352696,
32.2025192528
]
}
},
{
"type":"Feature",
"properties":{
"Name":"集・川原公民館",
"Jusho":"熊本県水俣市宝川内",
"Capacity":"20",
"la":"32.17948898750",
"ln":"130.46810131500"
},
"geometry":{
"type":"Point",
"coordinates":[
130.468101315,
32.1794889875
]
}
},
{
"type":"Feature",
"properties":{
"Name":"出月公民館",
"Jusho":"熊本県水俣市月浦出月",
"Capacity":"20",
"la":"32.18595645670",
"ln":"130.38312395600"
},
"geometry":{
"type":"Point",
"coordinates":[
130.383123956,
32.1859564567
]
}
},
{
"type":"Feature",
"properties":{
"Name":"商工会議所",
"Jusho":"熊本県水俣市大園町",
"Capacity":"50",
"la":"32.21017414960",
"ln":"130.40320587000"
},
"geometry":{
"type":"Point",
"coordinates":[
130.40320587,
32.2101741496
]
}
},
{
"type":"Feature",
"properties":{
"Name":"小田代公民館",
"Jusho":"熊本県水俣市江添",
"Capacity":"20",
"la":"32.18802191100",
"ln":"130.40330182600"
},
"geometry":{
"type":"Point",
"coordinates":[
130.403301826,
32.188021911
]
}
},
{
"type":"Feature",
"properties":{
"Name":"招川内公民館",
"Jusho":"熊本県水俣市湯出",
"Capacity":"20",
"la":"32.13180151820",
"ln":"130.42322435000"
},
"geometry":{
"type":"Point",
"coordinates":[
130.42322435,
32.1318015182
]
}
},
{
"type":"Feature",
"properties":{
"Name":"深川駅跡地休憩所",
"Jusho":"熊本県水俣市深川",
"Capacity":"30",
"la":"32.17953274220",
"ln":"130.44761849300"
},
"geometry":{
"type":"Point",
"coordinates":[
130.447618493,
32.1795327422
]
}
},
{
"type":"Feature",
"properties":{
"Name":"深川公民館",
"Jusho":"熊本県水俣市深川",
"Capacity":"30",
"la":"32.18532577240",
"ln":"130.44283036300"
},
"geometry":{
"type":"Point",
"coordinates":[
130.442830363,
32.1853257724
]
}
},
{
"type":"Feature",
"properties":{
"Name":"神ノ川公民館",
"Jusho":"熊本県水俣市袋",
"Capacity":"30",
"la":"32.16339922290",
"ln":"130.36607716900"
},
"geometry":{
"type":"Point",
"coordinates":[
130.366077169,
32.1633992229
]
}
},
{
"type":"Feature",
"properties":{
"Name":"水俣工業高校グラウンド",
"Jusho":"熊本県水俣市洗切町",
"Capacity":"－",
"la":"32.21511499910",
"ln":"130.40237900000"
},
"geometry":{
"type":"Point",
"coordinates":[
130.402379,
32.2151149991
]
}
},
{
"type":"Feature",
"properties":{
"Name":"水俣高校第二体育館",
"Jusho":"熊本県水俣市南福寺",
"Capacity":"300",
"la":"32.20383899910",
"ln":"130.41007300000"
},
"geometry":{
"type":"Point",
"coordinates":[
130.410073,
32.2038389991
]
}
},
{
"type":"Feature",
"properties":{
"Name":"水俣市役所（秋葉会館）",
"Jusho":"熊本県水俣市陣内1丁目",
"Capacity":"100",
"la":"32.21186499910",
"ln":"130.40879500000"
},
"geometry":{
"type":"Point",
"coordinates":[
130.408795,
32.2118649991
]
}
},
{
"type":"Feature",
"properties":{
"Name":"西生院",
"Jusho":"熊本県水俣市旭町1丁目",
"Capacity":"30",
"la":"32.20808704250",
"ln":"130.40146337900"
},
"geometry":{
"type":"Point",
"coordinates":[
130.401463379,
32.2080870425
]
}
},
{
"type":"Feature",
"properties":{
"Name":"石坂川集会所",
"Jusho":"熊本県水俣市石坂川",
"Capacity":"30",
"la":"32.16282345330",
"ln":"130.47970913900"
},
"geometry":{
"type":"Point",
"coordinates":[
130.479709139,
32.1628234533
]
}
},
{
"type":"Feature",
"properties":{
"Name":"総合体育館（南部館）",
"Jusho":"熊本県水俣市袋字平田933番地ほか",
"Capacity":"400",
"la":"32.17796002930",
"ln":"130.38432797300"
},
"geometry":{
"type":"Point",
"coordinates":[
130.384327973,
32.1779600293
]
}
},
{
"type":"Feature",
"properties":{
"Name":"総合体育館（本館）",
"Jusho":"熊本県水俣市中央公園1番地",
"Capacity":"1000",
"la":"32.20866400000",
"ln":"130.40706400000"
},
"geometry":{
"type":"Point",
"coordinates":[
130.407064,
32.208664
]
}
},
{
"type":"Feature",
"properties":{
"Name":"大川公民館",
"Jusho":"熊本県水俣市大川",
"Capacity":"50",
"la":"32.17230913030",
"ln":"130.56812726100"
},
"geometry":{
"type":"Point",
"coordinates":[
130.568127261,
32.1723091303
]
}
},
{
"type":"Feature",
"properties":{
"Name":"中屋敷公民館",
"Jusho":"熊本県水俣市宝川内",
"Capacity":"20",
"la":"32.18877413360",
"ln":"130.49079013100"
},
"geometry":{
"type":"Point",
"coordinates":[
130.490790131,
32.1887741336
]
}
},
{
"type":"Feature",
"properties":{
"Name":"吐合集会所",
"Jusho":"熊本県水俣市宝川内",
"Capacity":"20",
"la":"32.19821282490",
"ln":"130.48572030400"
},
"geometry":{
"type":"Point",
"coordinates":[
130.485720304,
32.1982128249
]
}
},
{
"type":"Feature",
"properties":{
"Name":"湯の鶴温泉保健センター",
"Jusho":"熊本県水俣市湯出1532番地2",
"Capacity":"50",
"la":"32.14755179410",
"ln":"130.43949978300"
},
"geometry":{
"type":"Point",
"coordinates":[
130.439499783,
32.1475517941
]
}
},
{
"type":"Feature",
"properties":{
"Name":"湯堂集会所",
"Jusho":"熊本県水俣市袋",
"Capacity":"30",
"la":"32.18356759610",
"ln":"130.37784021700"
},
"geometry":{
"type":"Point",
"coordinates":[
130.377840217,
32.1835675961
]
}
},
{
"type":"Feature",
"properties":{
"Name":"内山集会場",
"Jusho":"熊本県水俣市南福寺",
"Capacity":"20",
"la":"32.19517505500",
"ln":"130.40905833400"
},
"geometry":{
"type":"Point",
"coordinates":[
130.409058334,
32.195175055
]
}
},
{
"type":"Feature",
"properties":{
"Name":"日当野公民館",
"Jusho":"熊本県水俣市越小場日当野",
"Capacity":"20",
"la":"32.16672048510",
"ln":"130.51957887600"
},
"geometry":{
"type":"Point",
"coordinates":[
130.519578876,
32.1667204851
]
}
},
{
"type":"Feature",
"properties":{
"Name":"白梅荘デイケアセンター",
"Jusho":"熊本県水俣市浜",
"Capacity":"50",
"la":"32.23039212630",
"ln":"130.41436904100"
},
"geometry":{
"type":"Point",
"coordinates":[
130.414369041,
32.2303921263
]
}
},
{
"type":"Feature",
"properties":{
"Name":"八ノ窪公民館",
"Jusho":"熊本県水俣市八ノ窪町2丁目",
"Capacity":"20",
"la":"32.19861070080",
"ln":"130.38969734800"
},
"geometry":{
"type":"Point",
"coordinates":[
130.389697348,
32.1986107008
]
}
},
{
"type":"Feature",
"properties":{
"Name":"武道館",
"Jusho":"熊本県水俣市八幡町三丁目9番地2",
"Capacity":"400",
"la":"32.21775200000",
"ln":"130.40228500000"
},
"geometry":{
"type":"Point",
"coordinates":[
130.402285,
32.217752
]
}
},
{
"type":"Feature",
"properties":{
"Name":"茂川公民館",
"Jusho":"熊本県水俣市長崎",
"Capacity":"20",
"la":"32.15704220450",
"ln":"130.41705040600"
},
"geometry":{
"type":"Point",
"coordinates":[
130.417050406,
32.1570422045
]
}
},
{
"type":"Feature",
"properties":{
"Name":"茂道公民館",
"Jusho":"熊本県水俣市袋",
"Capacity":"20",
"la":"32.17151508520",
"ln":"130.36907297100"
},
"geometry":{
"type":"Point",
"coordinates":[
130.369072971,
32.1715150852
]
}
},
{
"type":"Feature",
"properties":{
"Name":"木臼野公民館",
"Jusho":"熊本県水俣市長崎",
"Capacity":"20",
"la":"32.15115372420",
"ln":"130.42696613000"
},
"geometry":{
"type":"Point",
"coordinates":[
130.42696613,
32.1511537242
]
}
},
{
"type":"Feature",
"properties":{
"Name":"野川公民館",
"Jusho":"熊本県水俣市長崎",
"Capacity":"20",
"la":"32.17533883720",
"ln":"130.40463394800"
},
"geometry":{
"type":"Point",
"coordinates":[
130.404633948,
32.1753388372
]
}
},
{
"type":"Feature",
"properties":{
"Name":"Ｂ＆Ｇ海洋センター",
"Jusho":"熊本県玉名市",
"Capacity":"－",
"la":"32.91915700000",
"ln":"130.51294400000"
},
"geometry":{
"type":"Point",
"coordinates":[
130.512944,
32.919157
]
}
},
{
"type":"Feature",
"properties":{
"Name":"ＪＡたまなガスセンター（旧鍋支所）",
"Jusho":"熊本県玉名市",
"Capacity":"－",
"la":"32.90926021070",
"ln":"130.49647874100"
},
"geometry":{
"type":"Point",
"coordinates":[
130.496478741,
32.9092602107
]
}
},
{
"type":"Feature",
"properties":{
"Name":"ＪＡたまな岱明総合支所",
"Jusho":"熊本県玉名市",
"Capacity":"－",
"la":"32.90643400000",
"ln":"130.51380134300"
},
"geometry":{
"type":"Point",
"coordinates":[
130.513801343,
32.906434
]
}
},
{
"type":"Feature",
"properties":{
"Name":"たまきな荘",
"Jusho":"熊本県玉名市玉名2194",
"Capacity":"－",
"la":"32.94744100000",
"ln":"130.56667200000"
},
"geometry":{
"type":"Point",
"coordinates":[
130.566672,
32.947441
]
}
},
{
"type":"Feature",
"properties":{
"Name":"ちどり保育園",
"Jusho":"熊本県玉名市",
"Capacity":"－",
"la":"32.88089979450",
"ln":"130.53262614500"
},
"geometry":{
"type":"Point",
"coordinates":[
130.532626145,
32.8808997945
]
}
},
{
"type":"Feature",
"properties":{
"Name":"ふれあい館",
"Jusho":"熊本県玉名市",
"Capacity":"－",
"la":"32.86534602930",
"ln":"130.59225392700"
},
"geometry":{
"type":"Point",
"coordinates":[
130.592253927,
32.8653460293
]
}
},
{
"type":"Feature",
"properties":{
"Name":"ふれあい健康センター",
"Jusho":"熊本県玉名市",
"Capacity":"－",
"la":"32.91689303810",
"ln":"130.51255254900"
},
"geometry":{
"type":"Point",
"coordinates":[
130.512552549,
32.9168930381
]
}
},
{
"type":"Feature",
"properties":{
"Name":"伊倉保育所",
"Jusho":"熊本県玉名市伊倉北方2915",
"Capacity":"－",
"la":"32.90750000000",
"ln":"130.57842200000"
},
"geometry":{
"type":"Point",
"coordinates":[
130.578422,
32.9075
]
}
},
{
"type":"Feature",
"properties":{
"Name":"伊倉隣保館",
"Jusho":"熊本県玉名市",
"Capacity":"－",
"la":"32.90787686200",
"ln":"130.56920373400"
},
"geometry":{
"type":"Point",
"coordinates":[
130.569203734,
32.907876862
]
}
},
{
"type":"Feature",
"properties":{
"Name":"横島グラウンド",
"Jusho":"熊本県玉名市横島町横島",
"Capacity":"－",
"la":"32.87896586650",
"ln":"130.55441159800"
},
"geometry":{
"type":"Point",
"coordinates":[
130.554411598,
32.8789658665
]
}
},
{
"type":"Feature",
"properties":{
"Name":"横島町公民館",
"Jusho":"熊本県玉名市",
"Capacity":"－",
"la":"32.87760199910",
"ln":"130.55564500000"
},
"geometry":{
"type":"Point",
"coordinates":[
130.555645,
32.8776019991
]
}
},
{
"type":"Feature",
"properties":{
"Name":"横島町総合保健福祉センター",
"Jusho":"熊本県玉名市",
"Capacity":"－",
"la":"32.87702741170",
"ln":"130.55607753600"
},
"geometry":{
"type":"Point",
"coordinates":[
130.556077536,
32.8770274117
]
}
},
{
"type":"Feature",
"properties":{
"Name":"横島町体育館",
"Jusho":"熊本県玉名市横島町横島",
"Capacity":"－",
"la":"32.87840203910",
"ln":"130.55503402000"
},
"geometry":{
"type":"Point",
"coordinates":[
130.55503402,
32.8784020391
]
}
},
{
"type":"Feature",
"properties":{
"Name":"下有所公民館",
"Jusho":"熊本県玉名市",
"Capacity":"－",
"la":"32.85209650780",
"ln":"130.60866142000"
},
"geometry":{
"type":"Point",
"coordinates":[
130.60866142,
32.8520965078
]
}
},
{
"type":"Feature",
"properties":{
"Name":"滑石保育所",
"Jusho":"熊本県玉名市滑石1576-2",
"Capacity":"－",
"la":"32.90238800000",
"ln":"130.52995500000"
},
"geometry":{
"type":"Point",
"coordinates":[
130.529955,
32.902388
]
}
},
{
"type":"Feature",
"properties":{
"Name":"旧ＪＡたまな睦合支所",
"Jusho":"熊本県玉名市",
"Capacity":"－",
"la":"32.92865740350",
"ln":"130.50837538700"
},
"geometry":{
"type":"Point",
"coordinates":[
130.508375387,
32.9286574035
]
}
},
{
"type":"Feature",
"properties":{
"Name":"玉名くすのき保育園",
"Jusho":"熊本県玉名市",
"Capacity":"－",
"la":"32.93149602430",
"ln":"130.55100879700"
},
"geometry":{
"type":"Point",
"coordinates":[
130.551008797,
32.9314960243
]
}
},
{
"type":"Feature",
"properties":{
"Name":"玉名勤労者体育センター",
"Jusho":"熊本県玉名市岩崎173-2",
"Capacity":"－",
"la":"32.93368700000",
"ln":"130.56258400000"
},
"geometry":{
"type":"Point",
"coordinates":[
130.562584,
32.933687
]
}
},
{
"type":"Feature",
"properties":{
"Name":"玉名市勤労青少年ホーム",
"Jusho":"熊本県玉名市岩崎173番地1",
"Capacity":"－",
"la":"32.93350100000",
"ln":"130.56232300000"
},
"geometry":{
"type":"Point",
"coordinates":[
130.562323,
32.933501
]
}
},
{
"type":"Feature",
"properties":{
"Name":"玉名市武道館",
"Jusho":"熊本県玉名市繁根木94番地11",
"Capacity":"－",
"la":"32.92951200000",
"ln":"130.55877400000"
},
"geometry":{
"type":"Point",
"coordinates":[
130.558774,
32.929512
]
}
},
{
"type":"Feature",
"properties":{
"Name":"玉名市文化センター",
"Jusho":"熊本県玉名市繁根木88番地1",
"Capacity":"－",
"la":"32.92848176070",
"ln":"130.55895024600"
},
"geometry":{
"type":"Point",
"coordinates":[
130.558950246,
32.9284817607
]
}
},
{
"type":"Feature",
"properties":{
"Name":"玉名市民会館",
"Jusho":"熊本県玉名市岩崎152-2",
"Capacity":"－",
"la":"32.93393700000",
"ln":"130.56207900000"
},
"geometry":{
"type":"Point",
"coordinates":[
130.562079,
32.933937
]
}
},
{
"type":"Feature",
"properties":{
"Name":"九州看護福祉大学",
"Jusho":"熊本県玉名市",
"Capacity":"－",
"la":"32.94745500000",
"ln":"130.55294600000"
},
"geometry":{
"type":"Point",
"coordinates":[
130.552946,
32.947455
]
}
},
{
"type":"Feature",
"properties":{
"Name":"港公民館",
"Jusho":"熊本県玉名市",
"Capacity":"－",
"la":"32.85665987300",
"ln":"130.58583062300"
},
"geometry":{
"type":"Point",
"coordinates":[
130.585830623,
32.856659873
]
}
},
{
"type":"Feature",
"properties":{
"Name":"斎藤公民館",
"Jusho":"熊本県玉名市天水町部田見",
"Capacity":"－",
"la":"32.87912859940",
"ln":"130.58971393700"
},
"geometry":{
"type":"Point",
"coordinates":[
130.589713937,
32.8791285994
]
}
},
{
"type":"Feature",
"properties":{
"Name":"部田見上公民館",
"Jusho":"熊本県玉名市",
"Capacity":"－",
"la":"32.87820676250",
"ln":"130.58368868300"
},
"geometry":{
"type":"Point",
"coordinates":[
130.583688683,
32.8782067625
]
}
},
{
"type":"Feature",
"properties":{
"Name":"市総合体育館",
"Jusho":"熊本県玉名市",
"Capacity":"－",
"la":"32.92183799910",
"ln":"130.56760100000"
},
"geometry":{
"type":"Point",
"coordinates":[
130.567601,
32.9218379991
]
}
},
{
"type":"Feature",
"properties":{
"Name":"上有所担い手センター",
"Jusho":"熊本県玉名市天水町小天上有所",
"Capacity":"－",
"la":"32.85341035650",
"ln":"130.61001592400"
},
"geometry":{
"type":"Point",
"coordinates":[
130.610015924,
32.8534103565
]
}
},
{
"type":"Feature",
"properties":{
"Name":"赤仁田担い手センター",
"Jusho":"熊本県玉名市",
"Capacity":"－",
"la":"32.86110246740",
"ln":"130.61004598600"
},
"geometry":{
"type":"Point",
"coordinates":[
130.610045986,
32.8611024674
]
}
},
{
"type":"Feature",
"properties":{
"Name":"草枕温泉てんすい",
"Jusho":"熊本県玉名市",
"Capacity":"－",
"la":"32.85185332320",
"ln":"130.59205062600"
},
"geometry":{
"type":"Point",
"coordinates":[
130.592050626,
32.8518533232
]
}
},
{
"type":"Feature",
"properties":{
"Name":"第一保育所",
"Jusho":"熊本県玉名市",
"Capacity":"－",
"la":"32.92785999910",
"ln":"130.55909000000"
},
"geometry":{
"type":"Point",
"coordinates":[
130.55909,
32.9278599991
]
}
},
{
"type":"Feature",
"properties":{
"Name":"竹崎公民館",
"Jusho":"熊本県玉名市天水町竹崎",
"Capacity":"－",
"la":"32.89017333820",
"ln":"130.58143645200"
},
"geometry":{
"type":"Point",
"coordinates":[
130.581436452,
32.8901733382
]
}
},
{
"type":"Feature",
"properties":{
"Name":"天水体育館",
"Jusho":"熊本県玉名市天水町小天",
"Capacity":"－",
"la":"32.86517294120",
"ln":"130.59149219400"
},
"geometry":{
"type":"Point",
"coordinates":[
130.591492194,
32.8651729412
]
}
},
{
"type":"Feature",
"properties":{
"Name":"天水町公民館",
"Jusho":"熊本県玉名市天水町",
"Capacity":"－",
"la":"32.86510199910",
"ln":"130.59237000000"
},
"geometry":{
"type":"Point",
"coordinates":[
130.59237,
32.8651019991
]
}
},
{
"type":"Feature",
"properties":{
"Name":"梅林保育所",
"Jusho":"熊本県玉名市安楽寺247",
"Capacity":"－",
"la":"32.92419300000",
"ln":"130.60042000000"
},
"geometry":{
"type":"Point",
"coordinates":[
130.60042,
32.924193
]
}
},
{
"type":"Feature",
"properties":{
"Name":"八久保公民館",
"Jusho":"熊本県玉名市",
"Capacity":"－",
"la":"32.85011070680",
"ln":"130.59906629000"
},
"geometry":{
"type":"Point",
"coordinates":[
130.59906629,
32.8501107068
]
}
},
{
"type":"Feature",
"properties":{
"Name":"横内公民館",
"Jusho":"熊本県玉名市",
"Capacity":"－",
"la":"32.86645296790",
"ln":"130.59727971000"
},
"geometry":{
"type":"Point",
"coordinates":[
130.59727971,
32.8664529679
]
}
},
{
"type":"Feature",
"properties":{
"Name":"部田見下公民館",
"Jusho":"熊本県玉名市天水町部田見",
"Capacity":"－",
"la":"32.88256526470",
"ln":"130.57235301800"
},
"geometry":{
"type":"Point",
"coordinates":[
130.572353018,
32.8825652647
]
}
},
{
"type":"Feature",
"properties":{
"Name":"部田見中公民館",
"Jusho":"熊本県玉名市天水町部田見",
"Capacity":"－",
"la":"32.88079072030",
"ln":"130.58028556300"
},
"geometry":{
"type":"Point",
"coordinates":[
130.580285563,
32.8807907203
]
}
},
{
"type":"Feature",
"properties":{
"Name":"米山公民館",
"Jusho":"熊本県玉名市",
"Capacity":"－",
"la":"32.87541517940",
"ln":"130.58967146400"
},
"geometry":{
"type":"Point",
"coordinates":[
130.589671464,
32.8754151794
]
}
},
{
"type":"Feature",
"properties":{
"Name":"豊水保育所",
"Jusho":"熊本県玉名市川島629-2",
"Capacity":"－",
"la":"32.91308300000",
"ln":"130.55986800000"
},
"geometry":{
"type":"Point",
"coordinates":[
130.559868,
32.913083
]
}
},
{
"type":"Feature",
"properties":{
"Name":"北横内公民館",
"Jusho":"熊本県玉名市",
"Capacity":"－",
"la":"32.86773215670",
"ln":"130.59954547900"
},
"geometry":{
"type":"Point",
"coordinates":[
130.599545479,
32.8677321567
]
}
},
{
"type":"Feature",
"properties":{
"Name":"野部田担い手センター",
"Jusho":"熊本県玉名市",
"Capacity":"－",
"la":"32.89555526900",
"ln":"130.58386553600"
},
"geometry":{
"type":"Point",
"coordinates":[
130.583865536,
32.895555269
]
}
},
{
"type":"Feature",
"properties":{
"Name":"立花担い手センター",
"Jusho":"熊本県玉名市",
"Capacity":"－",
"la":"32.86698683270",
"ln":"130.59230447800"
},
"geometry":{
"type":"Point",
"coordinates":[
130.592304478,
32.8669868327
]
}
},
{
"type":"Feature",
"properties":{
"Name":"あんずの丘多目的体育館（保健福祉センター含む）",
"Jusho":"熊本県山鹿市菊鹿町下永野650",
"Capacity":"－",
"la":"33.02700312860",
"ln":"130.76930788100"
},
"geometry":{
"type":"Point",
"coordinates":[
130.769307881,
33.0270031286
]
}
},
{
"type":"Feature",
"properties":{
"Name":"サイクリングターミナル",
"Jusho":"熊本県山鹿市鍋田2085",
"Capacity":"－",
"la":"33.02357256950",
"ln":"130.66676599800"
},
"geometry":{
"type":"Point",
"coordinates":[
130.666765998,
33.0235725695
]
}
},
{
"type":"Feature",
"properties":{
"Name":"ふれあい塾",
"Jusho":"熊本県山鹿市鹿央町合里370",
"Capacity":"－",
"la":"32.97795249220",
"ln":"130.68082500000"
},
"geometry":{
"type":"Point",
"coordinates":[
130.680825,
32.9779524922
]
}
},
{
"type":"Feature",
"properties":{
"Name":"下分田センター",
"Jusho":"熊本県山鹿市鹿本町下分田915",
"Capacity":"－",
"la":"32.99033205790",
"ln":"130.72047238900"
},
"geometry":{
"type":"Point",
"coordinates":[
130.720472389,
32.9903320579
]
}
},
{
"type":"Feature",
"properties":{
"Name":"岳間研修センター",
"Jusho":"熊本県山鹿市鹿北町多久1380",
"Capacity":"－",
"la":"33.10602100000",
"ln":"130.73681000000"
},
"geometry":{
"type":"Point",
"coordinates":[
130.73681,
33.106021
]
}
},
{
"type":"Feature",
"properties":{
"Name":"菊鹿公民館（多目的研修集会施設含む）",
"Jusho":"熊本県山鹿市菊鹿町下内田165",
"Capacity":"－",
"la":"33.02798261750",
"ln":"130.76720861400"
},
"geometry":{
"type":"Point",
"coordinates":[
130.767208614,
33.0279826175
]
}
},
{
"type":"Feature",
"properties":{
"Name":"勤労青少年ホーム",
"Jusho":"熊本県山鹿市山鹿1026-2",
"Capacity":"－",
"la":"33.01743899910",
"ln":"130.69085900000"
},
"geometry":{
"type":"Point",
"coordinates":[
130.690859,
33.0174389991
]
}
},
{
"type":"Feature",
"properties":{
"Name":"健康福祉センター",
"Jusho":"熊本県山鹿市中578",
"Capacity":"－",
"la":"33.00940096030",
"ln":"130.69990211200"
},
"geometry":{
"type":"Point",
"coordinates":[
130.699902112,
33.0094009603
]
}
},
{
"type":"Feature",
"properties":{
"Name":"広見研修センター",
"Jusho":"熊本県山鹿市鹿北町芋生3962-2",
"Capacity":"－",
"la":"33.08385000000",
"ln":"130.69304800000"
},
"geometry":{
"type":"Point",
"coordinates":[
130.693048,
33.08385
]
}
},
{
"type":"Feature",
"properties":{
"Name":"三岳地区公民館",
"Jusho":"熊本県山鹿市津留19-5",
"Capacity":"－",
"la":"33.05426300000",
"ln":"130.68952500000"
},
"geometry":{
"type":"Point",
"coordinates":[
130.689525,
33.054263
]
}
},
{
"type":"Feature",
"properties":{
"Name":"三玉地区公民館",
"Jusho":"熊本県山鹿市久原3007",
"Capacity":"－",
"la":"33.02927800000",
"ln":"130.72085300000"
},
"geometry":{
"type":"Point",
"coordinates":[
130.720853,
33.029278
]
}
},
{
"type":"Feature",
"properties":{
"Name":"山鹿市総合体育館（カルチャースポーツセンター）",
"Jusho":"熊本県山鹿市熊入町416",
"Capacity":"－",
"la":"33.03095400000",
"ln":"130.68827600000"
},
"geometry":{
"type":"Point",
"coordinates":[
130.688276,
33.030954
]
}
},
{
"type":"Feature",
"properties":{
"Name":"山鹿市民会館",
"Jusho":"熊本県山鹿市山鹿1",
"Capacity":"－",
"la":"33.01437998250",
"ln":"130.69068782600"
},
"geometry":{
"type":"Point",
"coordinates":[
130.690687826,
33.0143799825
]
}
},
{
"type":"Feature",
"properties":{
"Name":"鹿央公民館",
"Jusho":"熊本県山鹿市鹿央町広230",
"Capacity":"－",
"la":"32.97233300000",
"ln":"130.68425500000"
},
"geometry":{
"type":"Point",
"coordinates":[
130.684255,
32.972333
]
}
},
{
"type":"Feature",
"properties":{
"Name":"鹿央多目的研修センター",
"Jusho":"熊本県山鹿市鹿央町合里158－",
"Capacity":"－",
"la":"32.97473815210",
"ln":"130.68347382900"
},
"geometry":{
"type":"Point",
"coordinates":[
130.683473829,
32.9747381521
]
}
},
{
"type":"Feature",
"properties":{
"Name":"鹿北公民館",
"Jusho":"熊本県山鹿市鹿北町四丁1616",
"Capacity":"－",
"la":"33.10847500000",
"ln":"130.69365000000"
},
"geometry":{
"type":"Point",
"coordinates":[
130.69365,
33.108475
]
}
},
{
"type":"Feature",
"properties":{
"Name":"鹿本体育館",
"Jusho":"熊本県山鹿市鹿本町来民722",
"Capacity":"－",
"la":"33.00376000000",
"ln":"130.74257700000"
},
"geometry":{
"type":"Point",
"coordinates":[
130.742577,
33.00376
]
}
},
{
"type":"Feature",
"properties":{
"Name":"城北体育館",
"Jusho":"熊本県山鹿市菊鹿町松尾57",
"Capacity":"－",
"la":"33.01142400000",
"ln":"130.78038000000"
},
"geometry":{
"type":"Point",
"coordinates":[
130.78038,
33.011424
]
}
},
{
"type":"Feature",
"properties":{
"Name":"水辺プラザかもと",
"Jusho":"熊本県山鹿市鹿本町梶谷1257",
"Capacity":"－",
"la":"32.98811200000",
"ln":"130.75666000000"
},
"geometry":{
"type":"Point",
"coordinates":[
130.75666,
32.988112
]
}
},
{
"type":"Feature",
"properties":{
"Name":"生涯学習・保健センター「ひだまり」",
"Jusho":"熊本県山鹿市鹿本町来民686－",
"Capacity":"－",
"la":"33.00127146810",
"ln":"130.73952325100"
},
"geometry":{
"type":"Point",
"coordinates":[
130.739523251,
33.0012714681
]
}
},
{
"type":"Feature",
"properties":{
"Name":"川辺地区公民館",
"Jusho":"熊本県山鹿市保多田1550-5",
"Capacity":"－",
"la":"33.01535200000",
"ln":"130.65843200000"
},
"geometry":{
"type":"Point",
"coordinates":[
130.658432,
33.015352
]
}
},
{
"type":"Feature",
"properties":{
"Name":"大道地区公民館",
"Jusho":"熊本県山鹿市方保田155-3",
"Capacity":"－",
"la":"32.99629900000",
"ln":"130.71669900000"
},
"geometry":{
"type":"Point",
"coordinates":[
130.716699,
32.996299
]
}
},
{
"type":"Feature",
"properties":{
"Name":"中央公民館",
"Jusho":"熊本県山鹿市山鹿1026-2",
"Capacity":"－",
"la":"33.01743900000",
"ln":"130.69085900000"
},
"geometry":{
"type":"Point",
"coordinates":[
130.690859,
33.017439
]
}
},
{
"type":"Feature",
"properties":{
"Name":"内田構造改善センター",
"Jusho":"熊本県山鹿市菊鹿町上内田713",
"Capacity":"－",
"la":"33.06286659880",
"ln":"130.77555444200"
},
"geometry":{
"type":"Point",
"coordinates":[
130.775554442,
33.0628665988
]
}
},
{
"type":"Feature",
"properties":{
"Name":"八幡地区公民館",
"Jusho":"熊本県山鹿市熊入町286",
"Capacity":"－",
"la":"33.02586600000",
"ln":"130.68542300000"
},
"geometry":{
"type":"Point",
"coordinates":[
130.685423,
33.025866
]
}
},
{
"type":"Feature",
"properties":{
"Name":"文化センター",
"Jusho":"熊本県山鹿市鹿央町千田1469-2",
"Capacity":"－",
"la":"32.97315961340",
"ln":"130.70875872400"
},
"geometry":{
"type":"Point",
"coordinates":[
130.708758724,
32.9731596134
]
}
},
{
"type":"Feature",
"properties":{
"Name":"平小城地区公民館",
"Jusho":"熊本県山鹿市平山5380",
"Capacity":"－",
"la":"33.05032500000",
"ln":"130.66209400000"
},
"geometry":{
"type":"Point",
"coordinates":[
130.662094,
33.050325
]
}
},
{
"type":"Feature",
"properties":{
"Name":"米田地区公民館",
"Jusho":"熊本県山鹿市南島1212",
"Capacity":"－",
"la":"33.00467600000",
"ln":"130.68526000000"
},
"geometry":{
"type":"Point",
"coordinates":[
130.68526,
33.004676
]
}
},
{
"type":"Feature",
"properties":{
"Name":"老人福祉センター",
"Jusho":"熊本県山鹿市山鹿1328－",
"Capacity":"－",
"la":"33.01877599910",
"ln":"130.68520500000"
},
"geometry":{
"type":"Point",
"coordinates":[
130.685205,
33.0187759991
]
}
},
{
"type":"Feature",
"properties":{
"Name":"きくちふるさと水源交流館",
"Jusho":"熊本県菊池市原1600",
"Capacity":"－",
"la":"33.00196200000",
"ln":"130.87258800000"
},
"geometry":{
"type":"Point",
"coordinates":[
130.872588,
33.001962
]
}
},
{
"type":"Feature",
"properties":{
"Name":"やまびこ体育館",
"Jusho":"熊本県菊池市班蛇口1390",
"Capacity":"－",
"la":"33.05937600000",
"ln":"130.86887700000"
},
"geometry":{
"type":"Point",
"coordinates":[
130.868877,
33.059376
]
}
},
{
"type":"Feature",
"properties":{
"Name":"旭志体育館",
"Jusho":"熊本県菊池市旭志小原189",
"Capacity":"－",
"la":"32.94593099910",
"ln":"130.85838600000"
},
"geometry":{
"type":"Point",
"coordinates":[
130.858386,
32.9459309991
]
}
},
{
"type":"Feature",
"properties":{
"Name":"花房支館",
"Jusho":"熊本県菊池市出田2532",
"Capacity":"－",
"la":"32.95388360710",
"ln":"130.79553916000"
},
"geometry":{
"type":"Point",
"coordinates":[
130.79553916,
32.9538836071
]
}
},
{
"type":"Feature",
"properties":{
"Name":"菊池高校体育館",
"Jusho":"熊本県菊池市隈府1332－",
"Capacity":"－",
"la":"32.98677400000",
"ln":"130.81109600000"
},
"geometry":{
"type":"Point",
"coordinates":[
130.811096,
32.986774
]
}
},
{
"type":"Feature",
"properties":{
"Name":"菊池市ふれあい交流センター「木楽良館」",
"Jusho":"熊本県菊池市袈裟尾445－2",
"Capacity":"－",
"la":"32.99222300000",
"ln":"130.79757800000"
},
"geometry":{
"type":"Point",
"coordinates":[
130.797578,
32.992223
]
}
},
{
"type":"Feature",
"properties":{
"Name":"菊池市浄水センター",
"Jusho":"熊本県菊池市赤星1818",
"Capacity":"－",
"la":"32.95903191680",
"ln":"130.81554201400"
},
"geometry":{
"type":"Point",
"coordinates":[
130.815542014,
32.9590319168
]
}
},
{
"type":"Feature",
"properties":{
"Name":"菊池市総合体育館",
"Jusho":"熊本県菊池市亘538-2",
"Capacity":"－",
"la":"32.98701600000",
"ln":"130.82256500000"
},
"geometry":{
"type":"Point",
"coordinates":[
130.822565,
32.987016
]
}
},
{
"type":"Feature",
"properties":{
"Name":"菊池市福祉会館",
"Jusho":"熊本県菊池市隈府888",
"Capacity":"－",
"la":"32.98049339900",
"ln":"130.81283739200"
},
"geometry":{
"type":"Point",
"coordinates":[
130.812837392,
32.980493399
]
}
},
{
"type":"Feature",
"properties":{
"Name":"菊池女子高校講堂",
"Jusho":"熊本県菊池市隈府1081",
"Capacity":"－",
"la":"32.98135799910",
"ln":"130.81737400000"
},
"geometry":{
"type":"Point",
"coordinates":[
130.817374,
32.9813579991
]
}
},
{
"type":"Feature",
"properties":{
"Name":"菊池青少年ホーム",
"Jusho":"熊本県菊池市隈府1272-2",
"Capacity":"－",
"la":"32.98633598460",
"ln":"130.81403146100"
},
"geometry":{
"type":"Point",
"coordinates":[
130.814031461,
32.9863359846
]
}
},
{
"type":"Feature",
"properties":{
"Name":"菊池体育センター",
"Jusho":"熊本県菊池市隈府1272-2",
"Capacity":"－",
"la":"32.98617400000",
"ln":"130.81366900000"
},
"geometry":{
"type":"Point",
"coordinates":[
130.813669,
32.986174
]
}
},
{
"type":"Feature",
"properties":{
"Name":"菊之池体育館",
"Jusho":"熊本県菊池市西寺1903－",
"Capacity":"－",
"la":"32.96785399910",
"ln":"130.79037300000"
},
"geometry":{
"type":"Point",
"coordinates":[
130.790373,
32.9678539991
]
}
},
{
"type":"Feature",
"properties":{
"Name":"七城温泉ドーム",
"Jusho":"熊本県菊池市七城町林原962－",
"Capacity":"－",
"la":"32.96192100000",
"ln":"130.74973900000"
},
"geometry":{
"type":"Point",
"coordinates":[
130.749739,
32.961921
]
}
},
{
"type":"Feature",
"properties":{
"Name":"七城公民館",
"Jusho":"熊本県菊池市七城町甲佐町72－",
"Capacity":"－",
"la":"32.96949800000",
"ln":"130.76420700000"
},
"geometry":{
"type":"Point",
"coordinates":[
130.764207,
32.969498
]
}
},
{
"type":"Feature",
"properties":{
"Name":"小木集会所（小木振興館）",
"Jusho":"熊本県菊池市小木辛野",
"Capacity":"－",
"la":"33.03401317390",
"ln":"130.82173389900"
},
"geometry":{
"type":"Point",
"coordinates":[
130.821733899,
33.0340131739
]
}
},
{
"type":"Feature",
"properties":{
"Name":"小木体育館",
"Jusho":"熊本県菊池市小木1631－0",
"Capacity":"－",
"la":"33.02893440170",
"ln":"130.81420519100"
},
"geometry":{
"type":"Point",
"coordinates":[
130.814205191,
33.0289344017
]
}
},
{
"type":"Feature",
"properties":{
"Name":"水源支館",
"Jusho":"熊本県菊池市原1607",
"Capacity":"－",
"la":"33.00251500000",
"ln":"130.87267700000"
},
"geometry":{
"type":"Point",
"coordinates":[
130.872677,
33.002515
]
}
},
{
"type":"Feature",
"properties":{
"Name":"水迫里山の家（農村女性の家）",
"Jusho":"熊本県菊池市原2931－",
"Capacity":"－",
"la":"33.01358110440",
"ln":"130.89770527600"
},
"geometry":{
"type":"Point",
"coordinates":[
130.897705276,
33.0135811044
]
}
},
{
"type":"Feature",
"properties":{
"Name":"西武市民センター",
"Jusho":"熊本県菊池市西寺1371－",
"Capacity":"－",
"la":"32.97050000000",
"ln":"130.78571400000"
},
"geometry":{
"type":"Point",
"coordinates":[
130.785714,
32.9705
]
}
},
{
"type":"Feature",
"properties":{
"Name":"多目的研修センター",
"Jusho":"熊本県菊池市旭志小原240",
"Capacity":"－",
"la":"32.94555000000",
"ln":"130.85483900000"
},
"geometry":{
"type":"Point",
"coordinates":[
130.854839,
32.94555
]
}
},
{
"type":"Feature",
"properties":{
"Name":"中央公民館",
"Jusho":"熊本県菊池市隈府865",
"Capacity":"－",
"la":"32.97876399910",
"ln":"130.81400500000"
},
"geometry":{
"type":"Point",
"coordinates":[
130.814005,
32.9787639991
]
}
},
{
"type":"Feature",
"properties":{
"Name":"迫間支館",
"Jusho":"熊本県菊池市太平600",
"Capacity":"－",
"la":"32.99776299910",
"ln":"130.83011900000"
},
"geometry":{
"type":"Point",
"coordinates":[
130.830119,
32.9977629991
]
}
},
{
"type":"Feature",
"properties":{
"Name":"迫間体育館",
"Jusho":"熊本県菊池市太平645－",
"Capacity":"－",
"la":"32.99750399910",
"ln":"130.82995500000"
},
"geometry":{
"type":"Point",
"coordinates":[
130.829955,
32.9975039991
]
}
},
{
"type":"Feature",
"properties":{
"Name":"迫龍ふれあいセンター",
"Jusho":"熊本県菊池市重味3296",
"Capacity":"－",
"la":"33.01322421420",
"ln":"130.85430418600"
},
"geometry":{
"type":"Point",
"coordinates":[
130.854304186,
33.0132242142
]
}
},
{
"type":"Feature",
"properties":{
"Name":"班蛇口湖ボート場艇庫兼研修センター",
"Jusho":"熊本県菊池市班蛇口525-2",
"Capacity":"－",
"la":"33.04648778240",
"ln":"130.85207729700"
},
"geometry":{
"type":"Point",
"coordinates":[
130.852077297,
33.0464877824
]
}
},
{
"type":"Feature",
"properties":{
"Name":"龍門支館",
"Jusho":"熊本県菊池市龍門339－",
"Capacity":"－",
"la":"33.02517600000",
"ln":"130.84111400000"
},
"geometry":{
"type":"Point",
"coordinates":[
130.841114,
33.025176
]
}
},
{
"type":"Feature",
"properties":{
"Name":"老人福祉センター",
"Jusho":"熊本県菊池市七城町流川394－",
"Capacity":"－",
"la":"32.98337606280",
"ln":"130.76761921500"
},
"geometry":{
"type":"Point",
"coordinates":[
130.767619215,
32.9833760628
]
}
},
{
"type":"Feature",
"properties":{
"Name":"泗水Ｂ＆Ｇ海洋センター体育館",
"Jusho":"熊本県菊池市泗水町吉富100-3",
"Capacity":"－",
"la":"32.93967500000",
"ln":"130.79259200000"
},
"geometry":{
"type":"Point",
"coordinates":[
130.792592,
32.939675
]
}
},
{
"type":"Feature",
"properties":{
"Name":"泗水公民館",
"Jusho":"熊本県菊池市泗水町福本242－",
"Capacity":"－",
"la":"32.92309499910",
"ln":"130.77621600000"
},
"geometry":{
"type":"Point",
"coordinates":[
130.776216,
32.9230949991
]
}
},
{
"type":"Feature",
"properties":{
"Name":"泗水体育館",
"Jusho":"熊本県菊池市泗水町福本242－",
"Capacity":"－",
"la":"32.92337300000",
"ln":"130.77625500000"
},
"geometry":{
"type":"Point",
"coordinates":[
130.776255,
32.923373
]
}
},
{
"type":"Feature",
"properties":{
"Name":"泗水第２体育館",
"Jusho":"熊本県菊池市泗水町永2618",
"Capacity":"－",
"la":"32.91487699910",
"ln":"130.80388300000"
},
"geometry":{
"type":"Point",
"coordinates":[
130.803883,
32.9148769991
]
}
},
{
"type":"Feature",
"properties":{
"Name":"宇土高校グラウンド",
"Jusho":"熊本県宇土市古城町63番地",
"Capacity":"－",
"la":"32.68140952850",
"ln":"130.65415217900"
},
"geometry":{
"type":"Point",
"coordinates":[
130.654152179,
32.6814095285
]
}
},
{
"type":"Feature",
"properties":{
"Name":"宇土高校体育館",
"Jusho":"熊本県宇土市古城町63",
"Capacity":"1000",
"la":"32.68063200000",
"ln":"130.65442100000"
},
"geometry":{
"type":"Point",
"coordinates":[
130.654421,
32.680632
]
}
},
{
"type":"Feature",
"properties":{
"Name":"宇土高校第３グラウンド",
"Jusho":"熊本県宇土市神馬町山下364番1号",
"Capacity":"－",
"la":"32.68115900000",
"ln":"130.64681800000"
},
"geometry":{
"type":"Point",
"coordinates":[
130.646818,
32.681159
]
}
},
{
"type":"Feature",
"properties":{
"Name":"宇土市スポーツセンター",
"Jusho":"熊本県宇土市花園町523-2",
"Capacity":"－",
"la":"32.67698600000",
"ln":"130.69433600000"
},
"geometry":{
"type":"Point",
"coordinates":[
130.694336,
32.676986
]
}
},
{
"type":"Feature",
"properties":{
"Name":"宇土市武道館",
"Jusho":"熊本県宇土市旭町500",
"Capacity":"－",
"la":"32.68368400000",
"ln":"130.66447200000"
},
"geometry":{
"type":"Point",
"coordinates":[
130.664472,
32.683684
]
}
},
{
"type":"Feature",
"properties":{
"Name":"宇土市民会館",
"Jusho":"熊本県宇土市新小路町123番地",
"Capacity":"－",
"la":"32.68399100000",
"ln":"130.66136000000"
},
"geometry":{
"type":"Point",
"coordinates":[
130.66136,
32.683991
]
}
},
{
"type":"Feature",
"properties":{
"Name":"宇土市民体育館",
"Jusho":"熊本県宇土市旭町504",
"Capacity":"－",
"la":"32.68423000000",
"ln":"130.66446800000"
},
"geometry":{
"type":"Point",
"coordinates":[
130.664468,
32.68423
]
}
},
{
"type":"Feature",
"properties":{
"Name":"宇土市役所裏市民駐車場",
"Jusho":"熊本県宇土市",
"Capacity":"－",
"la":"32.68762281980",
"ln":"130.65911822700"
},
"geometry":{
"type":"Point",
"coordinates":[
130.659118227,
32.6876228198
]
}
},
{
"type":"Feature",
"properties":{
"Name":"宇土終末処理場グラウンド",
"Jusho":"熊本県宇土市",
"Capacity":"－",
"la":"32.68998929930",
"ln":"130.64925118500"
},
"geometry":{
"type":"Point",
"coordinates":[
130.649251185,
32.6899892993
]
}
},
{
"type":"Feature",
"properties":{
"Name":"宇土福祉センター",
"Jusho":"熊本県宇土市",
"Capacity":"100",
"la":"32.68758200000",
"ln":"130.65876300000"
},
"geometry":{
"type":"Point",
"coordinates":[
130.658763,
32.687582
]
}
},
{
"type":"Feature",
"properties":{
"Name":"浦神社または笠瓜方面へ",
"Jusho":"熊本県宇土市浦小松周辺",
"Capacity":"－",
"la":"32.68520985700",
"ln":"130.56197710900"
},
"geometry":{
"type":"Point",
"coordinates":[
130.561977109,
32.685209857
]
}
},
{
"type":"Feature",
"properties":{
"Name":"火の国屋横から山上へ上がる",
"Jusho":"熊本県宇土市長浜周辺",
"Capacity":"－",
"la":"32.69145464100",
"ln":"130.56260292300"
},
"geometry":{
"type":"Point",
"coordinates":[
130.562602923,
32.691454641
]
}
},
{
"type":"Feature",
"properties":{
"Name":"花園コミュニティセンター",
"Jusho":"熊本県宇土市",
"Capacity":"200",
"la":"32.67643497730",
"ln":"130.68329243500"
},
"geometry":{
"type":"Point",
"coordinates":[
130.683292435,
32.6764349773
]
}
},
{
"type":"Feature",
"properties":{
"Name":"勤労青少年ホーム",
"Jusho":"熊本県宇土市浦田町51",
"Capacity":"80",
"la":"32.68735099910",
"ln":"130.65893500000"
},
"geometry":{
"type":"Point",
"coordinates":[
130.658935,
32.6873509991
]
}
},
{
"type":"Feature",
"properties":{
"Name":"御輿来地区上へ通じる道路を上がる",
"Jusho":"熊本県宇土市御輿来周辺",
"Capacity":"－",
"la":"32.66447227210",
"ln":"130.53732484100"
},
"geometry":{
"type":"Point",
"coordinates":[
130.537324841,
32.6644722721
]
}
},
{
"type":"Feature",
"properties":{
"Name":"広刈地区上へ通じる道路を上がる",
"Jusho":"熊本県宇土市赤瀬周辺",
"Capacity":"－",
"la":"32.65905754110",
"ln":"130.51846061200"
},
"geometry":{
"type":"Point",
"coordinates":[
130.518460612,
32.6590575411
]
}
},
{
"type":"Feature",
"properties":{
"Name":"綱津地区グラウンド",
"Jusho":"熊本県宇土市網津町",
"Capacity":"－",
"la":"32.69958246010",
"ln":"130.60997553300"
},
"geometry":{
"type":"Point",
"coordinates":[
130.609975533,
32.6995824601
]
}
},
{
"type":"Feature",
"properties":{
"Name":"綱津地区多目的研修開施設",
"Jusho":"熊本県宇土市",
"Capacity":"－",
"la":"32.69604736040",
"ln":"130.59928411100"
},
"geometry":{
"type":"Point",
"coordinates":[
130.599284111,
32.6960473604
]
}
},
{
"type":"Feature",
"properties":{
"Name":"綱田漁協",
"Jusho":"熊本県宇土市",
"Capacity":"100",
"la":"32.66737188960",
"ln":"130.54337203200"
},
"geometry":{
"type":"Point",
"coordinates":[
130.543372032,
32.6673718896
]
}
},
{
"type":"Feature",
"properties":{
"Name":"綱田地区グラウンド",
"Jusho":"熊本県宇土市",
"Capacity":"－",
"la":"32.67245275940",
"ln":"130.55164645700"
},
"geometry":{
"type":"Point",
"coordinates":[
130.551646457,
32.6724527594
]
}
},
{
"type":"Feature",
"properties":{
"Name":"綱田地区農業者トレーニングセンター",
"Jusho":"熊本県宇土市",
"Capacity":"－",
"la":"32.66808663230",
"ln":"130.55066854800"
},
"geometry":{
"type":"Point",
"coordinates":[
130.550668548,
32.6680866323
]
}
},
{
"type":"Feature",
"properties":{
"Name":"轟地区グラウンド",
"Jusho":"熊本県宇土市",
"Capacity":"－",
"la":"32.67602418930",
"ln":"130.64443327300"
},
"geometry":{
"type":"Point",
"coordinates":[
130.644433273,
32.6760241893
]
}
},
{
"type":"Feature",
"properties":{
"Name":"轟地区公民館",
"Jusho":"熊本県宇土市",
"Capacity":"140",
"la":"32.67651489000",
"ln":"130.64481604100"
},
"geometry":{
"type":"Point",
"coordinates":[
130.644816041,
32.67651489
]
}
},
{
"type":"Feature",
"properties":{
"Name":"轟地区農業者トレーニングセンター",
"Jusho":"熊本県宇土市石橋町1番地",
"Capacity":"530",
"la":"32.67603475790",
"ln":"130.64533134400"
},
"geometry":{
"type":"Point",
"coordinates":[
130.645331344,
32.6760347579
]
}
},
{
"type":"Feature",
"properties":{
"Name":"最寄りの高い場所（できるだけ高い場所がよい）",
"Jusho":"熊本県宇土市綱津",
"Capacity":"－",
"la":"32.69090104650",
"ln":"130.60353036400"
},
"geometry":{
"type":"Point",
"coordinates":[
130.603530364,
32.6909010465
]
}
},
{
"type":"Feature",
"properties":{
"Name":"最寄りの高い場所（できるだけ高い場所がよい）",
"Jusho":"熊本県宇土市綱田",
"Capacity":"－",
"la":"32.66459216600",
"ln":"130.55022835600"
},
"geometry":{
"type":"Point",
"coordinates":[
130.550228356,
32.664592166
]
}
},
{
"type":"Feature",
"properties":{
"Name":"最寄りの高い場所（できるだけ高い場所がよい）",
"Jusho":"熊本県宇土市緑川",
"Capacity":"－",
"la":"32.68981395950",
"ln":"130.62994376400"
},
"geometry":{
"type":"Point",
"coordinates":[
130.629943764,
32.6898139595
]
}
},
{
"type":"Feature",
"properties":{
"Name":"三角線を越えて山手の方へ",
"Jusho":"熊本県宇土市上新開下新開",
"Capacity":"－",
"la":"32.69077124010",
"ln":"130.62145634400"
},
"geometry":{
"type":"Point",
"coordinates":[
130.621456344,
32.6907712401
]
}
},
{
"type":"Feature",
"properties":{
"Name":"三角線を越えて山手の方へ",
"Jusho":"熊本県宇土市辺田潟周辺",
"Capacity":"－",
"la":"32.69999626600",
"ln":"130.61024971300"
},
"geometry":{
"type":"Point",
"coordinates":[
130.610249713,
32.699996266
]
}
},
{
"type":"Feature",
"properties":{
"Name":"市民会館",
"Jusho":"熊本県宇土市",
"Capacity":"1000",
"la":"32.68409837770",
"ln":"130.66135742400"
},
"geometry":{
"type":"Point",
"coordinates":[
130.661357424,
32.6840983777
]
}
},
{
"type":"Feature",
"properties":{
"Name":"市民体育館",
"Jusho":"熊本県宇土市",
"Capacity":"1680",
"la":"32.68441020400",
"ln":"130.66458358100"
},
"geometry":{
"type":"Point",
"coordinates":[
130.664583581,
32.684410204
]
}
},
{
"type":"Feature",
"properties":{
"Name":"次郎平橋から三角線を越えて山手の方へ",
"Jusho":"熊本県宇土市走潟全域",
"Capacity":"－",
"la":"32.69102308140",
"ln":"130.63139618800"
},
"geometry":{
"type":"Point",
"coordinates":[
130.631396188,
32.6910230814
]
}
},
{
"type":"Feature",
"properties":{
"Name":"就業改善センター",
"Jusho":"熊本県宇土市",
"Capacity":"－",
"la":"32.68376641510",
"ln":"130.66259771000"
},