var k={
"type":"FeatureCollection",
"features":[
{
"type":"Feature",
"properties":{
"Name":"松尾児童公園",
"Jusho":"大分県中津市永添1771",
"Capacity":"－",
"la":"33.57051215550",
"ln":"131.19704961300"
},
"geometry":{
"type":"Point",
"coordinates":[
131.197049613,
33.5705121555
]
}
},
{
"type":"Feature",
"properties":{
"Name":"大貞総合運動公園",
"Jusho":"大分県中津市加来2282-27",
"Capacity":"－",
"la":"33.56278524000",
"ln":"131.20754930000"
},
"geometry":{
"type":"Point",
"coordinates":[
131.2075493,
33.56278524
]
}
},
{
"type":"Feature",
"properties":{
"Name":"中央公園",
"Jusho":"大分県中津市豊田町14-39",
"Capacity":"－",
"la":"33.59709653000",
"ln":"131.18704677000"
},
"geometry":{
"type":"Point",
"coordinates":[
131.18704677,
33.59709653
]
}
},
{
"type":"Feature",
"properties":{
"Name":"中津城公園",
"Jusho":"大分県中津市1278-1",
"Capacity":"－",
"la":"33.60592944000",
"ln":"131.18547613000"
},
"geometry":{
"type":"Point",
"coordinates":[
131.18547613,
33.60592944
]
}
},
{
"type":"Feature",
"properties":{
"Name":"田尻ファミリー公園",
"Jusho":"大分県中津市田尻崎2-2",
"Capacity":"－",
"la":"33.60891444000",
"ln":"131.24466896000"
},
"geometry":{
"type":"Point",
"coordinates":[
131.24466896,
33.60891444
]
}
},
{
"type":"Feature",
"properties":{
"Name":"島田公園",
"Jusho":"大分県中津市豊田町5-4",
"Capacity":"－",
"la":"33.59681160000",
"ln":"131.18875960000"
},
"geometry":{
"type":"Point",
"coordinates":[
131.1887596,
33.5968116
]
}
},
{
"type":"Feature",
"properties":{
"Name":"鍋島公園",
"Jusho":"大分県中津市鍋島697-43",
"Capacity":"－",
"la":"33.58393537000",
"ln":"131.27099161000"
},
"geometry":{
"type":"Point",
"coordinates":[
131.27099161,
33.58393537
]
}
},
{
"type":"Feature",
"properties":{
"Name":"米山公園",
"Jusho":"大分県中津市蛎瀬1351-13",
"Capacity":"－",
"la":"33.60905352000",
"ln":"131.21070725000"
},
"geometry":{
"type":"Point",
"coordinates":[
131.21070725,
33.60905352
]
}
},
{
"type":"Feature",
"properties":{
"Name":"豊陽公園",
"Jusho":"大分県中津市中央町1丁目946-2",
"Capacity":"－",
"la":"33.59462712000",
"ln":"131.19032700000"
},
"geometry":{
"type":"Point",
"coordinates":[
131.190327,
33.59462712
]
}
},
{
"type":"Feature",
"properties":{
"Name":"亀塚古墳公園内敷地",
"Jusho":"大分県大分市大字里字大塚646-1ほか",
"Capacity":"－",
"la":"33.23492423370",
"ln":"131.73945955300"
},
"geometry":{
"type":"Point",
"coordinates":[
131.739459553,
33.2349242337
]
}
},
{
"type":"Feature",
"properties":{
"Name":"なかよし公園",
"Jusho":"大分県別府市浜町10番",
"Capacity":"4062",
"la":"33.27313922910",
"ln":"131.50816042000"
},
"geometry":{
"type":"Point",
"coordinates":[
131.50816042,
33.2731392291
]
}
},
{
"type":"Feature",
"properties":{
"Name":"海門寺公園",
"Jusho":"大分県別府市北浜2丁目2番",
"Capacity":"3937",
"la":"33.28004490000",
"ln":"131.50360494000"
},
"geometry":{
"type":"Point",
"coordinates":[
131.50360494,
33.2800449
]
}
},
{
"type":"Feature",
"properties":{
"Name":"吉弘公園",
"Jusho":"大分県別府市石垣西6丁目6番",
"Capacity":"313",
"la":"33.29868460000",
"ln":"131.49214361000"
},
"geometry":{
"type":"Point",
"coordinates":[
131.49214361,
33.2986846
]
}
},
{
"type":"Feature",
"properties":{
"Name":"山田児童公園",
"Jusho":"大分県別府市朝見1丁目13番（桃太郎公園）",
"Capacity":"1628",
"la":"33.27148668910",
"ln":"131.49911271000"
},
"geometry":{
"type":"Point",
"coordinates":[
131.49911271,
33.2714866891
]
}
},
{
"type":"Feature",
"properties":{
"Name":"実相寺中央公園",
"Jusho":"大分県別府市大字鶴見字実相寺山",
"Capacity":"114741",
"la":"33.29963523000",
"ln":"131.48662400000"
},
"geometry":{
"type":"Point",
"coordinates":[
131.486624,
33.29963523
]
}
},
{
"type":"Feature",
"properties":{
"Name":"松原公園",
"Jusho":"大分県別府市松原町8番",
"Capacity":"3731",
"la":"33.27239026000",
"ln":"131.50588526000"
},
"geometry":{
"type":"Point",
"coordinates":[
131.50588526,
33.27239026
]
}
},
{
"type":"Feature",
"properties":{
"Name":"上人ヶ浜公園",
"Jusho":"大分県別府市上人ヶ浜町504-1",
"Capacity":"40099",
"la":"33.31464753000",
"ln":"131.50149525000"
},
"geometry":{
"type":"Point",
"coordinates":[
131.50149525,
33.31464753
]
}
},
{
"type":"Feature",
"properties":{
"Name":"石垣児童公園",
"Jusho":"大分県別府市石垣東2丁目3番",
"Capacity":"1994",
"la":"33.29142917000",
"ln":"131.49806441000"
},
"geometry":{
"type":"Point",
"coordinates":[
131.49806441,
33.29142917
]
}
},
{
"type":"Feature",
"properties":{
"Name":"大石公園",
"Jusho":"大分県別府市鉄輪東1組",
"Capacity":"5320",
"la":"33.20693721000",
"ln":"131.58533473000"
},
"geometry":{
"type":"Point",
"coordinates":[
131.58533473,
33.20693721
]
}
},
{
"type":"Feature",
"properties":{
"Name":"大谷公園",
"Jusho":"大分県別府市御幸2組",
"Capacity":"1964",
"la":"33.31494451000",
"ln":"131.47572394000"
},
"geometry":{
"type":"Point",
"coordinates":[
131.47572394,
33.31494451
]
}
},
{
"type":"Feature",
"properties":{
"Name":"大畑公園",
"Jusho":"大分県別府市大畑18組",
"Capacity":"1255",
"la":"33.30038438020",
"ln":"131.47103859900"
},
"geometry":{
"type":"Point",
"coordinates":[
131.471038599,
33.3003843802
]
}
},
{
"type":"Feature",
"properties":{
"Name":"中須賀児童公園",
"Jusho":"大分県別府市中須賀元町9組",
"Capacity":"2495",
"la":"33.30936092000",
"ln":"131.48995917000"
},
"geometry":{
"type":"Point",
"coordinates":[
131.48995917,
33.30936092
]
}
},
{
"type":"Feature",
"properties":{
"Name":"鶴見ヶ丘児童公園",
"Jusho":"大分県別府市東荘園町3丁目1組",
"Capacity":"2414",
"la":"33.29176019000",
"ln":"131.48631706000"
},
"geometry":{
"type":"Point",
"coordinates":[
131.48631706,
33.29176019
]
}
},
{
"type":"Feature",
"properties":{
"Name":"的ヶ浜公園",
"Jusho":"大分県別府市北的ヶ浜町1183-4",
"Capacity":"15820",
"la":"33.28399651000",
"ln":"131.50543928000"
},
"geometry":{
"type":"Point",
"coordinates":[
131.50543928,
33.28399651
]
}
},
{
"type":"Feature",
"properties":{
"Name":"鉄輪地獄地帯公園",
"Jusho":"大分県別府市大字鉄輪字フロムシ",
"Capacity":"29788",
"la":"33.31550189000",
"ln":"131.47145737000"
},
"geometry":{
"type":"Point",
"coordinates":[
131.47145737,
33.31550189
]
}
},
{
"type":"Feature",
"properties":{
"Name":"南原児童公園",
"Jusho":"大分県別府市石垣西4丁目4番",
"Capacity":"1991",
"la":"33.29447714000",
"ln":"131.49336673000"
},
"geometry":{
"type":"Point",
"coordinates":[
131.49336673,
33.29447714
]
}
},
{
"type":"Feature",
"properties":{
"Name":"南石垣公園",
"Jusho":"大分県別府市石垣東4丁目3番",
"Capacity":"19845",
"la":"33.29501118000",
"ln":"131.49784465000"
},
"geometry":{
"type":"Point",
"coordinates":[
131.49784465,
33.29501118
]
}
},
{
"type":"Feature",
"properties":{
"Name":"南立石公園",
"Jusho":"大分県別府市大字南立石1884-1",
"Capacity":"108016",
"la":"33.29145786000",
"ln":"131.47507200000"
},
"geometry":{
"type":"Point",
"coordinates":[
131.475072,
33.29145786
]
}
},
{
"type":"Feature",
"properties":{
"Name":"浜田児童公園",
"Jusho":"大分県別府市亀川浜田町12番",
"Capacity":"1888",
"la":"33.33276386930",
"ln":"131.49376893600"
},
"geometry":{
"type":"Point",
"coordinates":[
131.493768936,
33.3327638693
]
}
},
{
"type":"Feature",
"properties":{
"Name":"浜脇公園",
"Jusho":"大分県別府市浜脇1丁目6番",
"Capacity":"11807",
"la":"33.27030618000",
"ln":"131.50998313000"
},
"geometry":{
"type":"Point",
"coordinates":[
131.50998313,
33.27030618
]
}
},
{
"type":"Feature",
"properties":{
"Name":"別府公園",
"Jusho":"大分県別府市野口原3018-1",
"Capacity":"254041",
"la":"33.28183916000",
"ln":"131.49099333000"
},
"geometry":{
"type":"Point",
"coordinates":[
131.49099333,
33.28183916
]
}
},
{
"type":"Feature",
"properties":{
"Name":"北新田公園（開発公社）",
"Jusho":"大分県別府市大字内竈字北新田5-6",
"Capacity":"605",
"la":"33.34510071270",
"ln":"131.49411680000"
},
"geometry":{
"type":"Point",
"coordinates":[
131.4941168,
33.3451007127
]
}
},
{
"type":"Feature",
"properties":{
"Name":"北石垣公園",
"Jusho":"大分県別府市石垣東9丁目3番",
"Capacity":"19844",
"la":"33.30314125000",
"ln":"131.49756026000"
},
"geometry":{
"type":"Point",
"coordinates":[
131.49756026,
33.30314125
]
}
},
{
"type":"Feature",
"properties":{
"Name":"北浜公園",
"Jusho":"大分県別府市北浜1丁目818-386",
"Capacity":"7011",
"la":"33.27873204000",
"ln":"131.50686125000"
},
"geometry":{
"type":"Point",
"coordinates":[
131.50686125,
33.27873204
]
}
},
{
"type":"Feature",
"properties":{
"Name":"餅ヶ浜児童公園",
"Jusho":"大分県別府市若草町4番",
"Capacity":"3174",
"la":"33.29125549910",
"ln":"131.50198130000"
},
"geometry":{
"type":"Point",
"coordinates":[
131.5019813,
33.2912554991
]
}
},
{
"type":"Feature",
"properties":{
"Name":"野口原総合運動公園",
"Jusho":"大分県別府市大字別府3088-9",
"Capacity":"60073",
"la":"33.28676655350",
"ln":"131.48784999600"
},
"geometry":{
"type":"Point",
"coordinates":[
131.487849996,
33.2867665535
]
}
},
{
"type":"Feature",
"properties":{
"Name":"野口公園",
"Jusho":"大分県別府市天満町17番",
"Capacity":"6915",
"la":"33.28788178000",
"ln":"131.49548397000"
},
"geometry":{
"type":"Point",
"coordinates":[
131.49548397,
33.28788178
]
}
},
{
"type":"Feature",
"properties":{
"Name":"亀山公園",
"Jusho":"大分県日田市中ノ島町559",
"Capacity":"13780",
"la":"33.31447919000",
"ln":"130.92848969000"
},
"geometry":{
"type":"Point",
"coordinates":[
130.92848969,
33.31447919
]
}
},
{
"type":"Feature",
"properties":{
"Name":"京町公園",
"Jusho":"大分県日田市京町27-1",
"Capacity":"533",
"la":"33.31105647910",
"ln":"130.92947013000"
},
"geometry":{
"type":"Point",
"coordinates":[
130.92947013,
33.3110564791
]
}
},
{
"type":"Feature",
"properties":{
"Name":"鏡坂公園",
"Jusho":"大分県日田市上野町393-1",
"Capacity":"16919",
"la":"33.30897884000",
"ln":"130.92360062000"
},
"geometry":{
"type":"Point",
"coordinates":[
130.92360062,
33.30897884
]
}
},
{
"type":"Feature",
"properties":{
"Name":"桂林荘（城町第一児童）公園",
"Jusho":"大分県日田市城町一丁目305-1",
"Capacity":"1080",
"la":"33.32730639910",
"ln":"130.93899723000"
},
"geometry":{
"type":"Point",
"coordinates":[
130.93899723,
33.3273063991
]
}
},
{
"type":"Feature",
"properties":{
"Name":"月隈公園",
"Jusho":"大分県日田市丸山二丁目2-1",
"Capacity":"17345",
"la":"33.33219893000",
"ln":"130.93601056000"
},
"geometry":{
"type":"Point",
"coordinates":[
130.93601056,
33.33219893
]
}
},
{
"type":"Feature",
"properties":{
"Name":"港町児童公園",
"Jusho":"大分県日田市港町398-5",
"Capacity":"852",
"la":"33.32531830650",
"ln":"130.93605880800"
},
"geometry":{
"type":"Point",
"coordinates":[
130.936058808,
33.3253183065
]
}
},
{
"type":"Feature",
"properties":{
"Name":"三隈川公園",
"Jusho":"大分県日田市中ノ島町608-3",
"Capacity":"2971",
"la":"33.31261468000",
"ln":"130.92615597000"
},
"geometry":{
"type":"Point",
"coordinates":[
130.92615597,
33.31261468
]
}
},
{
"type":"Feature",
"properties":{
"Name":"三芳児童公園",
"Jusho":"大分県日田市下井手町20",
"Capacity":"1664",
"la":"33.30622313000",
"ln":"130.94812810000"
},
"geometry":{
"type":"Point",
"coordinates":[
130.9481281,
33.30622313
]
}
},
{
"type":"Feature",
"properties":{
"Name":"慈眼山公園",
"Jusho":"大分県日田市城町二丁目609-1",
"Capacity":"13242",
"la":"33.33221463000",
"ln":"130.94470331000"
},
"geometry":{
"type":"Point",
"coordinates":[
130.94470331,
33.33221463
]
}
},
{
"type":"Feature",
"properties":{
"Name":"小渕児童公園",
"Jusho":"大分県日田市三芳小渕町73",
"Capacity":"849",
"la":"33.30459533000",
"ln":"130.94828496000"
},
"geometry":{
"type":"Point",
"coordinates":[
130.94828496,
33.30459533
]
}
},
{
"type":"Feature",
"properties":{
"Name":"星隈公園",
"Jusho":"大分県日田市北友田二丁目1950-1",
"Capacity":"3135",
"la":"33.32523030000",
"ln":"130.90540713000"
},
"geometry":{
"type":"Point",
"coordinates":[
130.90540713,
33.3252303
]
}
},
{
"type":"Feature",
"properties":{
"Name":"竹田公園",
"Jusho":"大分県日田市若宮町1233",
"Capacity":"10757",
"la":"33.30839703000",
"ln":"130.93940772000"
},
"geometry":{
"type":"Point",
"coordinates":[
130.93940772,
33.30839703
]
}
},
{
"type":"Feature",
"properties":{
"Name":"田島第一児童公園",
"Jusho":"大分県日田市田島一丁目143",
"Capacity":"948",
"la":"33.31741935000",
"ln":"130.94135194000"
},
"geometry":{
"type":"Point",
"coordinates":[
130.94135194,
33.31741935
]
}
},
{
"type":"Feature",
"properties":{
"Name":"田島第三児童公園",
"Jusho":"大分県日田市田島一丁目617",
"Capacity":"2144",
"la":"33.31505740000",
"ln":"130.94238610000"
},
"geometry":{
"type":"Point",
"coordinates":[
130.9423861,
33.3150574
]
}
},
{
"type":"Feature",
"properties":{
"Name":"田島第二児童公園",
"Jusho":"大分県日田市田島二丁目286",
"Capacity":"1084",
"la":"33.31965626000",
"ln":"130.94183179000"
},
"geometry":{
"type":"Point",
"coordinates":[
130.94183179,
33.31965626
]
}
},
{
"type":"Feature",
"properties":{
"Name":"田島本町児童公園",
"Jusho":"大分県日田市田島本町175",
"Capacity":"961",
"la":"33.31921166000",
"ln":"130.93916779000"
},
"geometry":{
"type":"Point",
"coordinates":[
130.93916779,
33.31921166
]
}
},
{
"type":"Feature",
"properties":{
"Name":"東町児童公園",
"Jusho":"大分県日田市東町716-3",
"Capacity":"893",
"la":"33.31209612130",
"ln":"130.93497767200"
},
"geometry":{
"type":"Point",
"coordinates":[
130.934977672,
33.3120961213
]
}
},
{
"type":"Feature",
"properties":{
"Name":"南元町児童公園",
"Jusho":"大分県日田市南元町42",
"Capacity":"1551",
"la":"33.31366801000",
"ln":"130.94006131000"
},
"geometry":{
"type":"Point",
"coordinates":[
130.94006131,
33.31366801
]
}
},
{
"type":"Feature",
"properties":{
"Name":"萩尾公園",
"Jusho":"大分県日田市君迫町1335-1",
"Capacity":"215324",
"la":"33.33078965000",
"ln":"130.88786382000"
},
"geometry":{
"type":"Point",
"coordinates":[
130.88786382,
33.33078965
]
}
},
{
"type":"Feature",
"properties":{
"Name":"北友田三丁目児童公園",
"Jusho":"大分県日田市北友田三丁目2531-37",
"Capacity":"648",
"la":"33.32283075000",
"ln":"130.90084859000"
},
"geometry":{
"type":"Point",
"coordinates":[
130.90084859,
33.32283075
]
}
},
{
"type":"Feature",
"properties":{
"Name":"本町第一児童公園",
"Jusho":"大分県日田市本町19",
"Capacity":"618",
"la":"33.31653776910",
"ln":"130.93589669000"
},
"geometry":{
"type":"Point",
"coordinates":[
130.93589669,
33.3165377691
]
}
},
{
"type":"Feature",
"properties":{
"Name":"本町第二児童公園",
"Jusho":"大分県日田市本町56",
"Capacity":"724",
"la":"33.31530900910",
"ln":"130.93744484000"
},
"geometry":{
"type":"Point",
"coordinates":[
130.93744484,
33.3153090091
]
}
},
{
"type":"Feature",
"properties":{
"Name":"佐伯市総合運動公園弓道場",
"Jusho":"大分県佐伯市大字長谷3786",
"Capacity":"－",
"la":"32.92796736110",
"ln":"131.86810101100"
},
"geometry":{
"type":"Point",
"coordinates":[
131.868101011,
32.9279673611
]
}
},
{
"type":"Feature",
"properties":{
"Name":"瀬会公園",
"Jusho":"大分県佐伯市上浦大字津井浦",
"Capacity":"30",
"la":"33.04919986170",
"ln":"131.93683406900"
},
"geometry":{
"type":"Point",
"coordinates":[
131.936834069,
33.0491998617
]
}
},
{
"type":"Feature",
"properties":{
"Name":"西の崎公園",
"Jusho":"大分県佐伯市蒲江大字蒲江浦",
"Capacity":"300",
"la":"32.79449248130",
"ln":"131.92409227500"
},
"geometry":{
"type":"Point",
"coordinates":[
131.924092275,
32.7944924813
]
}
},
{
"type":"Feature",
"properties":{
"Name":"農道上の公園",
"Jusho":"大分県佐伯市上浦大字浅海井浦",
"Capacity":"－",
"la":"33.04537182460",
"ln":"131.91810712300"
},
"geometry":{
"type":"Point",
"coordinates":[
131.918107123,
33.0453718246
]
}
},
{
"type":"Feature",
"properties":{
"Name":"平成公園",
"Jusho":"大分県佐伯市鶴見大字吹浦",
"Capacity":"－",
"la":"32.95174898270",
"ln":"131.93906480800"
},
"geometry":{
"type":"Point",
"coordinates":[
131.939064808,
32.9517489827
]
}
},
{
"type":"Feature",
"properties":{
"Name":"浪太公園",
"Jusho":"大分県佐伯市上浦大字浅海井浦",
"Capacity":"－",
"la":"33.02989019410",
"ln":"131.91532627500"
},
"geometry":{
"type":"Point",
"coordinates":[
131.915326275,
33.0298901941
]
}
},
{
"type":"Feature",
"properties":{
"Name":"臼杵公園",
"Jusho":"大分県臼杵市大字臼杵91番地1",
"Capacity":"26259",
"la":"33.12182330000",
"ln":"131.80387375000"
},
"geometry":{
"type":"Point",
"coordinates":[
131.80387375,
33.1218233
]
}
},
{
"type":"Feature",
"properties":{
"Name":"臼杵市総合運動運動公園",
"Jusho":"大分県臼杵市大字諏訪",
"Capacity":"－",
"la":"33.13529183910",
"ln":"131.79631246000"
},
"geometry":{
"type":"Point",
"coordinates":[
131.79631246,
33.1352918391
]
}
},
{
"type":"Feature",
"properties":{
"Name":"えびす公園",
"Jusho":"大分県津久見市津久見浦3825-98",
"Capacity":"－",
"la":"33.07571246000",
"ln":"131.87622339000"
},
"geometry":{
"type":"Point",
"coordinates":[
131.87622339,
33.07571246
]
}
},
{
"type":"Feature",
"properties":{
"Name":"キリン公園",
"Jusho":"大分県津久見市入船西町22",
"Capacity":"－",
"la":"33.08086300000",
"ln":"131.85491600000"
},
"geometry":{
"type":"Point",
"coordinates":[
131.854916,
33.080863
]
}
},
{
"type":"Feature",
"properties":{
"Name":"たからじま公園",
"Jusho":"大分県津久見市入船東町11-10",
"Capacity":"－",
"la":"33.08051300000",
"ln":"131.85651600000"
},
"geometry":{
"type":"Point",
"coordinates":[
131.856516,
33.080513
]
}
},
{
"type":"Feature",
"properties":{
"Name":"つくみん公園",
"Jusho":"大分県津久見市港町4142-153",
"Capacity":"－",
"la":"33.07658221750",
"ln":"131.86322906200"
},
"geometry":{
"type":"Point",
"coordinates":[
131.863229062,
33.0765822175
]
}
},
{
"type":"Feature",
"properties":{
"Name":"なかよし公園",
"Jusho":"大分県津久見市徳浦宮町414-2",
"Capacity":"－",
"la":"33.09178444000",
"ln":"131.85314608000"
},
"geometry":{
"type":"Point",
"coordinates":[
131.85314608,
33.09178444
]
}
},
{
"type":"Feature",
"properties":{
"Name":"旭東公園",
"Jusho":"大分県津久見市千怒5089",
"Capacity":"－",
"la":"33.07602231000",
"ln":"131.88702665000"
},
"geometry":{
"type":"Point",
"coordinates":[
131.88702665,
33.07602231
]
}
},
{
"type":"Feature",
"properties":{
"Name":"姥目公園",
"Jusho":"大分県津久見市中央町7-1",
"Capacity":"－",
"la":"33.07404459460",
"ln":"131.86236291100"
},
"geometry":{
"type":"Point",
"coordinates":[
131.862362911,
33.0740445946
]
}
},
{
"type":"Feature",
"properties":{
"Name":"運動公園駐車場",
"Jusho":"大分県津久見市千怒5338",
"Capacity":"－",
"la":"33.07869923010",
"ln":"131.88237824500"
},
"geometry":{
"type":"Point",
"coordinates":[
131.882378245,
33.0786992301
]
}
},
{
"type":"Feature",
"properties":{
"Name":"角崎公園",
"Jusho":"大分県津久見市中央町24-22",
"Capacity":"－",
"la":"33.07528879000",
"ln":"131.86236692000"
},
"geometry":{
"type":"Point",
"coordinates":[
131.86236692,
33.07528879
]
}
},
{
"type":"Feature",
"properties":{
"Name":"岩屋公園",
"Jusho":"大分県津久見市岩屋町7-11",
"Capacity":"－",
"la":"33.07187539000",
"ln":"131.86759805000"
},
"geometry":{
"type":"Point",
"coordinates":[
131.86759805,
33.07187539
]
}
},
{
"type":"Feature",
"properties":{
"Name":"宮本西公園",
"Jusho":"大分県津久見市上宮本町20",
"Capacity":"－",
"la":"33.07080214000",
"ln":"131.86028488000"
},
"geometry":{
"type":"Point",
"coordinates":[
131.86028488,
33.07080214
]
}
},
{
"type":"Feature",
"properties":{
"Name":"宮本東公園",
"Jusho":"大分県津久見市上宮本町4",
"Capacity":"－",
"la":"33.06868282000",
"ln":"131.86102051000"
},
"geometry":{
"type":"Point",
"coordinates":[
131.86102051,
33.06868282
]
}
},
{
"type":"Feature",
"properties":{
"Name":"公園地南側",
"Jusho":"大分県津久見市",
"Capacity":"－",
"la":"33.10085073180",
"ln":"132.00792668600"
},
"geometry":{
"type":"Point",
"coordinates":[
132.007926686,
33.1008507318
]
}
},
{
"type":"Feature",
"properties":{
"Name":"公園地北側",
"Jusho":"大分県津久見市",
"Capacity":"－",
"la":"33.10217477760",
"ln":"132.00750480600"
},
"geometry":{
"type":"Point",
"coordinates":[
132.007504806,
33.1021747776
]
}
},
{
"type":"Feature",
"properties":{
"Name":"広浦児童公園",
"Jusho":"大分県津久見市千怒210-5",
"Capacity":"－",
"la":"33.06575492000",
"ln":"131.88929105000"
},
"geometry":{
"type":"Point",
"coordinates":[
131.88929105,
33.06575492
]
}
},
{
"type":"Feature",
"properties":{
"Name":"志手町公園",
"Jusho":"大分県津久見市志手町8",
"Capacity":"－",
"la":"33.07936480630",
"ln":"131.84921425900"
},
"geometry":{
"type":"Point",
"coordinates":[
131.849214259,
33.0793648063
]
}
},
{
"type":"Feature",
"properties":{
"Name":"宗麟公園入口",
"Jusho":"大分県津久見市",
"Capacity":"－",
"la":"33.06089441910",
"ln":"131.86005242000"
},
"geometry":{
"type":"Point",
"coordinates":[
131.86005242,
33.0608944191
]
}
},
{
"type":"Feature",
"properties":{
"Name":"千怒崎公園",
"Jusho":"大分県津久見市千怒4873-59",
"Capacity":"－",
"la":"33.08121787000",
"ln":"131.88364598000"
},
"geometry":{
"type":"Point",
"coordinates":[
131.88364598,
33.08121787
]
}
},
{
"type":"Feature",
"properties":{
"Name":"千怒児童公園",
"Jusho":"大分県津久見市千怒6127",
"Capacity":"－",
"la":"33.07280349000",
"ln":"131.88811281000"
},
"geometry":{
"type":"Point",
"coordinates":[
131.88811281,
33.07280349
]
}
},
{
"type":"Feature",
"properties":{
"Name":"大友公園",
"Jusho":"大分県津久見市大友町1994-1",
"Capacity":"－",
"la":"33.07106854000",
"ln":"131.86583232000"
},
"geometry":{
"type":"Point",
"coordinates":[
131.86583232,
33.07106854
]
}
},
{
"type":"Feature",
"properties":{
"Name":"大友公園（東）",
"Jusho":"大分県津久見市",
"Capacity":"－",
"la":"33.07130256940",
"ln":"131.86624231700"
},
"geometry":{
"type":"Point",
"coordinates":[
131.866242317,
33.0713025694
]
}
},
{
"type":"Feature",
"properties":{
"Name":"大友公園（南）",
"Jusho":"大分県津久見市",
"Capacity":"－",
"la":"33.07086936530",
"ln":"131.86629579500"
},
"geometry":{
"type":"Point",
"coordinates":[
131.866295795,
33.0708693653
]
}
},
{
"type":"Feature",
"properties":{
"Name":"徳浦公園",
"Jusho":"大分県津久見市徳浦宮町460-8",
"Capacity":"－",
"la":"33.09071072000",
"ln":"131.85465898000"
},
"geometry":{
"type":"Point",
"coordinates":[
131.85465898,
33.09071072
]
}
},
{
"type":"Feature",
"properties":{
"Name":"入船西町公園",
"Jusho":"大分県津久見市入船西町10-7",
"Capacity":"－",
"la":"33.07904545990",
"ln":"131.85286437700"
},
"geometry":{
"type":"Point",
"coordinates":[
131.852864377,
33.0790454599
]
}
},
{
"type":"Feature",
"properties":{
"Name":"門前公園",
"Jusho":"大分県津久見市門前町5",
"Capacity":"－",
"la":"33.07625155580",
"ln":"131.85016224200"
},
"geometry":{
"type":"Point",
"coordinates":[
131.850162242,
33.0762515558
]
}
},
{
"type":"Feature",
"properties":{
"Name":"城山公園",
"Jusho":"大分県杵築市大字杵築",
"Capacity":"1000",
"la":"33.41566521000",
"ln":"131.62649174000"
},
"geometry":{
"type":"Point",
"coordinates":[
131.62649174,
33.41566521
]
}
},
{
"type":"Feature",
"properties":{
"Name":"天満公園",
"Jusho":"大分県杵築市大字南杵築184-1",
"Capacity":"300",
"la":"33.41666399910",
"ln":"131.61504700000"
},
"geometry":{
"type":"Point",
"coordinates":[
131.615047,
33.4166639991
]
}
},
{
"type":"Feature",
"properties":{
"Name":"庄内総合運動公園",
"Jusho":"大分県由布市庄内町大龍1400",
"Capacity":"－",
"la":"33.17860943000",
"ln":"131.43109622000"
},
"geometry":{
"type":"Point",
"coordinates":[
131.43109622,
33.17860943
]
}
},
{
"type":"Feature",
"properties":{
"Name":"湯布院中央児童公園",
"Jusho":"大分県由布市湯布院町川上2999-1",
"Capacity":"－",
"la":"33.26595875000",
"ln":"131.36140744000"
},
"geometry":{
"type":"Point",
"coordinates":[
131.36140744,
33.26595875
]
}
},
{
"type":"Feature",
"properties":{
"Name":"西村記念公園",
"Jusho":"大分県東国東郡姫島村699番地の1",
"Capacity":"－",
"la":"33.72328066190",
"ln":"131.64201927200"
},
"geometry":{
"type":"Point",
"coordinates":[
131.642019272,
33.7232806619
]
}
},
{
"type":"Feature",
"properties":{
"Name":"灯台公園",
"Jusho":"大分県東国東郡姫島村4966番地の2",
"Capacity":"－",
"la":"33.73059551410",
"ln":"131.70041567700"
},
"geometry":{
"type":"Point",
"coordinates":[
131.700415677,
33.7305955141
]
}
},
{
"type":"Feature",
"properties":{
"Name":"南浜公園",
"Jusho":"大分県東国東郡姫島村1827番地の6",
"Capacity":"－",
"la":"33.72112034210",
"ln":"131.64461312400"
},
"geometry":{
"type":"Point",
"coordinates":[
131.644613124,
33.7211203421
]
}
},
{
"type":"Feature",
"properties":{
"Name":"姫島運動公園",
"Jusho":"大分県東国東郡姫島村2301番地",
"Capacity":"－",
"la":"33.72193550890",
"ln":"131.65437375800"
},
"geometry":{
"type":"Point",
"coordinates":[
131.654373758,
33.7219355089
]
}
},
{
"type":"Feature",
"properties":{
"Name":"姫島中央公園",
"Jusho":"大分県東国東郡姫島村2023番地の1",
"Capacity":"－",
"la":"33.72433686890",
"ln":"131.64791653000"
},
"geometry":{
"type":"Point",
"coordinates":[
131.64791653,
33.7243368689
]
}
},
{
"type":"Feature",
"properties":{
"Name":"北浦公園",
"Jusho":"大分県東国東郡姫島村1401番地",
"Capacity":"－",
"la":"33.72671108760",
"ln":"131.64792890500"
},
"geometry":{
"type":"Point",
"coordinates":[
131.647928905,
33.7267110876
]
}
},
{
"type":"Feature",
"properties":{
"Name":"用作公園",
"Jusho":"大分県東国東郡姫島村2337番地の83",
"Capacity":"－",
"la":"33.72593525620",
"ln":"131.65323014800"
},
"geometry":{
"type":"Point",
"coordinates":[
131.653230148,
33.7259352562
]
}
},
{
"type":"Feature",
"properties":{
"Name":"川崎運動公園",
"Jusho":"大分県速見郡日出町",
"Capacity":"－",
"la":"33.36330100420",
"ln":"131.55939949500"
},
"geometry":{
"type":"Point",
"coordinates":[
131.559399495,
33.3633010042
]
}
},
{
"type":"Feature",
"properties":{
"Name":"中央公民館　大田公園（暘谷公園）",
"Jusho":"大分県速見郡日出町",
"Capacity":"－",
"la":"33.37310600090",
"ln":"131.53241600000"
},
"geometry":{
"type":"Point",
"coordinates":[
131.532416,
33.3731060009
]
}
}
]
};