var st={
"type":"FeatureCollection",
"features":[
{
"type":"Feature",
"properties":{
"Name":"沖代小学校",
"Jusho":"大分県中津市中央町2丁目3-33",
"Capacity":"1014",
"la":"33.58591700000",
"ln":"131.19413200000"
},
"geometry":{
"type":"Point",
"coordinates":[
131.194132,
33.585917
]
}
},
{
"type":"Feature",
"properties":{
"Name":"下郷小学校",
"Jusho":"大分県中津市耶馬溪町大字大島190-2",
"Capacity":"368",
"la":"33.42923299910",
"ln":"131.09912900000"
},
"geometry":{
"type":"Point",
"coordinates":[
131.099129,
33.4292329991
]
}
},
{
"type":"Feature",
"properties":{
"Name":"今津小学校",
"Jusho":"大分県中津市植野1372-2",
"Capacity":"531",
"la":"33.56949900000",
"ln":"131.26503000000"
},
"geometry":{
"type":"Point",
"coordinates":[
131.26503,
33.569499
]
}
},
{
"type":"Feature",
"properties":{
"Name":"三郷小学校",
"Jusho":"大分県中津市山国町宇曽727",
"Capacity":"1506",
"la":"33.40271500000",
"ln":"131.05396900000"
},
"geometry":{
"type":"Point",
"coordinates":[
131.053969,
33.402715
]
}
},
{
"type":"Feature",
"properties":{
"Name":"三保小学校",
"Jusho":"大分県中津市伊藤田3321",
"Capacity":"495",
"la":"33.56403000000",
"ln":"131.23788400000"
},
"geometry":{
"type":"Point",
"coordinates":[
131.237884,
33.56403
]
}
},
{
"type":"Feature",
"properties":{
"Name":"山移小学校",
"Jusho":"大分県中津市耶馬溪町大字山移3315-3",
"Capacity":"532",
"la":"33.41421800000",
"ln":"131.15732800000"
},
"geometry":{
"type":"Point",
"coordinates":[
131.157328,
33.414218
]
}
},
{
"type":"Feature",
"properties":{
"Name":"小楠小学校",
"Jusho":"大分県中津市一ツ松62-1",
"Capacity":"601",
"la":"33.59393000000",
"ln":"131.20829700000"
},
"geometry":{
"type":"Point",
"coordinates":[
131.208297,
33.59393
]
}
},
{
"type":"Feature",
"properties":{
"Name":"上津小学校",
"Jusho":"大分県中津市本耶馬渓町折元662",
"Capacity":"1091",
"la":"33.46399600000",
"ln":"131.17944500000"
},
"geometry":{
"type":"Point",
"coordinates":[
131.179445,
33.463996
]
}
},
{
"type":"Feature",
"properties":{
"Name":"城井小学校",
"Jusho":"大分県中津市耶馬溪町大字平田1399",
"Capacity":"950",
"la":"33.46824800000",
"ln":"131.14028700000"
},
"geometry":{
"type":"Point",
"coordinates":[
131.140287,
33.468248
]
}
},
{
"type":"Feature",
"properties":{
"Name":"深水小学校",
"Jusho":"大分県中津市三光上深水75",
"Capacity":"800",
"la":"33.50414100000",
"ln":"131.26190700000"
},
"geometry":{
"type":"Point",
"coordinates":[
131.261907,
33.504141
]
}
},
{
"type":"Feature",
"properties":{
"Name":"真坂小学校",
"Jusho":"大分県中津市三光臼木432",
"Capacity":"1081",
"la":"33.53712100000",
"ln":"131.18276300000"
},
"geometry":{
"type":"Point",
"coordinates":[
131.182763,
33.537121
]
}
},
{
"type":"Feature",
"properties":{
"Name":"大幡小学校",
"Jusho":"大分県中津市大貞209-2-1",
"Capacity":"682",
"la":"33.56771800000",
"ln":"131.21474200000"
},
"geometry":{
"type":"Point",
"coordinates":[
131.214742,
33.567718
]
}
},
{
"type":"Feature",
"properties":{
"Name":"津民小学校",
"Jusho":"大分県中津市耶馬溪町大字大野1072-2",
"Capacity":"152",
"la":"33.47822800000",
"ln":"131.08311500000"
},
"geometry":{
"type":"Point",
"coordinates":[
131.083115,
33.478228
]
}
},
{
"type":"Feature",
"properties":{
"Name":"鶴居小学校",
"Jusho":"大分県中津市湯屋202-2",
"Capacity":"702",
"la":"33.57479100000",
"ln":"131.19101300000"
},
"geometry":{
"type":"Point",
"coordinates":[
131.191013,
33.574791
]
}
},
{
"type":"Feature",
"properties":{
"Name":"南部小学校",
"Jusho":"大分県中津市1309（三ノ丁）",
"Capacity":"733",
"la":"33.60447000000",
"ln":"131.18585500000"
},
"geometry":{
"type":"Point",
"coordinates":[
131.185855,
33.60447
]
}
},
{
"type":"Feature",
"properties":{
"Name":"如水小学校",
"Jusho":"大分県中津市上如水112",
"Capacity":"344",
"la":"33.58347200000",
"ln":"131.22616700000"
},
"geometry":{
"type":"Point",
"coordinates":[
131.226167,
33.583472
]
}
},
{
"type":"Feature",
"properties":{
"Name":"樋田小学校",
"Jusho":"大分県中津市本耶馬渓町樋田94",
"Capacity":"1110",
"la":"33.50479000000",
"ln":"131.17251100000"
},
"geometry":{
"type":"Point",
"coordinates":[
131.172511,
33.50479
]
}
},
{
"type":"Feature",
"properties":{
"Name":"豊田小学校",
"Jusho":"大分県中津市島田594-1",
"Capacity":"393",
"la":"33.59753200000",
"ln":"131.18530100000"
},
"geometry":{
"type":"Point",
"coordinates":[
131.185301,
33.597532
]
}
},
{
"type":"Feature",
"properties":{
"Name":"北部小学校",
"Jusho":"大分県中津市666（山ノ下）",
"Capacity":"531",
"la":"33.60582100000",
"ln":"131.19443000000"
},
"geometry":{
"type":"Point",
"coordinates":[
131.19443,
33.605821
]
}
},
{
"type":"Feature",
"properties":{
"Name":"和田小学校",
"Jusho":"大分県中津市定留1950",
"Capacity":"554",
"la":"33.58802900000",
"ln":"131.24621000000"
},
"geometry":{
"type":"Point",
"coordinates":[
131.24621,
33.588029
]
}
},
{
"type":"Feature",
"properties":{
"Name":"秣小学校",
"Jusho":"大分県中津市三光西秣1204",
"Capacity":"786",
"la":"33.53169900000",
"ln":"131.24037500000"
},
"geometry":{
"type":"Point",
"coordinates":[
131.240375,
33.531699
]
}
},
{
"type":"Feature",
"properties":{
"Name":"（旧）一尺屋小学校体育館",
"Jusho":"大分県大分市大字一尺屋2368番地の1",
"Capacity":"718",
"la":"33.20106000000",
"ln":"131.85785700000"
},
"geometry":{
"type":"Point",
"coordinates":[
131.857857,
33.20106
]
}
},
{
"type":"Feature",
"properties":{
"Name":"こうざき小学校",
"Jusho":"大分県大分市大字本神崎945番地の2",
"Capacity":"640",
"la":"33.23828890420",
"ln":"131.79936942000"
},
"geometry":{
"type":"Point",
"coordinates":[
131.79936942,
33.2382889042
]
}
},
{
"type":"Feature",
"properties":{
"Name":"鴛野小学校体育館",
"Jusho":"大分県大分市大字鴛野108番地の1",
"Capacity":"886",
"la":"33.18385500000",
"ln":"131.61913300000"
},
"geometry":{
"type":"Point",
"coordinates":[
131.619133,
33.183855
]
}
},
{
"type":"Feature",
"properties":{
"Name":"横瀬小学校体育館",
"Jusho":"大分県大分市大字横瀬1109番地の1",
"Capacity":"886",
"la":"33.18562900000",
"ln":"131.54094500000"
},
"geometry":{
"type":"Point",
"coordinates":[
131.540945,
33.185629
]
}
},
{
"type":"Feature",
"properties":{
"Name":"横瀬西小学校体育館",
"Jusho":"大分県大分市大字横瀬2469番地",
"Capacity":"886",
"la":"33.19057300000",
"ln":"131.53147300000"
},
"geometry":{
"type":"Point",
"coordinates":[
131.531473,
33.190573
]
}
},
{
"type":"Feature",
"properties":{
"Name":"下郡小学校体育館",
"Jusho":"大分県大分市下郡北3丁目17番23号",
"Capacity":"1215",
"la":"33.22871200000",
"ln":"131.63429800000"
},
"geometry":{
"type":"Point",
"coordinates":[
131.634298,
33.228712
]
}
},
{
"type":"Feature",
"properties":{
"Name":"荷揚町小学校体育館",
"Jusho":"大分県大分市荷揚町3番49号",
"Capacity":"1075",
"la":"33.24068300000",
"ln":"131.60830000000"
},
"geometry":{
"type":"Point",
"coordinates":[
131.6083,
33.240683
]
}
},
{
"type":"Feature",
"properties":{
"Name":"寒田小学校体育館",
"Jusho":"大分県大分市大字寒田684番地の4",
"Capacity":"886",
"la":"33.18343800000",
"ln":"131.60432900000"
},
"geometry":{
"type":"Point",
"coordinates":[
131.604329,
33.183438
]
}
},
{
"type":"Feature",
"properties":{
"Name":"吉野小学校体育館",
"Jusho":"大分県大分市大字辻654番地",
"Capacity":"886",
"la":"33.11425300000",
"ln":"131.69387800000"
},
"geometry":{
"type":"Point",
"coordinates":[
131.693878,
33.114253
]
}
},
{
"type":"Feature",
"properties":{
"Name":"金池小学校体育館",
"Jusho":"大分県大分市金池町3丁目1番90号",
"Capacity":"886",
"la":"33.23423900000",
"ln":"131.61291000000"
},
"geometry":{
"type":"Point",
"coordinates":[
131.61291,
33.234239
]
}
},
{
"type":"Feature",
"properties":{
"Name":"高田小学校体育館",
"Jusho":"大分県大分市大字下徳丸38番地の2",
"Capacity":"886",
"la":"33.21093800000",
"ln":"131.68968200000"
},
"geometry":{
"type":"Point",
"coordinates":[
131.689682,
33.210938
]
}
},
{
"type":"Feature",
"properties":{
"Name":"佐賀関小学校体育館",
"Jusho":"大分県大分市大字佐賀関1104番地",
"Capacity":"894",
"la":"33.24623800000",
"ln":"131.87465400000"
},
"geometry":{
"type":"Point",
"coordinates":[
131.874654,
33.246238
]
}
},
{
"type":"Feature",
"properties":{
"Name":"坂ノ市小学校体育館",
"Jusho":"大分県大分市坂ノ市中央5丁目8番1号",
"Capacity":"700",
"la":"33.23334600000",
"ln":"131.75664700000"
},
"geometry":{
"type":"Point",
"coordinates":[
131.756647,
33.233346
]
}
},
{
"type":"Feature",
"properties":{
"Name":"三佐小学校体育館",
"Jusho":"大分県大分市三佐5丁目6番8号",
"Capacity":"919",
"la":"33.25226600000",
"ln":"131.68096900000"
},
"geometry":{
"type":"Point",
"coordinates":[
131.680969,
33.252266
]
}
},
{
"type":"Feature",
"properties":{
"Name":"宗方小学校体育館",
"Jusho":"大分県大分市大字上宗方1610番地の36",
"Capacity":"886",
"la":"33.20499000000",
"ln":"131.57705300000"
},
"geometry":{
"type":"Point",
"coordinates":[
131.577053,
33.20499
]
}
},
{
"type":"Feature",
"properties":{
"Name":"住吉小学校体育館",
"Jusho":"大分県大分市泉町8番41号",
"Capacity":"886",
"la":"33.24915400000",
"ln":"131.61354900000"
},
"geometry":{
"type":"Point",
"coordinates":[
131.613549,
33.249154
]
}
},
{
"type":"Feature",
"properties":{
"Name":"春日町小学校体育館",
"Jusho":"大分県大分市西春日町1番48号",
"Capacity":"881",
"la":"33.24057100000",
"ln":"131.59730100000"
},
"geometry":{
"type":"Point",
"coordinates":[
131.597301,
33.240571
]
}
},
{
"type":"Feature",
"properties":{
"Name":"松岡小学校体育館",
"Jusho":"大分県大分市大字松岡5047番地",
"Capacity":"886",
"la":"33.18180200000",
"ln":"131.66760200000"
},
"geometry":{
"type":"Point",
"coordinates":[
131.667602,
33.181802
]
}
},
{
"type":"Feature",
"properties":{
"Name":"上戸次小学校体育館",
"Jusho":"大分県大分市大字端登1792番地",
"Capacity":"484",
"la":"33.11241900000",
"ln":"131.65282600000"
},
"geometry":{
"type":"Point",
"coordinates":[
131.652826,
33.112419
]
}
},
{
"type":"Feature",
"properties":{
"Name":"城南小学校体育館",
"Jusho":"大分県大分市大字永興492番地の1",
"Capacity":"1003",
"la":"33.21596200000",
"ln":"131.58613600000"
},
"geometry":{
"type":"Point",
"coordinates":[
131.586136,
33.215962
]
}
},
{
"type":"Feature",
"properties":{
"Name":"森岡小学校体育館",
"Jusho":"大分県大分市大字曲1041番地の2",
"Capacity":"700",
"la":"33.20546400000",
"ln":"131.61393900000"
},
"geometry":{
"type":"Point",
"coordinates":[
131.613939,
33.205464
]
}
},
{
"type":"Feature",
"properties":{
"Name":"神崎小学校体育館",
"Jusho":"大分県大分市大字神崎1798番地",
"Capacity":"886",
"la":"33.25437300000",
"ln":"131.54488900000"
},
"geometry":{
"type":"Point",
"coordinates":[
131.544889,
33.254373
]
}
},
{
"type":"Feature",
"properties":{
"Name":"西の台小学校体育館",
"Jusho":"大分県大分市にじが丘3丁目1717番地の1",
"Capacity":"1049",
"la":"33.22804400000",
"ln":"131.58427500000"
},
"geometry":{
"type":"Point",
"coordinates":[
131.584275,
33.228044
]
}
},
{
"type":"Feature",
"properties":{
"Name":"川添小学校体育館",
"Jusho":"大分県大分市大字宮河内4566番地",
"Capacity":"886",
"la":"33.20155100000",
"ln":"131.69779200000"
},
"geometry":{
"type":"Point",
"coordinates":[
131.697792,
33.201551
]
}
},
{
"type":"Feature",
"properties":{
"Name":"大在小学校体育館",
"Jusho":"大分県大分市横田1丁目15番58号",
"Capacity":"886",
"la":"33.24804600000",
"ln":"131.71906800000"
},
"geometry":{
"type":"Point",
"coordinates":[
131.719068,
33.248046
]
}
},
{
"type":"Feature",
"properties":{
"Name":"大在西小学校体育館",
"Jusho":"大分県大分市角子原1丁目4番41号",
"Capacity":"1215",
"la":"33.24736200000",
"ln":"131.70875000000"
},
"geometry":{
"type":"Point",
"coordinates":[
131.70875,
33.247362
]
}
},
{
"type":"Feature",
"properties":{
"Name":"大道小学校体育館",
"Jusho":"大分県大分市大道町2丁目9番57号",
"Capacity":"886",
"la":"33.23312800000",
"ln":"131.60041200000"
},
"geometry":{
"type":"Point",
"coordinates":[
131.600412,
33.233128
]
}
},
{
"type":"Feature",
"properties":{
"Name":"滝尾小学校体育館",
"Jusho":"大分県大分市大字羽田515番地の1",
"Capacity":"886",
"la":"33.21390800000",
"ln":"131.63352000000"
},
"geometry":{
"type":"Point",
"coordinates":[
131.63352,
33.213908
]
}
},
{
"type":"Feature",
"properties":{
"Name":"丹生小学校体育館",
"Jusho":"大分県大分市大字佐野2660番地の2",
"Capacity":"894",
"la":"33.21451000000",
"ln":"131.72295900000"
},
"geometry":{
"type":"Point",
"coordinates":[
131.722959,
33.21451
]
}
},
{
"type":"Feature",
"properties":{
"Name":"竹中小学校体育館",
"Jusho":"大分県大分市大字竹中2821番地の1",
"Capacity":"600",
"la":"33.13916600000",
"ln":"131.65313100000"
},
"geometry":{
"type":"Point",
"coordinates":[
131.653131,
33.139166
]
}
},
{
"type":"Feature",
"properties":{
"Name":"中島小学校体育館",
"Jusho":"大分県大分市中島西2丁目1番52号",
"Capacity":"886",
"la":"33.24393200000",
"ln":"131.60846600000"
},
"geometry":{
"type":"Point",
"coordinates":[
131.608466,
33.243932
]
}
},
{
"type":"Feature",
"properties":{
"Name":"長浜小学校体育館",
"Jusho":"大分県大分市長浜町2丁目6番25号",
"Capacity":"886",
"la":"33.23662800000",
"ln":"131.61779900000"
},
"geometry":{
"type":"Point",
"coordinates":[
131.617799,
33.236628
]
}
},
{
"type":"Feature",
"properties":{
"Name":"津留小学校体育館",
"Jusho":"大分県大分市東津留1丁目4番1号",
"Capacity":"946",
"la":"33.24029400000",
"ln":"131.63043700000"
},
"geometry":{
"type":"Point",
"coordinates":[
131.630437,
33.240294
]
}
},
{
"type":"Feature",
"properties":{
"Name":"鶴崎小学校体育館",
"Jusho":"大分県大分市南鶴崎3丁目3番1号",
"Capacity":"919",
"la":"33.23918600000",
"ln":"131.69209800000"
},
"geometry":{
"type":"Point",
"coordinates":[
131.692098,
33.239186
]
}
},
{
"type":"Feature",
"properties":{
"Name":"田尻小学校体育館",
"Jusho":"大分県大分市大字田尻1250番地",
"Capacity":"886",
"la":"33.17763200000",
"ln":"131.58999600000"
},
"geometry":{
"type":"Point",
"coordinates":[
131.589996,
33.177632
]
}
},
{
"type":"Feature",
"properties":{
"Name":"東大分小学校体育館",
"Jusho":"大分県大分市萩原1丁目10番30号",
"Capacity":"886",
"la":"33.24393300000",
"ln":"131.63940800000"
},
"geometry":{
"type":"Point",
"coordinates":[
131.639408,
33.243933
]
}
},
{
"type":"Feature",
"properties":{
"Name":"東稙田小学校体育館",
"Jusho":"大分県大分市大字田尻499番地の1",
"Capacity":"946",
"la":"33.18696500000",
"ln":"131.59685700000"
},
"geometry":{
"type":"Point",
"coordinates":[
131.596857,
33.186965
]
}
},
{
"type":"Feature",
"properties":{
"Name":"桃園小学校体育館",
"Jusho":"大分県大分市山津町2丁目7番1号",
"Capacity":"886",
"la":"33.24149000000",
"ln":"131.66851600000"
},
"geometry":{
"type":"Point",
"coordinates":[
131.668516,
33.24149
]
}
},
{
"type":"Feature",
"properties":{
"Name":"南大分小学校体育館",
"Jusho":"大分県大分市奥田772-1",
"Capacity":"728",
"la":"33.21457300000",
"ln":"131.59366300000"
},
"geometry":{
"type":"Point",
"coordinates":[
131.593663,
33.214573
]
}
},
{
"type":"Feature",
"properties":{
"Name":"日岡小学校体育館",
"Jusho":"大分県大分市日岡2丁目2番1号",
"Capacity":"1215",
"la":"33.24954400000",
"ln":"131.65840600000"
},
"geometry":{
"type":"Point",
"coordinates":[
131.658406,
33.249544
]
}
},
{
"type":"Feature",
"properties":{
"Name":"八幡小学校体育館",
"Jusho":"大分県大分市大字生石82番地の1",
"Capacity":"886",
"la":"33.24248700000",
"ln":"131.57527500000"
},
"geometry":{
"type":"Point",
"coordinates":[
131.575275,
33.242487
]
}
},
{
"type":"Feature",
"properties":{
"Name":"判田小学校体育館",
"Jusho":"大分県大分市大字中判田1818番地",
"Capacity":"886",
"la":"33.16446800000",
"ln":"131.63638200000"
},
"geometry":{
"type":"Point",
"coordinates":[
131.636382,
33.164468
]
}
},
{
"type":"Feature",
"properties":{
"Name":"敷戸小学校体育館",
"Jusho":"大分県大分市敷戸北町12番1号",
"Capacity":"1049",
"la":"33.19038200000",
"ln":"131.62230000000"
},
"geometry":{
"type":"Point",
"coordinates":[
131.6223,
33.190382
]
}
},
{
"type":"Feature",
"properties":{
"Name":"舞鶴小学校体育館",
"Jusho":"大分県大分市西浜2番1号",
"Capacity":"886",
"la":"33.24682100000",
"ln":"131.62579800000"
},
"geometry":{
"type":"Point",
"coordinates":[
131.625798,
33.246821
]
}
},
{
"type":"Feature",
"properties":{
"Name":"別保小学校体育館",
"Jusho":"大分県大分市大字森町963番地の1",
"Capacity":"886",
"la":"33.22729800000",
"ln":"131.68415400000"
},
"geometry":{
"type":"Point",
"coordinates":[
131.684154,
33.227298
]
}
},
{
"type":"Feature",
"properties":{
"Name":"豊府小学校体育館",
"Jusho":"大分県大分市大字羽屋13番地の1",
"Capacity":"1049",
"la":"33.21610200000",
"ln":"131.60396700000"
},
"geometry":{
"type":"Point",
"coordinates":[
131.603967,
33.216102
]
}
},
{
"type":"Feature",
"properties":{
"Name":"明治小学校体育館",
"Jusho":"大分県大分市大字猪野74番地",
"Capacity":"1049",
"la":"33.21879800000",
"ln":"131.66529500000"
},
"geometry":{
"type":"Point",
"coordinates":[
131.665295,
33.218798
]
}
},
{
"type":"Feature",
"properties":{
"Name":"明治北小学校体育館体育館",
"Jusho":"大分県大分市大字小池原428番地の1",
"Capacity":"886",
"la":"33.23310200000",
"ln":"131.66757200000"
},
"geometry":{
"type":"Point",
"coordinates":[
131.667572,
33.233102
]
}
},
{
"type":"Feature",
"properties":{
"Name":"明野西小学校体育館",
"Jusho":"大分県大分市明野南2丁目6番1号",
"Capacity":"1215",
"la":"33.22171300000",
"ln":"131.64657500000"
},
"geometry":{
"type":"Point",
"coordinates":[
131.646575,
33.221713
]
}
},
{
"type":"Feature",
"properties":{
"Name":"明野東小学校体育館",
"Jusho":"大分県大分市明野東3丁目2番1号",
"Capacity":"919",
"la":"33.21871400000",
"ln":"131.65710200000"
},
"geometry":{
"type":"Point",
"coordinates":[
131.657102,
33.218714
]
}
},
{
"type":"Feature",
"properties":{
"Name":"明野北小学校体育館",
"Jusho":"大分県大分市明野北4丁目10番1号",
"Capacity":"886",
"la":"33.23010100000",
"ln":"131.65593500000"
},
"geometry":{
"type":"Point",
"coordinates":[
131.655935,
33.230101
]
}
},
{
"type":"Feature",
"properties":{
"Name":"木佐上小学校体育館",
"Jusho":"大分県大分市大字木佐上817番地",
"Capacity":"624",
"la":"33.21780200000",
"ln":"131.79689500000"
},
"geometry":{
"type":"Point",
"coordinates":[
131.796895,
33.217802
]
}
},
{
"type":"Feature",
"properties":{
"Name":"野津原中部小学校体育館",
"Jusho":"大分県大分市大字竹矢2108番地の1",
"Capacity":"495",
"la":"33.14607700000",
"ln":"131.50989300000"
},
"geometry":{
"type":"Point",
"coordinates":[
131.509893,
33.146077
]
}
},
{
"type":"Feature",
"properties":{
"Name":"野津原東部小学校体育館",
"Jusho":"大分県大分市大字野津原1774番地の1",
"Capacity":"795",
"la":"33.16552000000",
"ln":"131.53055700000"
},
"geometry":{
"type":"Point",
"coordinates":[
131.530557,
33.16552
]
}
},
{
"type":"Feature",
"properties":{
"Name":"稙田小学校体育館",
"Jusho":"大分県大分市大字木ノ上433番地の1",
"Capacity":"886",
"la":"33.18363000000",
"ln":"131.56427600000"
},
"geometry":{
"type":"Point",
"coordinates":[
131.564276,
33.18363
]
}
},
{
"type":"Feature",
"properties":{
"Name":"亀川小学校体育館",
"Jusho":"大分県別府市大字内竈1179",
"Capacity":"347",
"la":"33.32983700000",
"ln":"131.49083800000"
},
"geometry":{
"type":"Point",
"coordinates":[
131.490838,
33.329837
]
}
},
{
"type":"Feature",
"properties":{
"Name":"境川小学校体育館",
"Jusho":"大分県別府市石垣西1丁目2番",
"Capacity":"311",
"la":"33.28975700000",
"ln":"131.49278300000"
},
"geometry":{
"type":"Point",
"coordinates":[
131.492783,
33.289757
]
}
},
{
"type":"Feature",
"properties":{
"Name":"春木川小学校体育館",
"Jusho":"大分県別府市大字北石垣1218-5",
"Capacity":"358",
"la":"33.30681200000",
"ln":"131.49675800000"
},
"geometry":{
"type":"Point",
"coordinates":[
131.496758,
33.306812
]
}
},
{
"type":"Feature",
"properties":{
"Name":"上人小学校体育館体育館",
"Jusho":"大分県別府市大字北石垣171",
"Capacity":"472",
"la":"33.31567200000",
"ln":"131.49286600000"
},
"geometry":{
"type":"Point",
"coordinates":[
131.492866,
33.315672
]
}
},
{
"type":"Feature",
"properties":{
"Name":"西小学校体育館",
"Jusho":"大分県別府市中島町7-49",
"Capacity":"358",
"la":"33.27392600000",
"ln":"131.49270000000"
},
"geometry":{
"type":"Point",
"coordinates":[
131.4927,
33.273926
]
}
},
{
"type":"Feature",
"properties":{
"Name":"青山小学校体育館",
"Jusho":"大分県別府市青山町5番68号",
"Capacity":"362",
"la":"33.27845300000",
"ln":"131.49350500000"
},
"geometry":{
"type":"Point",
"coordinates":[
131.493505,
33.278453
]
}
},
{
"type":"Feature",
"properties":{
"Name":"石垣小学校体育館",
"Jusho":"大分県別府市石垣西7丁目6番",
"Capacity":"360",
"la":"33.30017200000",
"ln":"131.49295000000"
},
"geometry":{
"type":"Point",
"coordinates":[
131.49295,
33.300172
]
}
},
{
"type":"Feature",
"properties":{
"Name":"大平山小学校体育館",
"Jusho":"大分県別府市大字鶴見1991",
"Capacity":"358",
"la":"33.30139600000",
"ln":"131.46692400000"
},
"geometry":{
"type":"Point",
"coordinates":[
131.466924,
33.301396
]
}
},
{
"type":"Feature",
"properties":{
"Name":"朝日小学校体育館",
"Jusho":"大分県別府市大字鶴見347",
"Capacity":"381",
"la":"33.30906200000",
"ln":"131.47545100000"
},
"geometry":{
"type":"Point",
"coordinates":[
131.475451,
33.309062
]
}
},
{
"type":"Feature",
"properties":{
"Name":"鶴見小学校体育館",
"Jusho":"大分県別府市大字鶴見4034",
"Capacity":"370",
"la":"33.29589600000",
"ln":"131.46972900000"
},
"geometry":{
"type":"Point",
"coordinates":[
131.469729,
33.295896
]
}
},
{
"type":"Feature",
"properties":{
"Name":"天間小学校体育館（休校中）",
"Jusho":"大分県別府市天間311",
"Capacity":"119",
"la":"33.33697400000",
"ln":"131.40703900000"
},
"geometry":{
"type":"Point",
"coordinates":[
131.407039,
33.336974
]
}
},
{
"type":"Feature",
"properties":{
"Name":"南小学校体育館",
"Jusho":"大分県別府市浜脇3丁目7番13号",
"Capacity":"532",
"la":"33.27061700000",
"ln":"131.50276300000"
},
"geometry":{
"type":"Point",
"coordinates":[
131.502763,
33.270617
]
}
},
{
"type":"Feature",
"properties":{
"Name":"南立石小学校体育館",
"Jusho":"大分県別府市大字南立石1907-1",
"Capacity":"358",
"la":"33.28911900000",
"ln":"131.47345100000"
},
"geometry":{
"type":"Point",
"coordinates":[
131.473451,
33.289119
]
}
},
{
"type":"Feature",
"properties":{
"Name":"別府中央小学校体育館",
"Jusho":"大分県別府市京町818番地26",
"Capacity":"654",
"la":"33.28806186810",
"ln":"131.50483888400"
},
"geometry":{
"type":"Point",
"coordinates":[
131.504838884,
33.2880618681
]
}
},
{
"type":"Feature",
"properties":{
"Name":"緑丘小学校体育館",
"Jusho":"大分県別府市大字鶴見3789-1",
"Capacity":"358",
"la":"33.29728500000",
"ln":"131.48689400000"
},
"geometry":{
"type":"Point",
"coordinates":[
131.486894,
33.297285
]
}
},
{
"type":"Feature",
"properties":{
"Name":"いつま小学校",
"Jusho":"大分県日田市天瀬町五馬市2040",
"Capacity":"4023",
"la":"33.23294000000",
"ln":"131.01984500000"
},
"geometry":{
"type":"Point",
"coordinates":[
131.019845,
33.23294
]
}
},
{
"type":"Feature",
"properties":{
"Name":"羽田多目的交流館（旧羽田小学校）",
"Jusho":"大分県日田市日の本町2463-1",
"Capacity":"2223",
"la":"33.33449299910",
"ln":"131.02741000000"
},
"geometry":{
"type":"Point",
"coordinates":[
131.02741,
33.3344929991
]
}
},
{
"type":"Feature",
"properties":{
"Name":"鎌手小学校",
"Jusho":"大分県日田市大山町西大山5926-3",
"Capacity":"4197",
"la":"33.23215800000",
"ln":"130.97917500000"
},
"geometry":{
"type":"Point",
"coordinates":[
130.979175,
33.232158
]
}
},
{
"type":"Feature",
"properties":{
"Name":"旧花月小学校",
"Jusho":"大分県日田市市ノ瀬町1427-3",
"Capacity":"2858",
"la":"33.36617300000",
"ln":"130.97233600000"
},
"geometry":{
"type":"Point",
"coordinates":[
130.972336,
33.366173
]
}
},
{
"type":"Feature",
"properties":{
"Name":"旧丸山小学校",
"Jusho":"大分県日田市天瀬町合田747-1",
"Capacity":"3091",
"la":"33.27377800000",
"ln":"131.00065600000"
},
"geometry":{
"type":"Point",
"coordinates":[
131.000656,
33.273778
]
}
},
{
"type":"Feature",
"properties":{
"Name":"旧桜竹小学校",
"Jusho":"大分県日田市天瀬町桜竹242",
"Capacity":"2770",
"la":"33.25025700000",
"ln":"131.03507800000"
},
"geometry":{
"type":"Point",
"coordinates":[
131.035078,
33.250257
]
}
},
{
"type":"Feature",
"properties":{
"Name":"旧出口小学校",
"Jusho":"大分県日田市天瀬町出口1842",
"Capacity":"3610",
"la":"33.20438400000",
"ln":"131.01447500000"
},
"geometry":{
"type":"Point",
"coordinates":[
131.014475,
33.204384
]
}
},
{
"type":"Feature",
"properties":{
"Name":"旧出野小学校",
"Jusho":"大分県日田市前津江町柚木2224",
"Capacity":"2006",
"la":"33.22013500000",
"ln":"130.88401600000"
},
"geometry":{
"type":"Point",
"coordinates":[
130.884016,
33.220135
]
}
},
{
"type":"Feature",
"properties":{
"Name":"旧松原小学校",
"Jusho":"大分県日田市大山町西大山8344-2",
"Capacity":"1075",
"la":"33.19832596800",
"ln":"130.99187938300"
},
"geometry":{
"type":"Point",
"coordinates":[
130.991879383,
33.198325968
]
}
},
{
"type":"Feature",
"properties":{
"Name":"旧赤石小学校",
"Jusho":"大分県日田市前津江町赤石108",
"Capacity":"2444",
"la":"33.21028500000",
"ln":"130.94021300000"
},
"geometry":{
"type":"Point",
"coordinates":[
130.940213,
33.210285
]
}
},
{
"type":"Feature",
"properties":{
"Name":"旧赤石小学校曽家分校",
"Jusho":"大分県日田市前津江町赤石3121-2",
"Capacity":"410",
"la":"33.19283900000",
"ln":"130.96823900000"
},
"geometry":{
"type":"Point",
"coordinates":[
130.968239,
33.192839
]
}
},
{
"type":"Feature",
"properties":{
"Name":"旧台小学校",
"Jusho":"大分県日田市天瀬町女子畑1298-1",
"Capacity":"3208",
"la":"33.28237000000",
"ln":"130.97717200000"
},
"geometry":{
"type":"Point",
"coordinates":[
130.977172,
33.28237
]
}
},
{
"type":"Feature",
"properties":{
"Name":"旧大野小学校グラウンド",
"Jusho":"大分県日田市前津江町大野2230-2",
"Capacity":"1600",
"la":"33.21215895400",
"ln":"130.91670857200"
},
"geometry":{
"type":"Point",
"coordinates":[
130.916708572,
33.212158954
]
}
},
{
"type":"Feature",
"properties":{
"Name":"旧中津江小学校",
"Jusho":"大分県日田市中津江村栃野2357-1",
"Capacity":"2677",
"la":"33.12926000000",
"ln":"130.95159000000"
},
"geometry":{
"type":"Point",
"coordinates":[
130.95159,
33.12926
]
}
},
{
"type":"Feature",
"properties":{
"Name":"旧塚田小学校",
"Jusho":"大分県日田市天瀬町塚田816",
"Capacity":"2559",
"la":"33.21883600000",
"ln":"131.03420000000"
},
"geometry":{
"type":"Point",
"coordinates":[
131.0342,
33.218836
]
}
},
{
"type":"Feature",
"properties":{
"Name":"旧北小野小学校グラウンド",
"Jusho":"大分県日田市殿町3850-3",
"Capacity":"1979",
"la":"33.40478845180",
"ln":"130.93712104300"
},
"geometry":{
"type":"Point",
"coordinates":[
130.937121043,
33.4047884518
]
}
},
{
"type":"Feature",
"properties":{
"Name":"旧柚木小学校",
"Jusho":"大分県日田市前津江町柚木451",
"Capacity":"845",
"la":"33.25545900000",
"ln":"130.84905900000"
},
"geometry":{
"type":"Point",
"coordinates":[
130.849059,
33.255459
]
}
},
{
"type":"Feature",
"properties":{
"Name":"桂林小学校",
"Jusho":"大分県日田市上城内町2-35",
"Capacity":"6909",
"la":"33.32707900000",
"ln":"130.94288200000"
},
"geometry":{
"type":"Point",
"coordinates":[
130.942882,
33.327079
]
}
},
{
"type":"Feature",
"properties":{
"Name":"光岡小学校",
"Jusho":"大分県日田市北友田一丁目1133-2",
"Capacity":"7688",
"la":"33.32819900000",
"ln":"130.92273100000"
},
"geometry":{
"type":"Point",
"coordinates":[
130.922731,
33.328199
]
}
},
{
"type":"Feature",
"properties":{
"Name":"高瀬小学校",
"Jusho":"大分県日田市誠和町781-2",
"Capacity":"4427",
"la":"33.30146500000",
"ln":"130.93674500000"
},
"geometry":{
"type":"Point",
"coordinates":[
130.936745,
33.301465
]
}
},
{
"type":"Feature",
"properties":{
"Name":"三芳小学校",
"Jusho":"大分県日田市下井手町940",
"Capacity":"5267",
"la":"33.30788900000",
"ln":"130.94665600000"
},
"geometry":{
"type":"Point",
"coordinates":[
130.946656,
33.307889
]
}
},
{
"type":"Feature",
"properties":{
"Name":"三和小学校",
"Jusho":"大分県日田市清水町1187",
"Capacity":"4079",
"la":"33.35067900000",
"ln":"130.94318800000"
},
"geometry":{
"type":"Point",
"coordinates":[
130.943188,
33.350679
]
}
},
{
"type":"Feature",
"properties":{
"Name":"若宮小学校",
"Jusho":"大分県日田市若宮町2-15",
"Capacity":"5056",
"la":"33.31060900000",
"ln":"130.93910500000"
},
"geometry":{
"type":"Point",
"coordinates":[
130.939105,
33.310609
]
}
},
{
"type":"Feature",
"properties":{
"Name":"小野小学校",
"Jusho":"大分県日田市鈴連町1658-1",
"Capacity":"5268",
"la":"33.39407600000",
"ln":"130.94123500000"
},
"geometry":{
"type":"Point",
"coordinates":[
130.941235,
33.394076
]
}
},
{
"type":"Feature",
"properties":{
"Name":"石井小学校",
"Jusho":"大分県日田市石井町二丁目478",
"Capacity":"3874",
"la":"33.31079500000",
"ln":"130.90837700000"
},
"geometry":{
"type":"Point",
"coordinates":[
130.908377,
33.310795
]
}
},
{
"type":"Feature",
"properties":{
"Name":"前津江小学校",
"Jusho":"大分県日田市前津江町大野2562",
"Capacity":"3546",
"la":"33.21058799990",
"ln":"130.92089172700"
},
"geometry":{
"type":"Point",
"coordinates":[
130.920891727,
33.2105879999
]
}
},
{
"type":"Feature",
"properties":{
"Name":"大明小学校",
"Jusho":"大分県日田市夜明中町1547",
"Capacity":"3646",
"la":"33.32520200000",
"ln":"130.87097800000"
},
"geometry":{
"type":"Point",
"coordinates":[
130.870978,
33.325202
]
}
},
{
"type":"Feature",
"properties":{
"Name":"朝日小学校",
"Jusho":"大分県日田市朝日町936-1",
"Capacity":"4695",
"la":"33.34160800000",
"ln":"130.91892300000"
},
"geometry":{
"type":"Point",
"coordinates":[
130.918923,
33.341608
]
}
},
{
"type":"Feature",
"properties":{
"Name":"津江小学校",
"Jusho":"大分県日田市上津江町川原2458-3",
"Capacity":"7780",
"la":"33.09345600000",
"ln":"130.97898300000"
},
"geometry":{
"type":"Point",
"coordinates":[
130.978983,
33.093456
]
}
},
{
"type":"Feature",
"properties":{
"Name":"都築小学校",
"Jusho":"大分県日田市大山町東大山1125",
"Capacity":"2639",
"la":"33.26193000000",
"ln":"130.98898800000"
},
"geometry":{
"type":"Point",
"coordinates":[
130.988988,
33.26193
]
}
},
{
"type":"Feature",
"properties":{
"Name":"日隈小学校",
"Jusho":"大分県日田市日隈町578-1",
"Capacity":"5779",
"la":"33.31504900000",
"ln":"130.92546600000"
},
"geometry":{
"type":"Point",
"coordinates":[
130.925466,
33.315049
]
}
},
{
"type":"Feature",
"properties":{
"Name":"伏木多目的交流館（旧伏木小学校）",
"Jusho":"大分県日田市伏木町3512",
"Capacity":"1449",
"la":"33.38144183650",
"ln":"130.99387440500"
},
"geometry":{
"type":"Point",
"coordinates":[
130.993874405,
33.3814418365
]
}
},
{
"type":"Feature",
"properties":{
"Name":"有田小学校",
"Jusho":"大分県日田市諸留町2687-1",
"Capacity":"5821",
"la":"33.33084700000",
"ln":"130.96848000000"
},
"geometry":{
"type":"Point",
"coordinates":[
130.96848,
33.330847
]
}
},
{
"type":"Feature",
"properties":{
"Name":"咸宜小学校",
"Jusho":"大分県日田市淡窓一丁目5-13",
"Capacity":"7462",
"la":"33.32138500000",
"ln":"130.93649400000"
},
"geometry":{
"type":"Point",
"coordinates":[
130.936494,
33.321385
]
}
},
{
"type":"Feature",
"properties":{
"Name":"下堅田小学校体育館",
"Jusho":"大分県佐伯市大字堅田5521",
"Capacity":"530",
"la":"32.92480600000",
"ln":"131.87639600000"
},
"geometry":{
"type":"Point",
"coordinates":[
131.876396,
32.924806
]
}
},
{
"type":"Feature",
"properties":{
"Name":"河内小学校",
"Jusho":"大分県佐伯市蒲江大字竹野浦河内310",
"Capacity":"230",
"la":"32.81698899910",
"ln":"131.96264800000"
},
"geometry":{
"type":"Point",
"coordinates":[
131.962648,
32.8169889991
]
}
},
{
"type":"Feature",
"properties":{
"Name":"蒲江小学校",
"Jusho":"大分県佐伯市蒲江大字蒲江浦3463-2",
"Capacity":"300",
"la":"32.80240500000",
"ln":"131.92676300000"
},
"geometry":{
"type":"Point",
"coordinates":[
131.926763,
32.802405
]
}
},
{
"type":"Feature",
"properties":{
"Name":"蒲江小学校裏山",
"Jusho":"大分県佐伯市蒲江大字蒲江浦",
"Capacity":"－",
"la":"32.80344283690",
"ln":"131.92688299800"
},
"geometry":{
"type":"Point",
"coordinates":[
131.926882998,
32.8034428369
]
}
},
{
"type":"Feature",
"properties":{
"Name":"旧最勝海小学校",
"Jusho":"大分県佐伯市上浦大字蒲戸浦",
"Capacity":"500",
"la":"33.05806778030",
"ln":"131.99591215000"
},
"geometry":{
"type":"Point",
"coordinates":[
131.99591215,
33.0580677803
]
}
},
{
"type":"Feature",
"properties":{
"Name":"旧小学校",
"Jusho":"大分県佐伯市蒲江大字楠本浦",
"Capacity":"－",
"la":"32.83425122880",
"ln":"131.94275997200"
},
"geometry":{
"type":"Point",
"coordinates":[
131.942759972,
32.8342512288
]
}
},
{
"type":"Feature",
"properties":{
"Name":"旧上入津小学校",
"Jusho":"大分県佐伯市蒲江大字畑野浦372番地",
"Capacity":"100",
"la":"32.85593684900",
"ln":"131.95027710800"
},
"geometry":{
"type":"Point",
"coordinates":[
131.950277108,
32.855936849
]
}
},
{
"type":"Feature",
"properties":{
"Name":"旧中浦小学校",
"Jusho":"大分県佐伯市鶴見大字羽出浦",
"Capacity":"－",
"la":"32.93707063470",
"ln":"131.99727375600"
},
"geometry":{
"type":"Point",
"coordinates":[
131.997273756,
32.9370706347
]
}
},
{
"type":"Feature",
"properties":{
"Name":"旧東中浦小学校",
"Jusho":"大分県佐伯市鶴見大字梶寄浦",
"Capacity":"－",
"la":"32.94342657970",
"ln":"132.06651363400"
},
"geometry":{
"type":"Point",
"coordinates":[
132.066513634,
32.9434265797
]
}
},
{
"type":"Feature",
"properties":{
"Name":"向陽小学校",
"Jusho":"大分県佐伯市米水津大字浦代浦150-2",
"Capacity":"1300",
"la":"32.92192600000",
"ln":"131.98036600000"
},
"geometry":{
"type":"Point",
"coordinates":[
131.980366,
32.921926
]
}
},
{
"type":"Feature",
"properties":{
"Name":"佐伯小学校体育館",
"Jusho":"大分県佐伯市城下西町2-22",
"Capacity":"930",
"la":"32.95771899910",
"ln":"131.89314400000"
},
"geometry":{
"type":"Point",
"coordinates":[
131.893144,
32.9577189991
]
}
},
{
"type":"Feature",
"properties":{
"Name":"佐伯東小学校体育館",
"Jusho":"大分県佐伯市常盤西町5-1",
"Capacity":"790",
"la":"32.96471899910",
"ln":"131.89825400000"
},
"geometry":{
"type":"Point",
"coordinates":[
131.898254,
32.9647189991
]
}
},
{
"type":"Feature",
"properties":{
"Name":"重岡小学校",
"Jusho":"大分県佐伯市宇目大字千束2661",
"Capacity":"300",
"la":"32.85113500000",
"ln":"131.67853900000"
},
"geometry":{
"type":"Point",
"coordinates":[
131.678539,
32.851135
]
}
},
{
"type":"Feature",
"properties":{
"Name":"小野市小学校",
"Jusho":"大分県佐伯市宇目大字小野市3754",
"Capacity":"300",
"la":"32.85352000000",
"ln":"131.62761500000"
},
"geometry":{
"type":"Point",
"coordinates":[
131.627615,
32.85352
]
}
},
{
"type":"Feature",
"properties":{
"Name":"上堅田小学校体育館",
"Jusho":"大分県佐伯市大字長谷9118",
"Capacity":"720",
"la":"32.93719900000",
"ln":"131.88149800000"
},
"geometry":{
"type":"Point",
"coordinates":[
131.881498,
32.937199
]
}
},
{
"type":"Feature",
"properties":{
"Name":"上入津小学校",
"Jusho":"大分県佐伯市蒲江大字畑野浦372",
"Capacity":"50",
"la":"32.85318200000",
"ln":"131.94902400000"
},
"geometry":{
"type":"Point",
"coordinates":[
131.949024,
32.853182
]
}
},
{
"type":"Feature",
"properties":{
"Name":"色宮小学校",
"Jusho":"大分県佐伯市米水津大字色利浦1742",
"Capacity":"1100",
"la":"32.88677400000",
"ln":"131.98886300000"
},
"geometry":{
"type":"Point",
"coordinates":[
131.988863,
32.886774
]
}
},
{
"type":"Feature",
"properties":{
"Name":"吹小学校",
"Jusho":"大分県佐伯市鶴見大字吹浦1475",
"Capacity":"－",
"la":"32.95022000000",
"ln":"131.94184400000"
},
"geometry":{
"type":"Point",
"coordinates":[
131.941844,
32.95022
]
}
},
{
"type":"Feature",
"properties":{
"Name":"西浦小学校",
"Jusho":"大分県佐伯市蒲江大字西野浦624",
"Capacity":"300",
"la":"32.82184900000",
"ln":"131.98046800000"
},
"geometry":{
"type":"Point",
"coordinates":[
131.980468,
32.821849
]
}
},
{
"type":"Feature",
"properties":{
"Name":"西上浦小学校体育館",
"Jusho":"大分県佐伯市大字狩生389",
"Capacity":"－",
"la":"33.01574200000",
"ln":"131.90125300000"
},
"geometry":{
"type":"Point",
"coordinates":[
131.901253,
33.015742
]
}
},
{
"type":"Feature",
"properties":{
"Name":"青山小学校体育館",
"Jusho":"大分県佐伯市大字青山2691-1",
"Capacity":"390",
"la":"32.88361600000",
"ln":"131.87320300000"
},
"geometry":{
"type":"Point",
"coordinates":[
131.873203,
32.883616
]
}
},
{
"type":"Feature",
"properties":{
"Name":"切畑小学校",
"Jusho":"大分県佐伯市弥生大字門田1328",
"Capacity":"500",
"la":"32.95316800000",
"ln":"131.83765300000"
},
"geometry":{
"type":"Point",
"coordinates":[
131.837653,
32.953168
]
}
},
{
"type":"Feature",
"properties":{
"Name":"大島小学校",
"Jusho":"大分県佐伯市鶴見大字大島617-1",
"Capacity":"－",
"la":"32.96641712650",
"ln":"132.07148168400"
},
"geometry":{
"type":"Point",
"coordinates":[
132.071481684,
32.9664171265
]
}
},
{
"type":"Feature",
"properties":{
"Name":"猪串小学校",
"Jusho":"大分県佐伯市蒲江大字猪串浦176",
"Capacity":"300",
"la":"32.79862800000",
"ln":"131.90064100000"
},
"geometry":{
"type":"Point",
"coordinates":[
131.900641,
32.798628
]
}
},
{
"type":"Feature",
"properties":{
"Name":"直川小学校",
"Jusho":"大分県佐伯市直川大字上直見500",
"Capacity":"500",
"la":"32.89761700000",
"ln":"131.77682100000"
},
"geometry":{
"type":"Point",
"coordinates":[
131.776821,
32.897617
]
}
},
{
"type":"Feature",
"properties":{
"Name":"鶴岡小学校体育館",
"Jusho":"大分県佐伯市鶴岡町3丁目7-1",
"Capacity":"560",
"la":"32.96074599910",
"ln":"131.87506200000"
},
"geometry":{
"type":"Point",
"coordinates":[
131.875062,
32.9607459991
]
}
},
{
"type":"Feature",
"properties":{
"Name":"渡町台小学校体育館",
"Jusho":"大分県佐伯市長島町3丁目16-1",
"Capacity":"700",
"la":"32.95844200000",
"ln":"131.90839200000"
},
"geometry":{
"type":"Point",
"coordinates":[
131.908392,
32.958442
]
}
},
{
"type":"Feature",
"properties":{
"Name":"東雲小学校",
"Jusho":"大分県佐伯市上浦大字浅海井浦3",
"Capacity":"1300",
"la":"33.04643400000",
"ln":"131.92577700000"
},
"geometry":{
"type":"Point",
"coordinates":[
131.925777,
33.046434
]
}
},
{
"type":"Feature",
"properties":{
"Name":"灘小学校体育館",
"Jusho":"大分県佐伯市上灘区9731",
"Capacity":"680",
"la":"32.94787600000",
"ln":"131.92314400000"
},
"geometry":{
"type":"Point",
"coordinates":[
131.923144,
32.947876
]
}
},
{
"type":"Feature",
"properties":{
"Name":"楠本小学校",
"Jusho":"大分県佐伯市蒲江大字楠本浦667",
"Capacity":"30",
"la":"32.83617000000",
"ln":"131.94262900000"
},
"geometry":{
"type":"Point",
"coordinates":[
131.942629,
32.83617
]
}
},
{
"type":"Feature",
"properties":{
"Name":"波当津小学校",
"Jusho":"大分県佐伯市蒲江大字波当津浦928",
"Capacity":"300",
"la":"32.74989200000",
"ln":"131.86836900000"
},
"geometry":{
"type":"Point",
"coordinates":[
131.868369,
32.749892
]
}
},
{
"type":"Feature",
"properties":{
"Name":"八幡小学校体育館",
"Jusho":"大分県佐伯市大字戸穴2942",
"Capacity":"760",
"la":"33.00372900000",
"ln":"131.89204200000"
},
"geometry":{
"type":"Point",
"coordinates":[
131.892042,
33.003729
]
}
},
{
"type":"Feature",
"properties":{
"Name":"尾浦小学校",
"Jusho":"大分県佐伯市蒲江大字2771-2",
"Capacity":"500",
"la":"32.86542100000",
"ln":"131.97255700000"
},
"geometry":{
"type":"Point",
"coordinates":[
131.972557,
32.865421
]
}
},
{
"type":"Feature",
"properties":{
"Name":"本匠小学校",
"Jusho":"大分県佐伯市本匠大字笠掛1415",
"Capacity":"－",
"la":"32.95568392930",
"ln":"131.80259366000"
},
"geometry":{
"type":"Point",
"coordinates":[
131.80259366,
32.9556839293
]
}
},
{
"type":"Feature",
"properties":{
"Name":"名護屋小学校",
"Jusho":"大分県佐伯市蒲江大字丸市尾浦496",
"Capacity":"300",
"la":"32.79237800000",
"ln":"131.87657000000"
},
"geometry":{
"type":"Point",
"coordinates":[
131.87657,
32.792378
]
}
},
{
"type":"Feature",
"properties":{
"Name":"明治小学校",
"Jusho":"大分県佐伯市弥生大字大坂本1135",
"Capacity":"430",
"la":"32.98181100000",
"ln":"131.84941900000"
},
"geometry":{
"type":"Point",
"coordinates":[
131.849419,
32.981811
]
}
},
{
"type":"Feature",
"properties":{
"Name":"木浦小学校",
"Jusho":"大分県佐伯市宇目大字木浦鉱山367",
"Capacity":"50",
"la":"32.82448400000",
"ln":"131.54495700000"
},
"geometry":{
"type":"Point",
"coordinates":[
131.544957,
32.824484
]
}
},
{
"type":"Feature",
"properties":{
"Name":"木立小学校体育館",
"Jusho":"大分県佐伯市大字木立4480",
"Capacity":"390",
"la":"32.91991900000",
"ln":"131.93114100000"
},
"geometry":{
"type":"Point",
"coordinates":[
131.931141,
32.919919
]
}
},
{
"type":"Feature",
"properties":{
"Name":"臼杵小学校",
"Jusho":"大分県臼杵市大字臼杵65",
"Capacity":"4241",
"la":"33.12464400000",
"ln":"131.80025800000"
},
"geometry":{
"type":"Point",
"coordinates":[
131.800258,
33.124644
]
}
},
{
"type":"Feature",
"properties":{
"Name":"臼杵南小学校",
"Jusho":"大分県臼杵市大字掻懐1483",
"Capacity":"1213",
"la":"33.09078600000",
"ln":"131.75740100000"
},
"geometry":{
"type":"Point",
"coordinates":[
131.757401,
33.090786
]
}
},
{
"type":"Feature",
"properties":{
"Name":"下ノ江小学校",
"Jusho":"大分県臼杵市大字大野1955",
"Capacity":"4002",
"la":"33.15241900000",
"ln":"131.80614500000"
},
"geometry":{
"type":"Point",
"coordinates":[
131.806145,
33.152419
]
}
},
{
"type":"Feature",
"properties":{
"Name":"下南小学校",
"Jusho":"大分県臼杵市大字望月815",
"Capacity":"2071",
"la":"33.10328100000",
"ln":"131.77281000000"
},
"geometry":{
"type":"Point",
"coordinates":[
131.77281,
33.103281
]
}
},
{
"type":"Feature",
"properties":{
"Name":"下北小学校",
"Jusho":"大分県臼杵市大字稲田862",
"Capacity":"3260",
"la":"33.14514200000",
"ln":"131.79000800000"
},
"geometry":{
"type":"Point",
"coordinates":[
131.790008,
33.145142
]
}
},
{
"type":"Feature",
"properties":{
"Name":"海辺小学校",
"Jusho":"大分県臼杵市大字大浜173",
"Capacity":"1791",
"la":"33.13639300000",
"ln":"131.80839600000"
},
"geometry":{
"type":"Point",
"coordinates":[
131.808396,
33.136393
]
}
},
{
"type":"Feature",
"properties":{
"Name":"旧宮本小学校",
"Jusho":"大分県臼杵市大字東神野3403",
"Capacity":"1181",
"la":"33.03974260410",
"ln":"131.77403691400"
},
"geometry":{
"type":"Point",
"coordinates":[
131.774036914,
33.0397426041
]
}
},
{
"type":"Feature",
"properties":{
"Name":"旧戸上小学校",
"Jusho":"大分県臼杵市大字西寒田2989",
"Capacity":"3063",
"la":"33.06461000000",
"ln":"131.66022300000"
},
"geometry":{
"type":"Point",
"coordinates":[
131.660223,
33.06461
]
}
},
{
"type":"Feature",
"properties":{
"Name":"旧上浦小学校",
"Jusho":"大分県臼杵市大字大泊215-2",
"Capacity":"5424",
"la":"33.11836900000",
"ln":"131.83492200000"
},
"geometry":{
"type":"Point",
"coordinates":[
131.834922,
33.118369
]
}
},
{
"type":"Feature",
"properties":{
"Name":"旧深江小学校",
"Jusho":"大分県臼杵市大字深江1512",
"Capacity":"869",
"la":"33.12188552940",
"ln":"131.87991420500"
},
"geometry":{
"type":"Point",
"coordinates":[
131.879914205,
33.1218855294
]
}
},
{
"type":"Feature",
"properties":{
"Name":"旧西神野小学校",
"Jusho":"大字西神野1070",
"Capacity":"699",
"la":"33.03189100000",
"ln":"131.76168100000"
},
"geometry":{
"type":"Point",
"coordinates":[
131.761681,
33.031891
]
}
},
{
"type":"Feature",
"properties":{
"Name":"旧中臼杵小学校",
"Jusho":"大分県臼杵市大字吉小野4296",
"Capacity":"1785",
"la":"33.10958800000",
"ln":"131.73018100000"
},
"geometry":{
"type":"Point",
"coordinates":[
131.730181,
33.109588
]
}
},
{
"type":"Feature",
"properties":{
"Name":"旧都松小学校",
"Jusho":"大分県臼杵市大字都原1114-1",
"Capacity":"1962",
"la":"33.06704200000",
"ln":"131.71226900000"
},
"geometry":{
"type":"Point",
"coordinates":[
131.712269,
33.067042
]
}
},
{
"type":"Feature",
"properties":{
"Name":"佐志生小学校",
"Jusho":"大分県臼杵市大字佐志生3015-1",
"Capacity":"2108",
"la":"33.17675100000",
"ln":"131.82789300000"
},
"geometry":{
"type":"Point",
"coordinates":[
131.827893,
33.176751
]
}
},
{
"type":"Feature",
"properties":{
"Name":"市浜小学校",
"Jusho":"大分県臼杵市大字戸室503",
"Capacity":"3701",
"la":"33.11847800000",
"ln":"131.78734200000"
},
"geometry":{
"type":"Point",
"coordinates":[
131.787342,
33.118478
]
}
},
{
"type":"Feature",
"properties":{
"Name":"上北小学校",
"Jusho":"大分県臼杵市大字末広2487-2",
"Capacity":"4288",
"la":"33.13983600000",
"ln":"131.75717800000"
},
"geometry":{
"type":"Point",
"coordinates":[
131.757178,
33.139836
]
}
},
{
"type":"Feature",
"properties":{
"Name":"川登小学校",
"Jusho":"大分県臼杵市大字清水原1341",
"Capacity":"3758",
"la":"33.00593700000",
"ln":"131.71793500000"
},
"geometry":{
"type":"Point",
"coordinates":[
131.717935,
33.005937
]
}
},
{
"type":"Feature",
"properties":{
"Name":"田野小学校",
"Jusho":"大分県臼杵市大字亀甲4014",
"Capacity":"1658",
"la":"33.04638400000",
"ln":"131.72125400000"
},
"geometry":{
"type":"Point",
"coordinates":[
131.721254,
33.046384
]
}
},
{
"type":"Feature",
"properties":{
"Name":"南野津小学校",
"Jusho":"大分県臼杵市大字西畑600",
"Capacity":"2343",
"la":"33.01305200000",
"ln":"131.66745100000"
},
"geometry":{
"type":"Point",
"coordinates":[
131.667451,
33.013052
]
}
},
{
"type":"Feature",
"properties":{
"Name":"福良ヶ丘小学校",
"Jusho":"大分県臼杵市大字福良360-1",
"Capacity":"3163",
"la":"33.11472900000",
"ln":"131.79448100000"
},
"geometry":{
"type":"Point",
"coordinates":[
131.794481,
33.114729
]
}
},
{
"type":"Feature",
"properties":{
"Name":"野津小学校",
"Jusho":"大分県臼杵市大字山頭3100",
"Capacity":"3970",
"la":"33.04538500000",
"ln":"131.69899000000"
},
"geometry":{
"type":"Point",
"coordinates":[
131.69899,
33.045385
]
}
},
{
"type":"Feature",
"properties":{
"Name":"越智小学校",
"Jusho":"大分県津久見市四浦5893-2",
"Capacity":"550",
"la":"33.08367100000",
"ln":"131.98880800000"
},
"geometry":{
"type":"Point",
"coordinates":[
131.988808,
33.083671
]
}
},
{
"type":"Feature",
"properties":{
"Name":"堅徳小学校",
"Jusho":"大分県津久見市堅浦3の1番地",
"Capacity":"1130",
"la":"33.09276100000",
"ln":"131.85917100000"
},
"geometry":{
"type":"Point",
"coordinates":[
131.859171,
33.092761
]
}
},
{
"type":"Feature",
"properties":{
"Name":"高浜小学校跡地グラウンド",
"Jusho":"大分県津久見市四浦6434-1",
"Capacity":"－",
"la":"33.08447586530",
"ln":"131.99444549500"
},
"geometry":{
"type":"Point",
"coordinates":[
131.994445495,
33.0844758653
]
}
},
{
"type":"Feature",
"properties":{
"Name":"青江小学校",
"Jusho":"大分県津久見市上青江3537",
"Capacity":"1190",
"la":"33.08167100000",
"ln":"131.83970000000"
},
"geometry":{
"type":"Point",
"coordinates":[
131.8397,
33.081671
]
}
},
{
"type":"Feature",
"properties":{
"Name":"仙水小学校",
"Jusho":"大分県津久見市四浦1533",
"Capacity":"250",
"la":"33.06587700000",
"ln":"131.95233000000"
},
"geometry":{
"type":"Point",
"coordinates":[
131.95233,
33.065877
]
}
},
{
"type":"Feature",
"properties":{
"Name":"千怒小学校",
"Jusho":"大分県津久見市千怒1400",
"Capacity":"970",
"la":"33.06582000000",
"ln":"131.88864100000"
},
"geometry":{
"type":"Point",
"coordinates":[
131.888641,
33.06582
]
}
},
{
"type":"Feature",
"properties":{
"Name":"長目小学校体育館",
"Jusho":"大分県津久見市長目1698",
"Capacity":"260",
"la":"33.10998200000",
"ln":"131.88241800000"
},
"geometry":{
"type":"Point",
"coordinates":[
131.882418,
33.109982
]
}
},
{
"type":"Feature",
"properties":{
"Name":"津久見小学校",
"Jusho":"大分県津久見市立花町1-7",
"Capacity":"2100",
"la":"33.06607000000",
"ln":"131.85950500000"
},
"geometry":{
"type":"Point",
"coordinates":[
131.859505,
33.06607
]
}
},
{
"type":"Feature",
"properties":{
"Name":"日代小学校",
"Jusho":"大分県津久見市網代1535-2",
"Capacity":"570",
"la":"33.06782900000",
"ln":"131.91820800000"
},
"geometry":{
"type":"Point",
"coordinates":[
131.918208,
33.067829
]
}
},
{
"type":"Feature",
"properties":{
"Name":"岡本小学校体育館",
"Jusho":"大分県竹田市大字三宅1543番地",
"Capacity":"200",
"la":"32.99297900000",
"ln":"131.41057300000"
},
"geometry":{
"type":"Point",
"coordinates":[
131.410573,
32.992979
]
}
},
{
"type":"Feature",
"properties":{
"Name":"荻小学校",
"Jusho":"大分県竹田市荻町馬場466",
"Capacity":"200",
"la":"32.92194900000",
"ln":"131.29565900000"
},
"geometry":{
"type":"Point",
"coordinates":[
131.295659,
32.921949
]
}
},
{
"type":"Feature",
"properties":{
"Name":"宮城台小学校体育館",
"Jusho":"大分県竹田市大字炭竃500",
"Capacity":"200",
"la":"32.97958899910",
"ln":"131.31055400000"
},
"geometry":{
"type":"Point",
"coordinates":[
131.310554,
32.9795889991
]
}
},
{
"type":"Feature",
"properties":{
"Name":"旧下竹田小学校体育館",
"Jusho":"大分県竹田市直入町大字上田北2012番地",
"Capacity":"100",
"la":"33.11303500000",
"ln":"131.41112300000"
},
"geometry":{
"type":"Point",
"coordinates":[
131.411123,
33.113035
]
}
},
{
"type":"Feature",
"properties":{
"Name":"小学校体育館",
"Jusho":"大分県竹田市久住町大字久住2859",
"Capacity":"100",
"la":"33.02467300000",
"ln":"131.29219000000"
},
"geometry":{
"type":"Point",
"coordinates":[
131.29219,
33.024673
]
}
},
{
"type":"Feature",
"properties":{
"Name":"城原小学校体育館",
"Jusho":"大分県竹田市大字城原1705",
"Capacity":"200",
"la":"32.99164399910",
"ln":"131.33741200000"
},
"geometry":{
"type":"Point",
"coordinates":[
131.337412,
32.9916439991
]
}
},
{
"type":"Feature",
"properties":{
"Name":"菅生小学校体育館",
"Jusho":"大分県竹田市大字菅生490-1",
"Capacity":"200",
"la":"32.95600800000",
"ln":"131.28605700000"
},
"geometry":{
"type":"Point",
"coordinates":[
131.286057,
32.956008
]
}
},
{
"type":"Feature",
"properties":{
"Name":"祖峰小学校体育館",
"Jusho":"大分県竹田市大字門田266",
"Capacity":"200",
"la":"32.93581800000",
"ln":"131.38427100000"
},
"geometry":{
"type":"Point",
"coordinates":[
131.384271,
32.935818
]
}
},
{
"type":"Feature",
"properties":{
"Name":"竹田小学校体育館",
"Jusho":"大分県竹田市大字竹田1637番地",
"Capacity":"200",
"la":"32.97394199910",
"ln":"131.39945800000"
},
"geometry":{
"type":"Point",
"coordinates":[
131.399458,
32.9739419991
]
}
},
{
"type":"Feature",
"properties":{
"Name":"直入小学校体育館",
"Jusho":"大分県竹田市直入町大字長湯3088番地",
"Capacity":"100",
"la":"33.06591612480",
"ln":"131.37093155300"
},
"geometry":{
"type":"Point",
"coordinates":[
131.370931553,
33.0659161248
]
}
},
{
"type":"Feature",
"properties":{
"Name":"都野小学校体育館",
"Jusho":"大分県竹田市久住町大字栢木6037-1",
"Capacity":"100",
"la":"33.05856800000",
"ln":"131.32997700000"
},
"geometry":{
"type":"Point",
"coordinates":[
131.329977,
33.058568
]
}
},
{
"type":"Feature",
"properties":{
"Name":"南部小学校体育館",
"Jusho":"大分県竹田市大字君ケ園1044",
"Capacity":"200",
"la":"32.95162100000",
"ln":"131.36924400000"
},
"geometry":{
"type":"Point",
"coordinates":[
131.369244,
32.951621
]
}
},
{
"type":"Feature",
"properties":{
"Name":"白丹小学校体育館",
"Jusho":"大分県竹田市久住町大字白丹4707",
"Capacity":"100",
"la":"33.00657499910",
"ln":"131.26543500000"
},
"geometry":{
"type":"Point",
"coordinates":[
131.265435,
33.0065749991
]
}
},
{
"type":"Feature",
"properties":{
"Name":"臼野小学校",
"Jusho":"大分県豊後高田市臼野2874",
"Capacity":"230",
"la":"33.62753100000",
"ln":"131.49321700000"
},
"geometry":{
"type":"Point",
"coordinates":[
131.493217,
33.627531
]
}
},
{
"type":"Feature",
"properties":{
"Name":"河内小学校",
"Jusho":"大分県豊後高田市佐野2107",
"Capacity":"230",
"la":"33.53434500000",
"ln":"131.46788900000"
},
"geometry":{
"type":"Point",
"coordinates":[
131.467889,
33.534345
]
}
},
{
"type":"Feature",
"properties":{
"Name":"旧三重小学校",
"Jusho":"大分県豊後高田市上香々地4389",
"Capacity":"180",
"la":"33.62822300000",
"ln":"131.53990900000"
},
"geometry":{
"type":"Point",
"coordinates":[
131.539909,
33.628223
]
}
},
{
"type":"Feature",
"properties":{
"Name":"桂陽小学校",
"Jusho":"大分県豊後高田市玉津1053",
"Capacity":"210",
"la":"33.56286300000",
"ln":"131.44221400000"
},
"geometry":{
"type":"Point",
"coordinates":[
131.442214,
33.562863
]
}
},
{
"type":"Feature",
"properties":{
"Name":"高田小学校校舎（２階以上）",
"Jusho":"大分県豊後高田市新地1460",
"Capacity":"770",
"la":"33.55201400000",
"ln":"131.43791800000"
},
"geometry":{
"type":"Point",
"coordinates":[
131.437918,
33.552014
]
}
},
{
"type":"Feature",
"properties":{
"Name":"三浦小学校",
"Jusho":"大分県豊後高田市堅来4455",
"Capacity":"150",
"la":"33.63950200000",
"ln":"131.50110500000"
},
"geometry":{
"type":"Point",
"coordinates":[
131.501105,
33.639502
]
}
},
{
"type":"Feature",
"properties":{
"Name":"真玉小学校",
"Jusho":"大分県豊後高田市中真玉5809",
"Capacity":"420",
"la":"33.60027300000",
"ln":"131.49269700000"
},
"geometry":{
"type":"Point",
"coordinates":[
131.492697,
33.600273
]
}
},
{
"type":"Feature",
"properties":{
"Name":"草地小学校",
"Jusho":"大分県豊後高田市草地292-2",
"Capacity":"180",
"la":"33.57636900000",
"ln":"131.46147100000"
},
"geometry":{
"type":"Point",
"coordinates":[
131.461471,
33.576369
]
}
},
{
"type":"Feature",
"properties":{
"Name":"田染小学校",
"Jusho":"大分県豊後高田市田染相原50",
"Capacity":"230",
"la":"33.51456200000",
"ln":"131.52028500000"
},
"geometry":{
"type":"Point",
"coordinates":[
131.520285,
33.514562
]
}
},
{
"type":"Feature",
"properties":{
"Name":"都甲小学校体育館",
"Jusho":"大分県豊後高田市新城83",
"Capacity":"150",
"la":"33.55956600000",
"ln":"131.52610600000"
},
"geometry":{
"type":"Point",
"coordinates":[
131.526106,
33.559566
]
}
},
{
"type":"Feature",
"properties":{
"Name":"杵築小学校",
"Jusho":"大分県杵築市大字杵築216",
"Capacity":"495",
"la":"33.41726300000",
"ln":"131.62106100000"
},
"geometry":{
"type":"Point",
"coordinates":[
131.621061,
33.417263
]
}
},
{
"type":"Feature",
"properties":{
"Name":"護江小学校",
"Jusho":"大分県杵築市大字守江1911",
"Capacity":"159",
"la":"33.42347000000",
"ln":"131.66259900000"
},
"geometry":{
"type":"Point",
"coordinates":[
131.662599,
33.42347
]
}
},
{
"type":"Feature",
"properties":{
"Name":"大内小学校",
"Jusho":"大分県杵築市大字大内4353-2",
"Capacity":"159",
"la":"33.42646400000",
"ln":"131.62828700000"
},
"geometry":{
"type":"Point",
"coordinates":[
131.628287,
33.426464
]
}
},
{
"type":"Feature",
"properties":{
"Name":"東小学校",
"Jusho":"大分県杵築市大字片野1129-2",
"Capacity":"127",
"la":"33.40288800000",
"ln":"131.63024200000"
},
"geometry":{
"type":"Point",
"coordinates":[
131.630242,
33.402888
]
}
},
{
"type":"Feature",
"properties":{
"Name":"八坂小学校",
"Jusho":"大分県杵築市大字八坂2782-1",
"Capacity":"127",
"la":"33.41188100000",
"ln":"131.58668800000"
},
"geometry":{
"type":"Point",
"coordinates":[
131.586688,
33.411881
]
}
},
{
"type":"Feature",
"properties":{
"Name":"豊洋小学校",
"Jusho":"大分県杵築市大字奈多231-1",
"Capacity":"241",
"la":"33.42794300000",
"ln":"131.70487400000"
},
"geometry":{
"type":"Point",
"coordinates":[
131.704874,
33.427943
]
}
},
{
"type":"Feature",
"properties":{
"Name":"北杵築小学校",
"Jusho":"大分県杵築市大字溝井454",
"Capacity":"159",
"la":"33.44000400000",
"ln":"131.59430400000"
},
"geometry":{
"type":"Point",
"coordinates":[
131.594304,
33.440004
]
}
},
{
"type":"Feature",
"properties":{
"Name":"安心院小学校",
"Jusho":"大分県宇佐市安心院町木裳110",
"Capacity":"1150",
"la":"33.43522600000",
"ln":"131.35799500000"
},
"geometry":{
"type":"Point",
"coordinates":[
131.357995,
33.435226
]
}
},
{
"type":"Feature",
"properties":{
"Name":"宇佐小学校",
"Jusho":"大分県宇佐市大字南宇佐2007",
"Capacity":"750",
"la":"33.53070400000",
"ln":"131.37171100000"
},
"geometry":{
"type":"Point",
"coordinates":[
131.371711,
33.530704
]
}
},
{
"type":"Feature",
"properties":{
"Name":"駅館小学校",
"Jusho":"大分県宇佐市大字上田394-1",
"Capacity":"1350",
"la":"33.53200500000",
"ln":"131.34676200000"
},
"geometry":{
"type":"Point",
"coordinates":[
131.346762,
33.532005
]
}
},
{
"type":"Feature",
"properties":{
"Name":"横山小学校",
"Jusho":"大分県宇佐市大字上元重859-1",
"Capacity":"550",
"la":"33.51742199910",
"ln":"131.29979400000"
},
"geometry":{
"type":"Point",
"coordinates":[
131.299794,
33.5174219991
]
}
},
{
"type":"Feature",
"properties":{
"Name":"高家小学校",
"Jusho":"大分県宇佐市大字東高家288",
"Capacity":"850",
"la":"33.57119300000",
"ln":"131.30965400000"
},
"geometry":{
"type":"Point",
"coordinates":[
131.309654,
33.571193
]
}
},
{
"type":"Feature",
"properties":{
"Name":"佐田小学校",
"Jusho":"大分県宇佐市安心院町佐田215",
"Capacity":"850",
"la":"33.44191000000",
"ln":"131.39607900000"
},
"geometry":{
"type":"Point",
"coordinates":[
131.396079,
33.44191
]
}
},
{
"type":"Feature",
"properties":{
"Name":"四日市公民館麻生分館（旧麻生小学校）",
"Jusho":"大分県宇佐市大字麻生5047",
"Capacity":"300",
"la":"33.46631000000",
"ln":"131.26931300000"
},
"geometry":{
"type":"Point",
"coordinates":[
131.269313,
33.46631
]
}
},
{
"type":"Feature",
"properties":{
"Name":"四日市南小学校",
"Jusho":"大分県宇佐市大字四日市1726",
"Capacity":"1300",
"la":"33.52650999910",
"ln":"131.32798300000"
},
"geometry":{
"type":"Point",
"coordinates":[
131.327983,
33.5265099991
]
}
},
{
"type":"Feature",
"properties":{
"Name":"四日市北小学校",
"Jusho":"大分県宇佐市大字四日市1351-1",
"Capacity":"1550",
"la":"33.53256900000",
"ln":"131.32674400000"
},
"geometry":{
"type":"Point",
"coordinates":[
131.326744,
33.532569
]
}
},
{
"type":"Feature",
"properties":{
"Name":"糸口小学校",
"Jusho":"大分県宇佐市大字上時枝600-1",
"Capacity":"750",
"la":"33.55353000000",
"ln":"131.30779900000"
},
"geometry":{
"type":"Point",
"coordinates":[
131.307799,
33.55353
]
}
},
{
"type":"Feature",
"properties":{
"Name":"深見小学校",
"Jusho":"大分県宇佐市安心院町矢畑40",
"Capacity":"850",
"la":"33.39382400000",
"ln":"131.34120000000"
},
"geometry":{
"type":"Point",
"coordinates":[
131.3412,
33.393824
]
}
},
{
"type":"Feature",
"properties":{
"Name":"西馬城小学校",
"Jusho":"大分県宇佐市大字上矢部1069",
"Capacity":"600",
"la":"33.50179200000",
"ln":"131.37073100000"
},
"geometry":{
"type":"Point",
"coordinates":[
131.370731,
33.501792
]
}
},
{
"type":"Feature",
"properties":{
"Name":"中部小学校",
"Jusho":"大分県宇佐市院内町山城91",
"Capacity":"850",
"la":"33.41813200000",
"ln":"131.31559900000"
},
"geometry":{
"type":"Point",
"coordinates":[
131.315599,
33.418132
]
}
},
{
"type":"Feature",
"properties":{
"Name":"長洲小学校",
"Jusho":"大分県宇佐市大字長洲630",
"Capacity":"1550",
"la":"33.56984000000",
"ln":"131.37575500000"
},
"geometry":{
"type":"Point",
"coordinates":[
131.375755,
33.56984
]
}
},
{
"type":"Feature",
"properties":{
"Name":"長峰小学校",
"Jusho":"大分県宇佐市大字佐野686-2",
"Capacity":"750",
"la":"33.54042200000",
"ln":"131.27474600000"
},
"geometry":{
"type":"Point",
"coordinates":[
131.274746,
33.540422
]
}
},
{
"type":"Feature",
"properties":{
"Name":"津房小学校",
"Jusho":"大分県宇佐市安心院町六郎丸708-1",
"Capacity":"850",
"la":"33.39165400000",
"ln":"131.39549300000"
},
"geometry":{
"type":"Point",
"coordinates":[
131.395493,
33.391654
]
}
},
{
"type":"Feature",
"properties":{
"Name":"天津小学校",
"Jusho":"大分県宇佐市大字下敷田264-1",
"Capacity":"850",
"la":"33.56160100000",
"ln":"131.28973400000"
},
"geometry":{
"type":"Point",
"coordinates":[
131.289734,
33.561601
]
}
},
{
"type":"Feature",
"properties":{
"Name":"南院内小学校",
"Jusho":"大分県宇佐市院内町下恵良687",
"Capacity":"700",
"la":"33.38444100000",
"ln":"131.29176800000"
},
"geometry":{
"type":"Point",
"coordinates":[
131.291768,
33.384441
]
}
},
{
"type":"Feature",
"properties":{
"Name":"八幡小学校",
"Jusho":"大分県宇佐市大字上乙女283-1",
"Capacity":"600",
"la":"33.56307800000",
"ln":"131.33299200000"
},
"geometry":{
"type":"Point",
"coordinates":[
131.332992,
33.563078
]
}
},
{
"type":"Feature",
"properties":{
"Name":"封戸小学校",
"Jusho":"大分県宇佐市大字刈宇田59",
"Capacity":"800",
"la":"33.54070499910",
"ln":"131.41992100000"
},
"geometry":{
"type":"Point",
"coordinates":[
131.419921,
33.5407049991
]
}
},
{
"type":"Feature",
"properties":{
"Name":"豊川小学校",
"Jusho":"大分県宇佐市大字大塚542-2",
"Capacity":"900",
"la":"33.51508000000",
"ln":"131.33563000000"
},
"geometry":{
"type":"Point",
"coordinates":[
131.33563,
33.51508
]
}
},
{
"type":"Feature",
"properties":{
"Name":"北馬城小学校",
"Jusho":"大分県宇佐市大字岩崎781",
"Capacity":"800",
"la":"33.53120600000",
"ln":"131.40375500000"
},
"geometry":{
"type":"Point",
"coordinates":[
131.403755,
33.531206
]
}
},
{
"type":"Feature",
"properties":{
"Name":"北部小学校",
"Jusho":"大分県宇佐市院内町櫛野646-1",
"Capacity":"900",
"la":"33.46148900000",
"ln":"131.32887400000"
},
"geometry":{
"type":"Point",
"coordinates":[
131.328874,
33.461489
]
}
},
{
"type":"Feature",
"properties":{
"Name":"柳ヶ浦小学校",
"Jusho":"大分県宇佐市大字江須賀2406",
"Capacity":"1600",
"la":"33.56043100000",
"ln":"131.36394600000"
},
"geometry":{
"type":"Point",
"coordinates":[
131.363946,
33.560431
]
}
},
{
"type":"Feature",
"properties":{
"Name":"和間小学校",
"Jusho":"大分県宇佐市大字松崎1514",
"Capacity":"700",
"la":"33.55422600000",
"ln":"131.39744100000"
},
"geometry":{
"type":"Point",
"coordinates":[
131.397441,
33.554226
]
}
},
{
"type":"Feature",
"properties":{
"Name":"旧・久部小学校　　　",
"Jusho":"大分県豊後大野市三重町大白谷526番地1",
"Capacity":"－",
"la":"32.88297531220",
"ln":"131.53328230800"
},
"geometry":{
"type":"Point",
"coordinates":[
131.533282308,
32.8829753122
]
}
},
{
"type":"Feature",
"properties":{
"Name":"旧・三重南小学校",
"Jusho":"大分県豊後大野市三重町松尾3179番地",
"Capacity":"－",
"la":"32.95880899910",
"ln":"131.60988400000"
},
"geometry":{
"type":"Point",
"coordinates":[
131.609884,
32.9588089991
]
}
},
{
"type":"Feature",
"properties":{
"Name":"旧東小学校",
"Jusho":"大分県豊後大野市清川町伏野2154番地",
"Capacity":"－",
"la":"32.93009010490",
"ln":"131.53070963500"
},
"geometry":{
"type":"Point",
"coordinates":[
131.530709635,
32.9300901049
]
}
},
{
"type":"Feature",
"properties":{
"Name":"犬飼小学校",
"Jusho":"大分県豊後大野市犬飼町久原711番地",
"Capacity":"－",
"la":"33.07190000000",
"ln":"131.64142500000"
},
"geometry":{
"type":"Point",
"coordinates":[
131.641425,
33.0719
]
}
},
{
"type":"Feature",
"properties":{
"Name":"三重第一小学校",
"Jusho":"大分県豊後大野市三重町市場1062番地1",
"Capacity":"－",
"la":"32.97794000000",
"ln":"131.57981300000"
},
"geometry":{
"type":"Point",
"coordinates":[
131.579813,
32.97794
]
}
},
{
"type":"Feature",
"properties":{
"Name":"三重東小学校",
"Jusho":"大分県豊後大野市三重町小坂3959番地",
"Capacity":"403",
"la":"32.98970199910",
"ln":"131.60983900000"
},
"geometry":{
"type":"Point",
"coordinates":[
131.609839,
32.9897019991
]
}
},
{
"type":"Feature",
"properties":{
"Name":"緒方小学校",
"Jusho":"大分県豊後大野市緒方町馬場100番地",
"Capacity":"390",
"la":"32.97255500000",
"ln":"131.47337600000"
},
"geometry":{
"type":"Point",
"coordinates":[
131.473376,
32.972555
]
}
},
{
"type":"Feature",
"properties":{
"Name":"小富士小学校",
"Jusho":"大分県豊後大野市緒方町小宛1921番地1",
"Capacity":"169",
"la":"32.95784200000",
"ln":"131.43016800000"
},
"geometry":{
"type":"Point",
"coordinates":[
131.430168,
32.957842
]
}
},
{
"type":"Feature",
"properties":{
"Name":"新田小学校",
"Jusho":"大分県豊後大野市三重町久田1220番地",
"Capacity":"240",
"la":"32.97034500000",
"ln":"131.55867300000"
},
"geometry":{
"type":"Point",
"coordinates":[
131.558673,
32.970345
]
}
},
{
"type":"Feature",
"properties":{
"Name":"菅尾小学校（菅尾地域交流センター）",
"Jusho":"大分県豊後大野市三重町浅瀬3304番地",
"Capacity":"240",
"la":"33.01990800000",
"ln":"131.61579500000"
},
"geometry":{
"type":"Point",
"coordinates":[
131.615795,
33.019908
]
}
},
{
"type":"Feature",
"properties":{
"Name":"清川小学校",
"Jusho":"大分県豊後大野市清川町砂田1732番地",
"Capacity":"－",
"la":"32.96751200000",
"ln":"131.51409200000"
},
"geometry":{
"type":"Point",
"coordinates":[
131.514092,
32.967512
]
}
},
{
"type":"Feature",
"properties":{
"Name":"千歳小学校体育館",
"Jusho":"大分県豊後大野市千歳町新殿761番地1",
"Capacity":"－",
"la":"33.03826400000",
"ln":"131.59680200000"
},
"geometry":{
"type":"Point",
"coordinates":[
131.596802,
33.038264
]
}
},
{
"type":"Feature",
"properties":{
"Name":"大野小学校体育館",
"Jusho":"大分県豊後大野市大野町田中2261番地",
"Capacity":"420",
"la":"33.04195000000",
"ln":"131.50200800000"
},
"geometry":{
"type":"Point",
"coordinates":[
131.502008,
33.04195
]
}
},
{
"type":"Feature",
"properties":{
"Name":"百枝小学校",
"Jusho":"大分県豊後大野市三重町百枝1535番地1",
"Capacity":"169",
"la":"33.00141900000",
"ln":"131.57771300000"
},
"geometry":{
"type":"Point",
"coordinates":[
131.577713,
33.001419
]
}
},
{
"type":"Feature",
"properties":{
"Name":"阿蘇野小学校",
"Jusho":"大分県由布市庄内町阿蘇野4331",
"Capacity":"400",
"la":"33.13733700000",
"ln":"131.34594200000"
},
"geometry":{
"type":"Point",
"coordinates":[
131.345942,
33.137337
]
}
},
{
"type":"Feature",
"properties":{
"Name":"阿南小学校",
"Jusho":"大分県由布市庄内町東長宝523",
"Capacity":"500",
"la":"33.18624800000",
"ln":"131.45271900000"
},
"geometry":{
"type":"Point",
"coordinates":[
131.452719,
33.186248
]
}
},
{
"type":"Feature",
"properties":{
"Name":"星南小学校",
"Jusho":"大分県由布市庄内町西1061",
"Capacity":"300",
"la":"33.19011000000",
"ln":"131.37342900000"
},
"geometry":{
"type":"Point",
"coordinates":[
131.373429,
33.19011
]
}
},
{
"type":"Feature",
"properties":{
"Name":"西庄内小学校",
"Jusho":"大分県由布市庄内町高岡417-1",
"Capacity":"500",
"la":"33.18433800000",
"ln":"131.40975400000"
},
"geometry":{
"type":"Point",
"coordinates":[
131.409754,
33.184338
]
}
},
{
"type":"Feature",
"properties":{
"Name":"石城小学校",
"Jusho":"大分県由布市挾間町来鉢31-1",
"Capacity":"400",
"la":"33.22257500000",
"ln":"131.52361000000"
},
"geometry":{
"type":"Point",
"coordinates":[
131.52361,
33.222575
]
}
},
{
"type":"Feature",
"properties":{
"Name":"石城西部小学校",
"Jusho":"大分県由布市挾間町田代388",
"Capacity":"50",
"la":"33.22556900000",
"ln":"131.48518500000"
},
"geometry":{
"type":"Point",
"coordinates":[
131.485185,
33.225569
]
}
},
{
"type":"Feature",
"properties":{
"Name":"川西小学校",
"Jusho":"大分県由布市湯布院町川西3716",
"Capacity":"300",
"la":"33.23572300000",
"ln":"131.32416500000"
},
"geometry":{
"type":"Point",
"coordinates":[
131.324165,
33.235723
]
}
},
{
"type":"Feature",
"properties":{
"Name":"大津留小学校",
"Jusho":"大分県由布市庄内町東大津留635",
"Capacity":"400",
"la":"33.21142000000",
"ln":"131.44134200000"
},
"geometry":{
"type":"Point",
"coordinates":[
131.441342,
33.21142
]
}
},
{
"type":"Feature",
"properties":{
"Name":"谷小学校",
"Jusho":"大分県由布市挾間町谷699",
"Capacity":"400",
"la":"33.18633600000",
"ln":"131.49290100000"
},
"geometry":{
"type":"Point",
"coordinates":[
131.492901,
33.186336
]
}
},
{
"type":"Feature",
"properties":{
"Name":"塚原小学校体育館",
"Jusho":"大分県由布市湯布院町塚原513",
"Capacity":"150",
"la":"33.30659400000",
"ln":"131.38743900000"
},
"geometry":{
"type":"Point",
"coordinates":[
131.387439,
33.306594
]
}
},
{
"type":"Feature",
"properties":{
"Name":"東庄内小学校",
"Jusho":"大分県由布市庄内町大龍1835",
"Capacity":"500",
"la":"33.17659385400",
"ln":"131.43497808900"
},
"geometry":{
"type":"Point",
"coordinates":[
131.434978089,
33.176593854
]
}
},
{
"type":"Feature",
"properties":{
"Name":"湯平小学校",
"Jusho":"大分県由布市湯布院町湯平897-4",
"Capacity":"300",
"la":"33.19275700000",
"ln":"131.33920400000"
},
"geometry":{
"type":"Point",
"coordinates":[
131.339204,
33.192757
]
}
},
{
"type":"Feature",
"properties":{
"Name":"南庄内小学校",
"Jusho":"大分県由布市庄内町野畑1041",
"Capacity":"300",
"la":"33.17240300000",
"ln":"131.39959900000"
},
"geometry":{
"type":"Point",
"coordinates":[
131.399599,
33.172403
]
}
},
{
"type":"Feature",
"properties":{
"Name":"朴木小学校",
"Jusho":"大分県由布市挾間町朴木729-1",
"Capacity":"50",
"la":"33.21923200000",
"ln":"131.45769800000"
},
"geometry":{
"type":"Point",
"coordinates":[
131.457698,
33.219232
]
}
},
{
"type":"Feature",
"properties":{
"Name":"由布院小学校",
"Jusho":"大分県由布市湯布院町川上3757-1",
"Capacity":"500",
"la":"33.26393200000",
"ln":"131.35482600000"
},
"geometry":{
"type":"Point",
"coordinates":[
131.354826,
33.263932
]
}
},
{
"type":"Feature",
"properties":{
"Name":"由布川小学校",
"Jusho":"大分県由布市挾間町古野211-1",
"Capacity":"300",
"la":"33.21024900000",
"ln":"131.52932300000"
},
"geometry":{
"type":"Point",
"coordinates":[
131.529323,
33.210249
]
}
},
{
"type":"Feature",
"properties":{
"Name":"挾間小学校",
"Jusho":"大分県由布市挾間町向原89",
"Capacity":"450",
"la":"33.19870500000",
"ln":"131.51472500000"
},
"geometry":{
"type":"Point",
"coordinates":[
131.514725,
33.198705
]
}
},
{
"type":"Feature",
"properties":{
"Name":"旭日小学校",
"Jusho":"大分県国東市国東町綱井2980番地",
"Capacity":"800",
"la":"33.52953900000",
"ln":"131.72183200000"
},
"geometry":{
"type":"Point",
"coordinates":[
131.721832,
33.529539
]
}
},
{
"type":"Feature",
"properties":{
"Name":"安岐小学校",
"Jusho":"大分県国東市安岐町下原2071番地",
"Capacity":"1500",
"la":"33.46726200000",
"ln":"131.72027200000"
},
"geometry":{
"type":"Point",
"coordinates":[
131.720272,
33.467262
]
}
},
{
"type":"Feature",
"properties":{
"Name":"安岐中央小学校",
"Jusho":"大分県国東市安岐町中園210番地1",
"Capacity":"1500",
"la":"33.46375800000",
"ln":"131.69460700000"
},
"geometry":{
"type":"Point",
"coordinates":[
131.694607,
33.463758
]
}
},
{
"type":"Feature",
"properties":{
"Name":"伊美小学校体育館",
"Jusho":"大分県国東市国見町中850番地",
"Capacity":"800",
"la":"33.66732700000",
"ln":"131.59014700000"
},
"geometry":{
"type":"Point",
"coordinates":[
131.590147,
33.667327
]
}
},
{
"type":"Feature",
"properties":{
"Name":"旧朝来小学校体育館",
"Jusho":"大分県国東市安岐町朝来144番地",
"Capacity":"1500",
"la":"33.51113600000",
"ln":"131.61519900000"
},
"geometry":{
"type":"Point",
"coordinates":[
131.615199,
33.511136
]
}
},
{
"type":"Feature",
"properties":{
"Name":"旧上国崎小学校体育館",
"Jusho":"大分県国東市国東町見地1304番地",
"Capacity":"600",
"la":"33.59098999910",
"ln":"131.66490000000"
},
"geometry":{
"type":"Point",
"coordinates":[
131.6649,
33.5909899991
]
}
},
{
"type":"Feature",
"properties":{
"Name":"旧大恩小学校",
"Jusho":"大分県国東市国東町大恩寺322番地",
"Capacity":"700",
"la":"33.60426999910",
"ln":"131.67061200000"
},
"geometry":{
"type":"Point",
"coordinates":[
131.670612,
33.6042699991
]
}
},
{
"type":"Feature",
"properties":{
"Name":"旧豊崎小学校",
"Jusho":"大分県国東市国東町横手305番地2",
"Capacity":"800",
"la":"33.57454300000",
"ln":"131.67534900000"
},
"geometry":{
"type":"Point",
"coordinates":[
131.675349,
33.574543
]
}
},
{
"type":"Feature",
"properties":{
"Name":"国東小学校",
"Jusho":"大分県国東市国東町安国寺623番地2",
"Capacity":"2300",
"la":"33.56174200000",
"ln":"131.72930100000"
},
"geometry":{
"type":"Point",
"coordinates":[
131.729301,
33.561742
]
}
},
{
"type":"Feature",
"properties":{
"Name":"小原小学校",
"Jusho":"大分県国東市国東町小原1468番地",
"Capacity":"800",
"la":"33.55002400000",
"ln":"131.72231900000"
},
"geometry":{
"type":"Point",
"coordinates":[
131.722319,
33.550024
]
}
},
{
"type":"Feature",
"properties":{
"Name":"富来小学校",
"Jusho":"大分県国東市国東町富来浦677番地1",
"Capacity":"1200",
"la":"33.60843700000",
"ln":"131.70151700000"
},
"geometry":{
"type":"Point",
"coordinates":[
131.701517,
33.608437
]
}
},
{
"type":"Feature",
"properties":{
"Name":"武蔵西小学校",
"Jusho":"大分県国東市武蔵町麻田49番地",
"Capacity":"200",
"la":"33.52259400000",
"ln":"131.68409100000"
},
"geometry":{
"type":"Point",
"coordinates":[
131.684091,
33.522594
]
}
},
{
"type":"Feature",
"properties":{
"Name":"姫島小学校校舎",
"Jusho":"大分県東国東郡姫島村1603番地",
"Capacity":"609",
"la":"33.72526499910",
"ln":"131.64478100000"
},
"geometry":{
"type":"Point",
"coordinates":[
131.644781,
33.7252649991
]
}
},
{
"type":"Feature",
"properties":{
"Name":"川崎小学校",
"Jusho":"大分県速見郡日出町大字川崎1082",
"Capacity":"－",
"la":"33.36980700000",
"ln":"131.55041500000"
},
"geometry":{
"type":"Point",
"coordinates":[
131.550415,
33.369807
]
}
},
{
"type":"Feature",
"properties":{
"Name":"大神小学校",
"Jusho":"大分県速見郡日出町大字大神3139",
"Capacity":"－",
"la":"33.37075200000",
"ln":"131.57499600000"
},
"geometry":{
"type":"Point",
"coordinates":[
131.574996,
33.370752
]
}
},
{
"type":"Feature",
"properties":{
"Name":"藤原小学校",
"Jusho":"大分県速見郡日出町大字藤原5266-2",
"Capacity":"－",
"la":"33.39102700000",
"ln":"131.55016400000"
},
"geometry":{
"type":"Point",
"coordinates":[
131.550164,
33.391027
]
}
},
{
"type":"Feature",
"properties":{
"Name":"南端小学校",
"Jusho":"大分県速見郡日出町南畑1210-8",
"Capacity":"－",
"la":"33.35661099910",
"ln":"131.45886900000"
},
"geometry":{
"type":"Point",
"coordinates":[
131.458869,
33.3566109991
]
}
},
{
"type":"Feature",
"properties":{
"Name":"日出小学校",
"Jusho":"大分県速見郡日出町2610-1",
"Capacity":"－",
"la":"33.36761400000",
"ln":"131.53127600000"
},
"geometry":{
"type":"Point",
"coordinates":[
131.531276,
33.367614
]
}
},
{
"type":"Feature",
"properties":{
"Name":"豊岡小学校",
"Jusho":"大分県速見郡日出町大字豊岡3354-1",
"Capacity":"－",
"la":"33.36597300000",
"ln":"131.50553100000"
},
"geometry":{
"type":"Point",
"coordinates":[
131.505531,
33.365973
]
}
},
{
"type":"Feature",
"properties":{
"Name":"九重町立東飯田小学校",
"Jusho":"大分県玖珠郡九重町大字恵良938",
"Capacity":"－",
"la":"33.25875699910",
"ln":"131.17992100000"
},
"geometry":{
"type":"Point",
"coordinates":[
131.179921,
33.2587569991
]
}
},
{
"type":"Feature",
"properties":{
"Name":"九重町立南山田小学校",
"Jusho":"大分県玖珠郡九重町大字町田609",
"Capacity":"－",
"la":"33.21987100000",
"ln":"131.17306200000"
},
"geometry":{
"type":"Point",
"coordinates":[
131.173062,
33.219871
]
}
},
{
"type":"Feature",
"properties":{
"Name":"九重町立飯田小学校",
"Jusho":"大分県玖珠郡九重町大字田野1617",
"Capacity":"－",
"la":"33.15943300000",
"ln":"131.22175400000"
},
"geometry":{
"type":"Point",
"coordinates":[
131.221754,
33.159433
]
}
},
{
"type":"Feature",
"properties":{
"Name":"九重町立野上小学校",
"Jusho":"大分県玖珠郡九重町大字野上17の1",
"Capacity":"－",
"la":"33.22537200000",
"ln":"131.20161500000"
},
"geometry":{
"type":"Point",
"coordinates":[
131.201615,
33.225372
]
}
},
{
"type":"Feature",
"properties":{
"Name":"九重町立野矢小学校",
"Jusho":"大分県玖珠郡九重町大字野上3460",
"Capacity":"－",
"la":"33.23887100000",
"ln":"131.26249800000"
},
"geometry":{
"type":"Point",
"coordinates":[
131.262498,
33.238871
]
}
},
{
"type":"Feature",
"properties":{
"Name":"九重町立淮園小学校",
"Jusho":"大分県玖珠郡九重町大字菅原1274",
"Capacity":"－",
"la":"33.19392800000",
"ln":"131.15931500000"
},
"geometry":{
"type":"Point",
"coordinates":[
131.159315,
33.193928
]
}
},
{
"type":"Feature",
"properties":{
"Name":"九重町立淮園小学校栗原分校",
"Jusho":"大分県玖珠郡九重町大字町田3642",
"Capacity":"－",
"la":"33.18068100000",
"ln":"131.20570100000"
},
"geometry":{
"type":"Point",
"coordinates":[
131.205701,
33.180681
]
}
},
{
"type":"Feature",
"properties":{
"Name":"古後小学校",
"Jusho":"大分県玖珠郡玖珠町大字古後1611-1",
"Capacity":"500",
"la":"33.36642766230",
"ln":"131.09356597100"
},
"geometry":{
"type":"Point",
"coordinates":[
131.093565971,
33.3664276623
]
}
},
{
"type":"Feature",
"properties":{
"Name":"森中央小学校相の迫分校",
"Jusho":"大分県玖珠郡玖珠町大字岩室2085",
"Capacity":"100",
"la":"33.30655800000",
"ln":"131.19180700000"
},
"geometry":{
"type":"Point",
"coordinates":[
131.191807,
33.306558
]
}
},
{
"type":"Feature",
"properties":{
"Name":"塚脇小学校",
"Jusho":"大分県玖珠郡玖珠町大字塚脇198",
"Capacity":"1000",
"la":"33.27506000000",
"ln":"131.15125500000"
},
"geometry":{
"type":"Point",
"coordinates":[
131.151255,
33.27506
]
}
},
{
"type":"Feature",
"properties":{
"Name":"北山田小学校",
"Jusho":"大分県玖珠郡玖珠町大字戸畑2861",
"Capacity":"500",
"la":"33.28467000000",
"ln":"131.09525900000"
},
"geometry":{
"type":"Point",
"coordinates":[
131.095259,
33.28467
]
}
},
{
"type":"Feature",
"properties":{
"Name":"今津中学校",
"Jusho":"大分県中津市植野1889-2",
"Capacity":"330",
"la":"33.56884800000",
"ln":"131.26703100000"
},
"geometry":{
"type":"Point",
"coordinates":[
131.267031,
33.568848
]
}
},
{
"type":"Feature",
"properties":{
"Name":"城北中学校",
"Jusho":"大分県中津市小祝525-11",
"Capacity":"368",
"la":"33.61294200000",
"ln":"131.18888200000"
},
"geometry":{
"type":"Point",
"coordinates":[
131.188882,
33.612942
]
}
},
{
"type":"Feature",
"properties":{
"Name":"中津中学校",
"Jusho":"大分県中津市牛神459-2",
"Capacity":"816",
"la":"33.59525000000",
"ln":"131.20221500000"
},
"geometry":{
"type":"Point",
"coordinates":[
131.202215,
33.59525
]
}
},
{
"type":"Feature",
"properties":{
"Name":"東中津中学校",
"Jusho":"大分県中津市是則845",
"Capacity":"367",
"la":"33.58802900000",
"ln":"131.23490600000"
},
"geometry":{
"type":"Point",
"coordinates":[
131.234906,
33.588029
]
}
},
{
"type":"Feature",
"properties":{
"Name":"豊陽中学校",
"Jusho":"大分県中津市中央町1丁目4-50",
"Capacity":"1077",
"la":"33.59308300000",
"ln":"131.19382700000"
},
"geometry":{
"type":"Point",
"coordinates":[
131.193827,
33.593083
]
}
},
{
"type":"Feature",
"properties":{
"Name":"本耶馬渓中学校",
"Jusho":"大分県中津市本耶馬渓町跡田212",
"Capacity":"140",
"la":"33.48834300000",
"ln":"131.17461100000"
},
"geometry":{
"type":"Point",
"coordinates":[
131.174611,
33.488343
]
}
},
{
"type":"Feature",
"properties":{
"Name":"耶馬溪中学校",
"Jusho":"大分県中津市耶馬溪町大字柿坂684",
"Capacity":"918",
"la":"33.44767700000",
"ln":"131.11880500000"
},
"geometry":{
"type":"Point",
"coordinates":[
131.118805,
33.447677
]
}
},
{
"type":"Feature",
"properties":{
"Name":"緑ヶ丘中学校",
"Jusho":"大分県中津市永添2454-1",
"Capacity":"139",
"la":"33.56997500000",
"ln":"131.21029800000"
},
"geometry":{
"type":"Point",
"coordinates":[
131.210298,
33.569975
]
}
},
{
"type":"Feature",
"properties":{
"Name":"王子中学校体育館",
"Jusho":"大分県大分市南春日町6番1号",
"Capacity":"1860",
"la":"33.23629400000",
"ln":"131.59430100000"
},
"geometry":{
"type":"Point",
"coordinates":[
131.594301,
33.236294
]
}
},
{
"type":"Feature",
"properties":{
"Name":"賀来中学校体育館",
"Jusho":"大分県大分市大字賀来101番地の3",
"Capacity":"981",
"la":"33.20623900000",
"ln":"131.56022100000"
},
"geometry":{
"type":"Point",
"coordinates":[
131.560221,
33.206239
]
}
},
{
"type":"Feature",
"properties":{
"Name":"吉野中学校体育館",
"Jusho":"大分県大分市大字辻812番地",
"Capacity":"886",
"la":"33.11150400000",
"ln":"131.69421100000"
},
"geometry":{
"type":"Point",
"coordinates":[
131.694211,
33.111504
]
}
},
{
"type":"Feature",
"properties":{
"Name":"旧一尺屋中学校",
"Jusho":"大分県大分市大字一尺屋2357",
"Capacity":"－",
"la":"33.20098044820",
"ln":"131.85782729000"
},
"geometry":{
"type":"Point",
"coordinates":[
131.85782729,
33.2009804482
]
}
},
{
"type":"Feature",
"properties":{
"Name":"原川中学校体育館",
"Jusho":"大分県大分市寺崎町1丁目10番1号",
"Capacity":"980",
"la":"33.24698900000",
"ln":"131.66465500000"
},
"geometry":{
"type":"Point",
"coordinates":[
131.664655,
33.246989
]
}
},
{
"type":"Feature",
"properties":{
"Name":"戸次中学校体育館",
"Jusho":"大分県大分市大字中戸次4508番地の1",
"Capacity":"981",
"la":"33.15561600000",
"ln":"131.65787800000"
},
"geometry":{
"type":"Point",
"coordinates":[
131.657878,
33.155616
]
}
},
{
"type":"Feature",
"properties":{
"Name":"佐賀関中学校体育館",
"Jusho":"大分県大分市大字佐賀関2の115番地の2",
"Capacity":"1000",
"la":"33.24905900000",
"ln":"131.86342400000"
},
"geometry":{
"type":"Point",
"coordinates":[
131.863424,
33.249059
]
}
},
{
"type":"Feature",
"properties":{
"Name":"坂ノ市中学校体育館",
"Jusho":"大分県大分市坂ノ市南2丁目9番72号",
"Capacity":"1098",
"la":"33.22831100000",
"ln":"131.75093400000"
},
"geometry":{
"type":"Point",
"coordinates":[
131.750934,
33.228311
]
}
},
{
"type":"Feature",
"properties":{
"Name":"上野ヶ丘中学校体育館",
"Jusho":"大分県大分市上野町4番5号",
"Capacity":"1209",
"la":"33.22810100000",
"ln":"131.61241100000"
},
"geometry":{
"type":"Point",
"coordinates":[
131.612411,
33.228101
]
}
},
{
"type":"Feature",
"properties":{
"Name":"城東中学校体育館",
"Jusho":"大分県大分市牧上町14番19号",
"Capacity":"1476",
"la":"33.23929400000",
"ln":"131.64571300000"
},
"geometry":{
"type":"Point",
"coordinates":[
131.645713,
33.239294
]
}
},
{
"type":"Feature",
"properties":{
"Name":"城南中学校体育館",
"Jusho":"大分県大分市大字荏隈754番地の19",
"Capacity":"1014",
"la":"33.21271200000",
"ln":"131.57897000000"
},
"geometry":{
"type":"Point",
"coordinates":[
131.57897,
33.212712
]
}
},
{
"type":"Feature",
"properties":{
"Name":"碩田中学校体育館",
"Jusho":"大分県大分市碩田町2丁目5番60号",
"Capacity":"1209",
"la":"33.24759900000",
"ln":"131.61099400000"
},
"geometry":{
"type":"Point",
"coordinates":[
131.610994,
33.247599
]
}
},
{
"type":"Feature",
"properties":{
"Name":"大在中学校体育館",
"Jusho":"大分県大分市大字政所2602番地の12",
"Capacity":"981",
"la":"33.23418700000",
"ln":"131.72137300000"
},
"geometry":{
"type":"Point",
"coordinates":[
131.721373,
33.234187
]
}
},
{
"type":"Feature",
"properties":{
"Name":"大東中学校体育館",
"Jusho":"大分県大分市大字横尾2843番地の4",
"Capacity":"980",
"la":"33.20993800000",
"ln":"131.67587800000"
},
"geometry":{
"type":"Point",
"coordinates":[
131.675878,
33.209938
]
}
},
{
"type":"Feature",
"properties":{
"Name":"大分西中学校体育館",
"Jusho":"大分県大分市高崎2丁目20番1号",
"Capacity":"1009",
"la":"33.23498900000",
"ln":"131.57809800000"
},
"geometry":{
"type":"Point",
"coordinates":[
131.578098,
33.234989
]
}
},
{
"type":"Feature",
"properties":{
"Name":"滝尾中学校体育館",
"Jusho":"大分県大分市羽田349",
"Capacity":"1020",
"la":"33.21482500000",
"ln":"131.63352000000"
},
"geometry":{
"type":"Point",
"coordinates":[
131.63352,
33.214825
]
}
},
{
"type":"Feature",
"properties":{
"Name":"竹中中学校体育館",
"Jusho":"大分県大分市大字竹中3621番地",
"Capacity":"886",
"la":"33.13361100000",
"ln":"131.65079800000"
},
"geometry":{
"type":"Point",
"coordinates":[
131.650798,
33.133611
]
}
},
{
"type":"Feature",
"properties":{
"Name":"鶴崎中学校体育館",
"Jusho":"大分県大分市大字皆春1200番地の1",
"Capacity":"1209",
"la":"33.23660200000",
"ln":"131.68723700000"
},
"geometry":{
"type":"Point",
"coordinates":[
131.687237,
33.236602
]
}
},
{
"type":"Feature",
"properties":{
"Name":"南大分中学校体育館",
"Jusho":"大分県大分市大字奥田754番地の1",
"Capacity":"1020",
"la":"33.21487900000",
"ln":"131.59496800000"
},
"geometry":{
"type":"Point",
"coordinates":[
131.594968,
33.214879
]
}
},
{
"type":"Feature",
"properties":{
"Name":"判田中学校体育館",
"Jusho":"大分県大分市大字中判田2254番地",
"Capacity":"1138",
"la":"33.16546800000",
"ln":"131.63327100000"
},
"geometry":{
"type":"Point",
"coordinates":[
131.633271,
33.165468
]
}
},
{
"type":"Feature",
"properties":{
"Name":"明野中学校体育館",
"Jusho":"大分県大分市明野南3丁目7番1号",
"Capacity":"1053",
"la":"33.21832500000",
"ln":"131.65182400000"
},
"geometry":{
"type":"Point",
"coordinates":[
131.651824,
33.218325
]
}
},
{
"type":"Feature",
"properties":{
"Name":"野津原中学校体育館",
"Jusho":"大分県大分市大字野津原2978番地の13",
"Capacity":"869",
"la":"33.15474300000",
"ln":"131.52255800000"
},
"geometry":{
"type":"Point",
"coordinates":[
131.522558,
33.154743
]
}
},
{
"type":"Feature",
"properties":{
"Name":"稙田西中学校体育館",
"Jusho":"大分県大分市大字田原378番地",
"Capacity":"886",
"la":"33.19040700000",
"ln":"131.56036000000"
},
"geometry":{
"type":"Point",
"coordinates":[
131.56036,
33.190407
]
}
},
{
"type":"Feature",
"properties":{
"Name":"稙田東中学校体育館",
"Jusho":"大分県大分市大字寒田1369番地の1",
"Capacity":"886",
"la":"33.18007700000",
"ln":"131.61121700000"
},
"geometry":{
"type":"Point",
"coordinates":[
131.611217,
33.180077
]
}
},
{
"type":"Feature",
"properties":{
"Name":"稙田南中学校体育館",
"Jusho":"大分県大分市田尻123-1",
"Capacity":"780",
"la":"33.18968700000",
"ln":"131.59552400000"
},
"geometry":{
"type":"Point",
"coordinates":[
131.595524,
33.189687
]
}
},
{
"type":"Feature",
"properties":{
"Name":"山の手中学校体育館",
"Jusho":"大分県別府市山の手町1-53",
"Capacity":"377",
"la":"33.28031400000",
"ln":"131.48825600000"
},
"geometry":{
"type":"Point",
"coordinates":[
131.488256,
33.280314
]
}
},
{
"type":"Feature",
"properties":{
"Name":"青山中学校体育館",
"Jusho":"大分県別府市大字別府3088-1",
"Capacity":"431",
"la":"33.28853600000",
"ln":"131.48306100000"
},
"geometry":{
"type":"Point",
"coordinates":[
131.483061,
33.288536
]
}
},
{
"type":"Feature",
"properties":{
"Name":"中部中学校体育館",
"Jusho":"大分県別府市大字鶴見4530-1",
"Capacity":"510",
"la":"33.29264600000",
"ln":"131.49006100000"
},
"geometry":{
"type":"Point",
"coordinates":[
131.490061,
33.292646
]
}
},
{
"type":"Feature",
"properties":{
"Name":"朝日中学校体育館",
"Jusho":"大分県別府市大字鶴見950-5",
"Capacity":"376",
"la":"33.31089500000",
"ln":"131.46617400000"
},
"geometry":{
"type":"Point",
"coordinates":[
131.466174,
33.310895
]
}
},
{
"type":"Feature",
"properties":{
"Name":"鶴見台中学校体育館",
"Jusho":"大分県別府市大字鶴見3682-3",
"Capacity":"510",
"la":"33.29972900000",
"ln":"131.48903300000"
},
"geometry":{
"type":"Point",
"coordinates":[
131.489033,
33.299729
]
}
},
{
"type":"Feature",
"properties":{
"Name":"東山小中学校",
"Jusho":"大分県別府市大字別府4380-1",
"Capacity":"799",
"la":"33.26718799910",
"ln":"131.44930100000"
},
"geometry":{
"type":"Point",
"coordinates":[
131.449301,
33.2671879991
]
}
},
{
"type":"Feature",
"properties":{
"Name":"浜脇中学校体育館",
"Jusho":"大分県別府市大字浜脇1208番",
"Capacity":"472",
"la":"33.26770400000",
"ln":"131.50789300000"
},
"geometry":{
"type":"Point",
"coordinates":[
131.507893,
33.267704
]
}
},
{
"type":"Feature",
"properties":{
"Name":"北部中学校体育館",
"Jusho":"大分県別府市大字亀川231",
"Capacity":"453",
"la":"33.32611500000",
"ln":"131.48814400000"
},
"geometry":{
"type":"Point",
"coordinates":[
131.488144,
33.326115
]
}
},
{
"type":"Feature",
"properties":{
"Name":"戸山中学校",
"Jusho":"大分県日田市藤山町213-1",
"Capacity":"6636",
"la":"33.36178900000",
"ln":"130.95812800000"
},
"geometry":{
"type":"Point",
"coordinates":[
130.958128,
33.361789
]
}
},
{
"type":"Feature",
"properties":{
"Name":"五馬中学校",
"Jusho":"大分県日田市天瀬町塚田169",
"Capacity":"5144",
"la":"33.21940000000",
"ln":"131.02712000000"
},
"geometry":{
"type":"Point",
"coordinates":[
131.02712,
33.2194
]
}
},
{
"type":"Feature",
"properties":{
"Name":"三隈中学校",
"Jusho":"大分県日田市亀川町402-1",
"Capacity":"11452",
"la":"33.31522200000",
"ln":"130.91535900000"
},
"geometry":{
"type":"Point",
"coordinates":[
130.915359,
33.315222
]
}
},
{
"type":"Feature",
"properties":{
"Name":"前津江中学校",
"Jusho":"大分県日田市前津江町大野2212",
"Capacity":"3477",
"la":"33.21167300000",
"ln":"130.91692400000"
},
"geometry":{
"type":"Point",
"coordinates":[
130.916924,
33.211673
]
}
},
{
"type":"Feature",
"properties":{
"Name":"大山中学校",
"Jusho":"大分県日田市大山町西大山4267",
"Capacity":"5505",
"la":"33.24391900000",
"ln":"130.97673300000"
},
"geometry":{
"type":"Point",
"coordinates":[
130.976733,
33.243919
]
}
},
{
"type":"Feature",
"properties":{
"Name":"大明中学校",
"Jusho":"大分県日田市大肥町1701",
"Capacity":"6758",
"la":"33.36491200000",
"ln":"130.88294000000"
},
"geometry":{
"type":"Point",
"coordinates":[
130.88294,
33.364912
]
}
},
{
"type":"Feature",
"properties":{
"Name":"津江中学校",
"Jusho":"大分県日田市中津江村栃野4341",
"Capacity":"7075",
"la":"33.13982000000",
"ln":"130.97141300000"
},
"geometry":{
"type":"Point",
"coordinates":[
130.971413,
33.13982
]
}
},
{
"type":"Feature",
"properties":{
"Name":"東渓中学校",
"Jusho":"大分県日田市天瀬町馬原2276",
"Capacity":"10303",
"la":"33.28805700000",
"ln":"131.00505000000"
},
"geometry":{
"type":"Point",
"coordinates":[
131.00505,
33.288057
]
}
},
{
"type":"Feature",
"properties":{
"Name":"東部中学校",
"Jusho":"大分県日田市田島二丁目12-8",
"Capacity":"4893",
"la":"33.31749700000",
"ln":"130.94399300000"
},
"geometry":{
"type":"Point",
"coordinates":[
130.943993,
33.317497
]
}
},
{
"type":"Feature",
"properties":{
"Name":"東有田中学校",
"Jusho":"大分県日田市諸留町488-2",
"Capacity":"5612",
"la":"33.33115100000",
"ln":"130.98322400000"
},
"geometry":{
"type":"Point",
"coordinates":[
130.983224,
33.331151
]
}
},
{
"type":"Feature",
"properties":{
"Name":"南部中学校",
"Jusho":"大分県日田市銭渕町288",
"Capacity":"6655",
"la":"33.30702000000",
"ln":"130.93117800000"
},
"geometry":{
"type":"Point",
"coordinates":[
130.931178,
33.30702
]
}
},
{
"type":"Feature",
"properties":{
"Name":"北部中学校",
"Jusho":"大分県日田市上手町148-1",
"Capacity":"7423",
"la":"33.33601100000",
"ln":"130.94646000000"
},
"geometry":{
"type":"Point",
"coordinates":[
130.94646,
33.336011
]
}
},
{
"type":"Feature",
"properties":{
"Name":"宇目緑豊中学校",
"Jusho":"大分県佐伯市宇目大字千束1560-1",
"Capacity":"300",
"la":"32.85842500000",
"ln":"131.67067800000"
},
"geometry":{
"type":"Point",
"coordinates":[
131.670678,
32.858425
]
}
},
{
"type":"Feature",
"properties":{
"Name":"旧下入津中学校",
"Jusho":"大分県佐伯市蒲江大字西野浦",
"Capacity":"300",
"la":"32.82543707240",
"ln":"131.97691539500"
},
"geometry":{
"type":"Point",
"coordinates":[
131.976915395,
32.8254370724
]
}
},
{
"type":"Feature",
"properties":{
"Name":"旧中学校",
"Jusho":"大分県佐伯市鶴見大字大島",
"Capacity":"－",
"la":"32.96527346600",
"ln":"132.07109488400"
},
"geometry":{
"type":"Point",
"coordinates":[
132.071094884,
32.965273466
]
}
},
{
"type":"Feature",
"properties":{
"Name":"旧東中浦中学校",
"Jusho":"大分県佐伯市鶴見大字梶寄浦",
"Capacity":"－",
"la":"32.94300579620",
"ln":"132.06747027600"
},
"geometry":{
"type":"Point",
"coordinates":[
132.067470276,
32.9430057962
]
}
},
{
"type":"Feature",
"properties":{
"Name":"旧名護屋中学校",
"Jusho":"大分県佐伯市蒲江大字丸市尾浦",
"Capacity":"－",
"la":"32.79289077170",
"ln":"131.87751701700"
},
"geometry":{
"type":"Point",
"coordinates":[
131.877517017,
32.7928907717
]
}
},
{
"type":"Feature",
"properties":{
"Name":"昭和中学校",
"Jusho":"大分県佐伯市弥生大字井崎781",
"Capacity":"1000",
"la":"32.96887800000",
"ln":"131.84214400000"
},
"geometry":{
"type":"Point",
"coordinates":[
131.842144,
32.968878
]
}
},
{
"type":"Feature",
"properties":{
"Name":"城南中学校体育館",
"Jusho":"大分県佐伯市城南町17-1",
"Capacity":"1000",
"la":"32.95499700000",
"ln":"131.88903300000"
},
"geometry":{
"type":"Point",
"coordinates":[
131.889033,
32.954997
]
}
},
{
"type":"Feature",
"properties":{
"Name":"大島中学校",
"Jusho":"大分県佐伯市鶴見大字大島617-1",
"Capacity":"－",
"la":"32.96662900000",
"ln":"132.07185900000"
},
"geometry":{
"type":"Point",
"coordinates":[
132.071859,
32.966629
]
}
},
{
"type":"Feature",
"properties":{
"Name":"大入島中学校体育館",
"Jusho":"大分県佐伯市大字久保浦1088",
"Capacity":"470",
"la":"32.99639499910",
"ln":"131.92372900000"
},
"geometry":{
"type":"Point",
"coordinates":[
131.923729,
32.9963949991
]
}
},
{
"type":"Feature",
"properties":{
"Name":"直川中学校",
"Jusho":"大分県佐伯市直川大字上直見501",
"Capacity":"200",
"la":"32.89700900000",
"ln":"131.77613700000"
},
"geometry":{
"type":"Point",
"coordinates":[
131.776137,
32.897009
]
}
},
{
"type":"Feature",
"properties":{
"Name":"鶴見中学校",
"Jusho":"大分県佐伯市鶴見大字沖松浦448",
"Capacity":"－",
"la":"32.94145500000",
"ln":"131.96537700000"
},
"geometry":{
"type":"Point",
"coordinates":[
131.965377,
32.941455
]
}
},
{
"type":"Feature",
"properties":{
"Name":"鶴谷中学校体育館",
"Jusho":"大分県佐伯市長島町1丁目1-1",
"Capacity":"1220",
"la":"32.96274700000",
"ln":"131.90442000000"
},
"geometry":{
"type":"Point",
"coordinates":[
131.90442,
32.962747
]
}
},
{
"type":"Feature",
"properties":{
"Name":"東雲中学校",
"Jusho":"大分県佐伯市上浦大字浅海井浦2",
"Capacity":"1350",
"la":"33.04534900000",
"ln":"131.92558200000"
},
"geometry":{
"type":"Point",
"coordinates":[
131.925582,
33.045349
]
}
},
{
"type":"Feature",
"properties":{
"Name":"南中学校体育館",
"Jusho":"大分県佐伯市大字長谷9914-1",
"Capacity":"1000",
"la":"32.93672100000",
"ln":"131.88728400000"
},
"geometry":{
"type":"Point",
"coordinates":[
131.887284,
32.936721
]
}
},
{
"type":"Feature",
"properties":{
"Name":"彦陽中学校体育館",
"Jusho":"大分県佐伯市大字戸穴2925",
"Capacity":"770",
"la":"33.00498700000",
"ln":"131.89272500000"
},
"geometry":{
"type":"Point",
"coordinates":[
131.892725,
33.004987
]
}
},
{
"type":"Feature",
"properties":{
"Name":"米水津中学校",
"Jusho":"大分県佐伯市米水津大字浦代浦1707-3",
"Capacity":"1730",
"la":"32.91671900000",
"ln":"131.98061100000"
},
"geometry":{
"type":"Point",
"coordinates":[
131.980611,
32.916719
]
}
},
{
"type":"Feature",
"properties":{
"Name":"本匠中学校",
"Jusho":"大分県佐伯市本匠大字笠掛1568",
"Capacity":"－",
"la":"32.95459899910",
"ln":"131.80171900000"
},
"geometry":{
"type":"Point",
"coordinates":[
131.801719,
32.9545989991
]
}
},
{
"type":"Feature",
"properties":{
"Name":"旧宮本中学校",
"Jusho":"大分県臼杵市大字東神野3403",
"Capacity":"－",
"la":"33.03990200000",
"ln":"131.77415100000"
},
"geometry":{
"type":"Point",
"coordinates":[
131.774151,
33.039902
]
}
},
{
"type":"Feature",
"properties":{
"Name":"旧深江中学校",
"Jusho":"大分県臼杵市大字深江1512",
"Capacity":"－",
"la":"33.12178600000",
"ln":"131.88014000000"
},
"geometry":{
"type":"Point",
"coordinates":[
131.88014,
33.121786
]
}
},
{
"type":"Feature",
"properties":{
"Name":"西中学校",
"Jusho":"大分県臼杵市大字戸室535",
"Capacity":"3260",
"la":"33.11939400000",
"ln":"131.78603700000"
},
"geometry":{
"type":"Point",
"coordinates":[
131.786037,
33.119394
]
}
},
{
"type":"Feature",
"properties":{
"Name":"東中学校",
"Jusho":"大分県臼杵市大字臼杵71-18",
"Capacity":"3991",
"la":"33.12550200000",
"ln":"131.80352000000"
},
"geometry":{
"type":"Point",
"coordinates":[
131.80352,
33.125502
]
}
},
{
"type":"Feature",
"properties":{
"Name":"南中学校",
"Jusho":"大分県臼杵市大字掻懐2227",
"Capacity":"6143",
"la":"33.09722900000",
"ln":"131.74954100000"
},
"geometry":{
"type":"Point",
"coordinates":[
131.749541,
33.097229
]
}
},
{
"type":"Feature",
"properties":{
"Name":"北中学校",
"Jusho":"大分県臼杵市大字江無田132-1",
"Capacity":"6362",
"la":"33.13079600000",
"ln":"131.78994700000"
},
"geometry":{
"type":"Point",
"coordinates":[
131.789947,
33.130796
]
}
},
{
"type":"Feature",
"properties":{
"Name":"野津中学校",
"Jusho":"大分県臼杵市大字野津市666",
"Capacity":"11254",
"la":"33.03674800000",
"ln":"131.68712600000"
},
"geometry":{
"type":"Point",
"coordinates":[
131.687126,
33.036748
]
}
},
{
"type":"Feature",
"properties":{
"Name":"井無田第二中学校奥",
"Jusho":"大分県津久見市",
"Capacity":"－",
"la":"33.07368800000",
"ln":"131.85299600000"
},
"geometry":{
"type":"Point",
"coordinates":[
131.852996,
33.073688
]
}
},
{
"type":"Feature",
"properties":{
"Name":"旧四浦東中学校",
"Jusho":"大分県津久見市四浦3968",
"Capacity":"530",
"la":"33.06969700000",
"ln":"131.98944300000"
},
"geometry":{
"type":"Point",
"coordinates":[
131.989443,
33.069697
]
}
},
{
"type":"Feature",
"properties":{
"Name":"第一中学校",
"Jusho":"大分県津久見市文京町1-6",
"Capacity":"1850",
"la":"33.06876400000",
"ln":"131.86506000000"
},
"geometry":{
"type":"Point",
"coordinates":[
131.86506,
33.068764
]
}
},
{
"type":"Feature",
"properties":{
"Name":"第二中学校",
"Jusho":"大分県津久見市元町11-29",
"Capacity":"1300",
"la":"33.07445700000",
"ln":"131.85364400000"
},
"geometry":{
"type":"Point",
"coordinates":[
131.853644,
33.074457
]
}
},
{
"type":"Feature",
"properties":{
"Name":"日代中学校",
"Jusho":"大分県津久見市網代1535-2",
"Capacity":"720",
"la":"33.06878400000",
"ln":"131.91811100000"
},
"geometry":{
"type":"Point",
"coordinates":[
131.918111,
33.068784
]
}
},
{
"type":"Feature",
"properties":{
"Name":"保戸島小中学校",
"Jusho":"大分県津久見市保戸島21-2",
"Capacity":"1020",
"la":"33.10040300000",
"ln":"132.00660100000"
},
"geometry":{
"type":"Point",
"coordinates":[
132.006601,
33.100403
]
}
},
{
"type":"Feature",
"properties":{
"Name":"無垢島小中学校",
"Jusho":"大分県津久見市長目2648-2",
"Capacity":"250",
"la":"33.16053000000",
"ln":"131.97962800000"
},
"geometry":{
"type":"Point",
"coordinates":[
131.979628,
33.16053
]
}
},
{
"type":"Feature",
"properties":{
"Name":"久住中学校体育館",
"Jusho":"大分県竹田市久住町大字白丹1525",
"Capacity":"100",
"la":"33.00948299910",
"ln":"131.28476900000"
},
"geometry":{
"type":"Point",
"coordinates":[
131.284769,
33.0094829991
]
}
},
{
"type":"Feature",
"properties":{
"Name":"竹田中学校体育館",
"Jusho":"大分県竹田市大字会-3423-1",
"Capacity":"200",
"la":"32.98222899910",
"ln":"131.38877000000"
},
"geometry":{
"type":"Point",
"coordinates":[
131.38877,
32.9822289991
]
}
},
{
"type":"Feature",
"properties":{
"Name":"竹田南部中学校体育館",
"Jusho":"大分県竹田市大字君ケ園1680",
"Capacity":"200",
"la":"32.94875999910",
"ln":"131.36027300000"
},
"geometry":{
"type":"Point",
"coordinates":[
131.360273,
32.9487599991
]
}
},
{
"type":"Feature",
"properties":{
"Name":"直入中学校体育館",
"Jusho":"大分県竹田市直入町大字長湯8518番地1",
"Capacity":"100",
"la":"33.08410014230",
"ln":"131.39257212800"
},
"geometry":{
"type":"Point",
"coordinates":[
131.392572128,
33.0841001423
]
}
},
{
"type":"Feature",
"properties":{
"Name":"都野中学校体育館",
"Jusho":"大分県竹田市久住町大字栢木6049-1",
"Capacity":"100",
"la":"33.05600799910",
"ln":"131.32577900000"
},
"geometry":{
"type":"Point",
"coordinates":[
131.325779,
33.0560079991
]
}
},
{
"type":"Feature",
"properties":{
"Name":"緑ヶ丘中学校",
"Jusho":"大分県竹田市荻町馬場861",
"Capacity":"200",
"la":"32.93010800000",
"ln":"131.29478000000"
},
"geometry":{
"type":"Point",
"coordinates":[
131.29478,
32.930108
]
}
},
{
"type":"Feature",
"properties":{
"Name":"河内中学校",
"Jusho":"大分県豊後高田市佐野4993",
"Capacity":"220",
"la":"33.53667800000",
"ln":"131.46513900000"
},
"geometry":{
"type":"Point",
"coordinates":[
131.465139,
33.536678
]
}
},
{
"type":"Feature",
"properties":{
"Name":"香々地中学校",
"Jusho":"大分県豊後高田市香-地3400",
"Capacity":"260",
"la":"33.66446100000",
"ln":"131.52653000000"
},
"geometry":{
"type":"Point",
"coordinates":[
131.52653,
33.664461
]
}
},
{
"type":"Feature",
"properties":{
"Name":"高田中学校",
"Jusho":"大分県豊後高田市玉津473",
"Capacity":"370",
"la":"33.56212000000",
"ln":"131.44644500000"
},
"geometry":{
"type":"Point",
"coordinates":[
131.446445,
33.56212
]
}
},
{
"type":"Feature",
"properties":{
"Name":"田染中学校",
"Jusho":"大分県豊後高田市田染池部1742",
"Capacity":"260",
"la":"33.51557000000",
"ln":"131.51988500000"
},
"geometry":{
"type":"Point",
"coordinates":[
131.519885,
33.51557
]
}
},
{
"type":"Feature",
"properties":{
"Name":"都甲中学校",
"Jusho":"大分県豊後高田市松行363",
"Capacity":"260",
"la":"33.56603200000",
"ln":"131.52126000000"
},
"geometry":{
"type":"Point",
"coordinates":[
131.52126,
33.566032
]
}
},
{
"type":"Feature",
"properties":{
"Name":"杵築中学校",
"Jusho":"大分県杵築市大字杵築1",
"Capacity":"477",
"la":"33.41666500000",
"ln":"131.62524100000"
},
"geometry":{
"type":"Point",
"coordinates":[
131.625241,
33.416665
]
}
},
{
"type":"Feature",
"properties":{
"Name":"宗近中学校",
"Jusho":"大分県杵築市大字南杵築2063",
"Capacity":"390",
"la":"33.41616400000",
"ln":"131.60671400000"
},
"geometry":{
"type":"Point",
"coordinates":[
131.606714,
33.416164
]
}
},
{
"type":"Feature",
"properties":{
"Name":"安心院中学校",
"Jusho":"大分県宇佐市安心院町下毛2222-1",
"Capacity":"1500",
"la":"33.43557300000",
"ln":"131.35623800000"
},
"geometry":{
"type":"Point",
"coordinates":[
131.356238,
33.435573
]
}
},
{
"type":"Feature",
"properties":{
"Name":"院内中学校",
"Jusho":"大分県宇佐市院内町山城54",
"Capacity":"1500",
"la":"33.41912500000",
"ln":"131.31620200000"
},
"geometry":{
"type":"Point",
"coordinates":[
131.316202,
33.419125
]
}
},
{
"type":"Feature",
"properties":{
"Name":"宇佐中学校",
"Jusho":"大分県宇佐市大字橋津434",
"Capacity":"1300",
"la":"33.53296100000",
"ln":"131.39500100000"
},
"geometry":{
"type":"Point",
"coordinates":[
131.395001,
33.532961
]
}
},
{
"type":"Feature",
"properties":{
"Name":"駅川中学校",
"Jusho":"大分県宇佐市大字閤153",
"Capacity":"1450",
"la":"33.52436700000",
"ln":"131.33865700000"
},
"geometry":{
"type":"Point",
"coordinates":[
131.338657,
33.524367
]
}
},
{
"type":"Feature",
"properties":{
"Name":"西部中学校",
"Jusho":"大分県宇佐市大字四日市4491",
"Capacity":"2250",
"la":"33.53174400000",
"ln":"131.31693000000"
},
"geometry":{
"type":"Point",
"coordinates":[
131.31693,
33.531744
]
}
},
{
"type":"Feature",
"properties":{
"Name":"長洲中学校",
"Jusho":"大分県宇佐市大字長洲1527",
"Capacity":"2100",
"la":"33.56715800000",
"ln":"131.38108400000"
},
"geometry":{
"type":"Point",
"coordinates":[
131.381084,
33.567158
]
}
},
{
"type":"Feature",
"properties":{
"Name":"北部中学校",
"Jusho":"大分県宇佐市大字下時枝369-1",
"Capacity":"1650",
"la":"33.56051700000",
"ln":"131.30794500000"
},
"geometry":{
"type":"Point",
"coordinates":[
131.307945,
33.560517
]
}
},
{
"type":"Feature",
"properties":{
"Name":"三重中学校",
"Jusho":"大分県豊後大野市三重町内田1050番地",
"Capacity":"691",
"la":"32.97776700000",
"ln":"131.58991900000"
},
"geometry":{
"type":"Point",
"coordinates":[
131.589919,
32.977767
]
}
},
{
"type":"Feature",
"properties":{
"Name":"緒方中学校",
"Jusho":"大分県豊後大野市緒方町下自在1030番地",
"Capacity":"－",
"la":"32.97915200000",
"ln":"131.46307400000"
},
"geometry":{
"type":"Point",
"coordinates":[
131.463074,
32.979152
]
}
},
{
"type":"Feature",
"properties":{
"Name":"清川中学校",
"Jusho":"大分県豊後大野市清川町三玉1205番地",
"Capacity":"－",
"la":"32.95294100000",
"ln":"131.51160600000"
},
"geometry":{
"type":"Point",
"coordinates":[
131.511606,
32.952941
]
}
},
{
"type":"Feature",
"properties":{
"Name":"千歳中学校体育館",
"Jusho":"大分県豊後大野市千歳町新殿809番地1",
"Capacity":"－",
"la":"33.04065100000",
"ln":"131.59816900000"
},
"geometry":{
"type":"Point",
"coordinates":[
131.598169,
33.040651
]
}
},
{
"type":"Feature",
"properties":{
"Name":"大野中学校体育館",
"Jusho":"大分県豊後大野市大野町田中2135番地",
"Capacity":"－",
"la":"33.04273300000",
"ln":"131.50115600000"
},
"geometry":{
"type":"Point",
"coordinates":[
131.501156,
33.042733
]
}
},
{
"type":"Feature",
"properties":{
"Name":"庄内中学校",
"Jusho":"大分県由布市庄内町柿原49",
"Capacity":"600",
"la":"33.18551000000",
"ln":"131.43602100000"
},
"geometry":{
"type":"Point",
"coordinates":[
131.436021,
33.18551
]
}
},
{
"type":"Feature",
"properties":{
"Name":"湯布院中学校",
"Jusho":"大分県由布市湯布院町川北1111-2",
"Capacity":"500",
"la":"33.25664100000",
"ln":"131.34515900000"
},
"geometry":{
"type":"Point",
"coordinates":[
131.345159,
33.256641
]
}
},
{
"type":"Feature",
"properties":{
"Name":"挾間中学校",
"Jusho":"大分県由布市挾間町向原440",
"Capacity":"450",
"la":"33.19965999910",
"ln":"131.51028200000"
},
"geometry":{
"type":"Point",
"coordinates":[
131.510282,
33.1996599991
]
}
},
{
"type":"Feature",
"properties":{
"Name":"安岐中学校",
"Jusho":"大分県国東市安岐町中園408番地",
"Capacity":"1500",
"la":"33.46448300000",
"ln":"131.69498000000"
},
"geometry":{
"type":"Point",
"coordinates":[
131.69498,
33.464483
]
}
},
{
"type":"Feature",
"properties":{
"Name":"旧来浦中学校体育館",
"Jusho":"大分県国東市国東町来浦2438番地",
"Capacity":"1100",
"la":"33.63174100000",
"ln":"131.65484100000"
},
"geometry":{
"type":"Point",
"coordinates":[
131.654841,
33.631741
]
}
},
{
"type":"Feature",
"properties":{
"Name":"国東中学校",
"Jusho":"大分県国東市国東町大字田深1422番地",
"Capacity":"2200",
"la":"33.57596787150",
"ln":"131.72911807200"
},
"geometry":{
"type":"Point",
"coordinates":[
131.729118072,
33.5759678715
]
}
},
{
"type":"Feature",
"properties":{
"Name":"武蔵中学校",
"Jusho":"大分県国東市武蔵町成吉810番地",
"Capacity":"300",
"la":"33.50601700000",
"ln":"131.70948000000"
},
"geometry":{
"type":"Point",
"coordinates":[
131.70948,
33.506017
]
}
},
{
"type":"Feature",
"properties":{
"Name":"姫島中学校校舎",
"Jusho":"大分県東国東郡姫島村2108番地の4",
"Capacity":"725",
"la":"33.72513500000",
"ln":"131.65142100000"
},
"geometry":{
"type":"Point",
"coordinates":[
131.651421,
33.725135
]
}
},
{
"type":"Feature",
"properties":{
"Name":"大神中学校",
"Jusho":"大分県速見郡日出町大字大神3120",
"Capacity":"－",
"la":"33.37158500000",
"ln":"131.57635700000"
},
"geometry":{
"type":"Point",
"coordinates":[
131.576357,
33.371585
]
}
},
{
"type":"Feature",
"properties":{
"Name":"日出中学校",
"Jusho":"大分県速見郡日出町2627",
"Capacity":"－",
"la":"33.36748400000",
"ln":"131.53278900000"
},
"geometry":{
"type":"Point",
"coordinates":[
131.532789,
33.367484
]
}
},
{
"type":"Feature",
"properties":{
"Name":"九重町立東飯田中学校",
"Jusho":"大分県玖珠郡九重町大字恵良941",
"Capacity":"－",
"la":"33.25839600000",
"ln":"131.18100400000"
},
"geometry":{
"type":"Point",
"coordinates":[
131.181004,
33.258396
]
}
},
{
"type":"Feature",
"properties":{
"Name":"九重町立南山田中学校",
"Jusho":"大分県玖珠郡九重町大字引治1230",
"Capacity":"－",
"la":"33.21737100000",
"ln":"131.17414600000"
},
"geometry":{
"type":"Point",
"coordinates":[
131.174146,
33.217371
]
}
},
{
"type":"Feature",
"properties":{
"Name":"九重町立飯田中学校",
"Jusho":"大分県玖珠郡九重町大字田野1624の26",
"Capacity":"－",
"la":"33.15701700000",
"ln":"131.22092100000"
},
"geometry":{
"type":"Point",
"coordinates":[
131.220921,
33.157017
]
}
},
{
"type":"Feature",
"properties":{
"Name":"九重町立野上中学校",
"Jusho":"大分県玖珠郡九重町大字野上1322の1",
"Capacity":"－",
"la":"33.22837200000",
"ln":"131.21228000000"
},
"geometry":{
"type":"Point",
"coordinates":[
131.21228,
33.228372
]
}
},
{
"type":"Feature",
"properties":{
"Name":"山浦中学校",
"Jusho":"大分県玖珠郡玖珠町大字山浦1851-2",
"Capacity":"300",
"la":"33.24010200000",
"ln":"131.09405700000"
},
"geometry":{
"type":"Point",
"coordinates":[
131.094057,
33.240102
]
}
},
{
"type":"Feature",
"properties":{
"Name":"八幡中学校",
"Jusho":"大分県玖珠郡玖珠町大字太田1462",
"Capacity":"500",
"la":"33.31214000000",
"ln":"131.13881000000"
},
"geometry":{
"type":"Point",
"coordinates":[
131.13881,
33.31214
]
}
}
]
};