var k={
"type":"FeatureCollection",
"features":[
{
"type":"Feature",
"properties":{
"Name":"コミュニティ防災公園",
"Jusho":"兵庫県姫路市安富町長野231-1",
"Capacity":"1366",
"la":"34.97760801800",
"ln":"134.58770369700"
},
"geometry":{
"type":"Point",
"coordinates":[
134.587703697,
34.977608018
]
}
},
{
"type":"Feature",
"properties":{
"Name":"安室公園",
"Jusho":"兵庫県姫路市辻井八丁目、田寺東二丁目",
"Capacity":"9000",
"la":"34.85411190000",
"ln":"134.67455118000"
},
"geometry":{
"type":"Point",
"coordinates":[
134.67455118,
34.8541119
]
}
},
{
"type":"Feature",
"properties":{
"Name":"宇佐崎公園",
"Jusho":"兵庫県姫路市白浜町字佐崎中二丁目666",
"Capacity":"4333",
"la":"34.78344199000",
"ln":"134.71270659000"
},
"geometry":{
"type":"Point",
"coordinates":[
134.71270659,
34.78344199
]
}
},
{
"type":"Feature",
"properties":{
"Name":"運河公園",
"Jusho":"兵庫県姫路市南条、佃町、三条町、庄田他",
"Capacity":"27666",
"la":"34.81377278000",
"ln":"134.68787529000"
},
"geometry":{
"type":"Point",
"coordinates":[
134.68787529,
34.81377278
]
}
},
{
"type":"Feature",
"properties":{
"Name":"御立公園",
"Jusho":"兵庫県姫路市御立西四丁目",
"Capacity":"8000",
"la":"34.86457087000",
"ln":"134.66097340000"
},
"geometry":{
"type":"Point",
"coordinates":[
134.6609734,
34.86457087
]
}
},
{
"type":"Feature",
"properties":{
"Name":"御立前山公園",
"Jusho":"兵庫県姫路市御立中一丁目",
"Capacity":"5267",
"la":"34.86434851000",
"ln":"134.66925145000"
},
"geometry":{
"type":"Point",
"coordinates":[
134.66925145,
34.86434851
]
}
},
{
"type":"Feature",
"properties":{
"Name":"広高浜公園",
"Jusho":"兵庫県姫路市広畑区高浜町四丁目1他",
"Capacity":"9000",
"la":"34.80112378000",
"ln":"134.61885805000"
},
"geometry":{
"type":"Point",
"coordinates":[
134.61885805,
34.80112378
]
}
},
{
"type":"Feature",
"properties":{
"Name":"香寺総合公園スポーツセンター",
"Jusho":"兵庫県姫路市香寺町行重335",
"Capacity":"29272",
"la":"34.92392500000",
"ln":"134.72679800000"
},
"geometry":{
"type":"Point",
"coordinates":[
134.726798,
34.923925
]
}
},
{
"type":"Feature",
"properties":{
"Name":"高岡第一公園",
"Jusho":"兵庫県姫路市西今宿三丁目1-5",
"Capacity":"1433",
"la":"34.84066395000",
"ln":"134.66187355000"
},
"geometry":{
"type":"Point",
"coordinates":[
134.66187355,
34.84066395
]
}
},
{
"type":"Feature",
"properties":{
"Name":"高浜総合公園",
"Jusho":"兵庫県姫路市飾磨区阿成植木237",
"Capacity":"13333",
"la":"34.80719330000",
"ln":"134.69205484000"
},
"geometry":{
"type":"Point",
"coordinates":[
134.69205484,
34.8071933
]
}
},
{
"type":"Feature",
"properties":{
"Name":"手柄山中央公園",
"Jusho":"兵庫県姫路市西延末440外、手柄、飯田、延末、中地外",
"Capacity":"127075",
"la":"34.82211666000",
"ln":"134.67452920000"
},
"geometry":{
"type":"Point",
"coordinates":[
134.6745292,
34.82211666
]
}
},
{
"type":"Feature",
"properties":{
"Name":"城北公園",
"Jusho":"兵庫県姫路市広峰一丁目、二丁目",
"Capacity":"26667",
"la":"34.85406440000",
"ln":"134.70425950000"
},
"geometry":{
"type":"Point",
"coordinates":[
134.7042595,
34.8540644
]
}
},
{
"type":"Feature",
"properties":{
"Name":"飾西公園",
"Jusho":"兵庫県姫路市飾西字長人外",
"Capacity":"8333",
"la":"34.86491551000",
"ln":"134.63637854000"
},
"geometry":{
"type":"Point",
"coordinates":[
134.63637854,
34.86491551
]
}
},
{
"type":"Feature",
"properties":{
"Name":"飾磨中央公園",
"Jusho":"兵庫県姫路市飾磨区細江520-93",
"Capacity":"3200",
"la":"34.79714612000",
"ln":"134.66744457000"
},
"geometry":{
"type":"Point",
"coordinates":[
134.66744457,
34.79714612
]
}
},
{
"type":"Feature",
"properties":{
"Name":"聖ヶ岡公園",
"Jusho":"兵庫県姫路市林田町林田10-4外",
"Capacity":"4467",
"la":"34.90564338910",
"ln":"134.58057039000"
},
"geometry":{
"type":"Point",
"coordinates":[
134.58057039,
34.9056433891
]
}
},
{
"type":"Feature",
"properties":{
"Name":"船場川東公園",
"Jusho":"兵庫県姫路市亀山",
"Capacity":"3667",
"la":"34.80828130000",
"ln":"134.67142068000"
},
"geometry":{
"type":"Point",
"coordinates":[
134.67142068,
34.8082813
]
}
},
{
"type":"Feature",
"properties":{
"Name":"船津公園",
"Jusho":"兵庫県姫路市船津町3288他",
"Capacity":"8900",
"la":"34.92095083000",
"ln":"134.74921272000"
},
"geometry":{
"type":"Point",
"coordinates":[
134.74921272,
34.92095083
]
}
},
{
"type":"Feature",
"properties":{
"Name":"太子丘公園",
"Jusho":"兵庫県姫路市香寺町溝口510",
"Capacity":"1855",
"la":"34.92823851000",
"ln":"134.74181277000"
},
"geometry":{
"type":"Point",
"coordinates":[
134.74181277,
34.92823851
]
}
},
{
"type":"Feature",
"properties":{
"Name":"大手前公園",
"Jusho":"兵庫県姫路市本町68",
"Capacity":"8400",
"la":"34.83455743620",
"ln":"134.69412769800"
},
"geometry":{
"type":"Point",
"coordinates":[
134.694127698,
34.8345574362
]
}
},
{
"type":"Feature",
"properties":{
"Name":"大津団地第二公園",
"Jusho":"兵庫県姫路市大津区大津町三丁目41",
"Capacity":"3767",
"la":"34.80502688000",
"ln":"134.60570319000"
},
"geometry":{
"type":"Point",
"coordinates":[
134.60570319,
34.80502688
]
}
},
{
"type":"Feature",
"properties":{
"Name":"秩父山公園",
"Jusho":"兵庫県姫路市下手野二丁目",
"Capacity":"22667",
"la":"34.84687373000",
"ln":"134.65361205000"
},
"geometry":{
"type":"Point",
"coordinates":[
134.65361205,
34.84687373
]
}
},
{
"type":"Feature",
"properties":{
"Name":"朝日山公園",
"Jusho":"兵庫県姫路市勝原区朝日谷780外",
"Capacity":"37633",
"la":"34.81811927000",
"ln":"134.58726096000"
},
"geometry":{
"type":"Point",
"coordinates":[
134.58726096,
34.81811927
]
}
},
{
"type":"Feature",
"properties":{
"Name":"津田公園",
"Jusho":"兵庫県姫路市飾磨区構二丁目179",
"Capacity":"15000",
"la":"34.80908566000",
"ln":"134.65913385000"
},
"geometry":{
"type":"Point",
"coordinates":[
134.65913385,
34.80908566
]
}
},
{
"type":"Feature",
"properties":{
"Name":"的形北公園",
"Jusho":"兵庫県姫路市的形町的形135",
"Capacity":"2967",
"la":"34.78237194000",
"ln":"134.74579886000"
},
"geometry":{
"type":"Point",
"coordinates":[
134.74579886,
34.78237194
]
}
},
{
"type":"Feature",
"properties":{
"Name":"白浜西山公園",
"Jusho":"兵庫県姫路市白浜町字西山",
"Capacity":"1167",
"la":"34.79054075250",
"ln":"134.69934779600"
},
"geometry":{
"type":"Point",
"coordinates":[
134.699347796,
34.7905407525
]
}
},
{
"type":"Feature",
"properties":{
"Name":"姫路公園",
"Jusho":"兵庫県姫路市本町68",
"Capacity":"195767",
"la":"34.83826466910",
"ln":"134.69241631000"
},
"geometry":{
"type":"Point",
"coordinates":[
134.69241631,
34.8382646691
]
}
},
{
"type":"Feature",
"properties":{
"Name":"姫路公園（シロトピア記念公園）",
"Jusho":"兵庫県姫路市本町68",
"Capacity":"23400",
"la":"34.84188495580",
"ln":"134.69474905800"
},
"geometry":{
"type":"Point",
"coordinates":[
134.694749058,
34.8418849558
]
}
},
{
"type":"Feature",
"properties":{
"Name":"付城公園",
"Jusho":"兵庫県姫路市飾磨区付城",
"Capacity":"1667",
"la":"34.81171486000",
"ln":"134.65111347000"
},
"geometry":{
"type":"Point",
"coordinates":[
134.65111347,
34.81171486
]
}
},
{
"type":"Feature",
"properties":{
"Name":"牧野丸山公園",
"Jusho":"兵庫県姫路市山田町牧野699-14",
"Capacity":"5567",
"la":"34.90181896000",
"ln":"134.76889085000"
},
"geometry":{
"type":"Point",
"coordinates":[
134.76889085,
34.90181896
]
}
},
{
"type":"Feature",
"properties":{
"Name":"本町公園",
"Jusho":"兵庫県姫路市広畑区本町二丁目28",
"Capacity":"3667",
"la":"34.80128370000",
"ln":"134.63182138000"
},
"geometry":{
"type":"Point",
"coordinates":[
134.63182138,
34.8012837
]
}
},
{
"type":"Feature",
"properties":{
"Name":"網干なぎさ公園",
"Jusho":"兵庫県姫路市網干区新在家246-2",
"Capacity":"26308",
"la":"34.77208120430",
"ln":"134.59436552300"
},
"geometry":{
"type":"Point",
"coordinates":[
134.594365523,
34.7720812043
]
}
},
{
"type":"Feature",
"properties":{
"Name":"網干南公園",
"Jusho":"兵庫県姫路市網干区新在家246",
"Capacity":"12358",
"la":"34.77307368000",
"ln":"134.59341461000"
},
"geometry":{
"type":"Point",
"coordinates":[
134.59341461,
34.77307368
]
}
},
{
"type":"Feature",
"properties":{
"Name":"網干南公園ふれあいの館",
"Jusho":"兵庫県姫路市網干区新在家246",
"Capacity":"1622",
"la":"34.77298900000",
"ln":"134.59264000000"
},
"geometry":{
"type":"Point",
"coordinates":[
134.59264,
34.772989
]
}
},
{
"type":"Feature",
"properties":{
"Name":"矢倉公園",
"Jusho":"兵庫県姫路市飾磨区矢倉町二丁目23",
"Capacity":"8000",
"la":"34.80715586000",
"ln":"134.63780991000"
},
"geometry":{
"type":"Point",
"coordinates":[
134.63780991,
34.80715586
]
}
},
{
"type":"Feature",
"properties":{
"Name":"金ケ崎公園",
"Jusho":"兵庫県明石市魚住町金ケ崎",
"Capacity":"－",
"la":"34.69881622910",
"ln":"134.92636913000"
},
"geometry":{
"type":"Point",
"coordinates":[
134.92636913,
34.6988162291
]
}
},
{
"type":"Feature",
"properties":{
"Name":"松江公園",
"Jusho":"兵庫県明石市松江",
"Capacity":"－",
"la":"34.65356675300",
"ln":"134.95798255400"
},
"geometry":{
"type":"Point",
"coordinates":[
134.957982554,
34.653566753
]
}
},
{
"type":"Feature",
"properties":{
"Name":"上ケ池公園",
"Jusho":"兵庫県明石市鳥羽",
"Capacity":"－",
"la":"34.66943576910",
"ln":"134.96188228000"
},
"geometry":{
"type":"Point",
"coordinates":[
134.96188228,
34.6694357691
]
}
},
{
"type":"Feature",
"properties":{
"Name":"石ケ谷公園",
"Jusho":"兵庫県明石市大久保町松陰",
"Capacity":"－",
"la":"34.70852495910",
"ln":"134.95785423000"
},
"geometry":{
"type":"Point",
"coordinates":[
134.95785423,
34.7085249591
]
}
},
{
"type":"Feature",
"properties":{
"Name":"大蔵海岸公園",
"Jusho":"兵庫県明石市大蔵海岸通2丁目",
"Capacity":"－",
"la":"34.64359461000",
"ln":"135.00549037000"
},
"geometry":{
"type":"Point",
"coordinates":[
135.00549037,
34.64359461
]
}
},
{
"type":"Feature",
"properties":{
"Name":"朝霧公園",
"Jusho":"兵庫県明石市松が丘5丁目",
"Capacity":"－",
"la":"34.64958279000",
"ln":"135.02071461000"
},
"geometry":{
"type":"Point",
"coordinates":[
135.02071461,
34.64958279
]
}
},
{
"type":"Feature",
"properties":{
"Name":"八木遺跡公園",
"Jusho":"兵庫県明石市大久保町八木",
"Capacity":"－",
"la":"34.66863494000",
"ln":"134.93508612000"
},
"geometry":{
"type":"Point",
"coordinates":[
134.93508612,
34.66863494
]
}
},
{
"type":"Feature",
"properties":{
"Name":"望海浜公園",
"Jusho":"兵庫県明石市船上町",
"Capacity":"－",
"la":"34.64449360910",
"ln":"134.97488815000"
},
"geometry":{
"type":"Point",
"coordinates":[
134.97488815,
34.6444936091
]
}
},
{
"type":"Feature",
"properties":{
"Name":"明石海浜公園",
"Jusho":"兵庫県明石市二見町南二見",
"Capacity":"－",
"la":"34.69407337910",
"ln":"134.87921134000"
},
"geometry":{
"type":"Point",
"coordinates":[
134.87921134,
34.6940733791
]
}
},
{
"type":"Feature",
"properties":{
"Name":"明石公園",
"Jusho":"兵庫県明石市明石公園",
"Capacity":"－",
"la":"34.65505455000",
"ln":"134.99244905000"
},
"geometry":{
"type":"Point",
"coordinates":[
134.99244905,
34.65505455
]
}
},
{
"type":"Feature",
"properties":{
"Name":"瓦林公園",
"Jusho":"兵庫県西宮市上甲子園3丁目",
"Capacity":"－",
"la":"34.73201387000",
"ln":"135.36538420000"
},
"geometry":{
"type":"Point",
"coordinates":[
135.3653842,
34.73201387
]
}
},
{
"type":"Feature",
"properties":{
"Name":"瓦林公園センター",
"Jusho":"兵庫県西宮市上甲子園3丁目7番4号",
"Capacity":"90",
"la":"34.73241100000",
"ln":"135.36574300000"
},
"geometry":{
"type":"Point",
"coordinates":[
135.365743,
34.732411
]
}
},
{
"type":"Feature",
"properties":{
"Name":"宮前公園",
"Jusho":"兵庫県西宮市宮前町",
"Capacity":"－",
"la":"34.73172383000",
"ln":"135.33384556000"
},
"geometry":{
"type":"Point",
"coordinates":[
135.33384556,
34.73172383
]
}
},
{
"type":"Feature",
"properties":{
"Name":"御前浜公園",
"Jusho":"兵庫県西宮市西波止町他",
"Capacity":"－",
"la":"34.72420917460",
"ln":"135.33127490800"
},
"geometry":{
"type":"Point",
"coordinates":[
135.331274908,
34.7242091746
]
}
},
{
"type":"Feature",
"properties":{
"Name":"高座山公園",
"Jusho":"兵庫県西宮市塩瀬町名塩字高座",
"Capacity":"－",
"la":"34.83756631000",
"ln":"135.29284608000"
},
"geometry":{
"type":"Point",
"coordinates":[
135.29284608,
34.83756631
]
}
},
{
"type":"Feature",
"properties":{
"Name":"高木公園",
"Jusho":"兵庫県西宮市高木東町",
"Capacity":"－",
"la":"34.75108017000",
"ln":"135.36168138000"
},
"geometry":{
"type":"Point",
"coordinates":[
135.36168138,
34.75108017
]
}
},
{
"type":"Feature",
"properties":{
"Name":"上田西公園",
"Jusho":"兵庫県西宮市上田西町",
"Capacity":"－",
"la":"34.70942252000",
"ln":"135.37116192000"
},
"geometry":{
"type":"Point",
"coordinates":[
135.37116192,
34.70942252
]
}
},
{
"type":"Feature",
"properties":{
"Name":"西宮浜総合公園",
"Jusho":"兵庫県西宮市西宮浜3丁目",
"Capacity":"－",
"la":"34.72112687000",
"ln":"135.33106374000"
},
"geometry":{
"type":"Point",
"coordinates":[
135.33106374,
34.72112687
]
}
},
{
"type":"Feature",
"properties":{
"Name":"西田公園",
"Jusho":"兵庫県西宮市西田町",
"Capacity":"－",
"la":"34.74342963000",
"ln":"135.33559522000"
},
"geometry":{
"type":"Point",
"coordinates":[
135.33559522,
34.74342963
]
}
},
{
"type":"Feature",
"properties":{
"Name":"中央体育館（中央運動公園）",
"Jusho":"兵庫県西宮市河原町1番16号",
"Capacity":"850",
"la":"34.74776999910",
"ln":"135.34480600000"
},
"geometry":{
"type":"Point",
"coordinates":[
135.344806,
34.7477699991
]
}
},
{
"type":"Feature",
"properties":{
"Name":"二葉公園",
"Jusho":"兵庫県西宮市今津二葉町",
"Capacity":"－",
"la":"34.72818909000",
"ln":"135.34960723000"
},
"geometry":{
"type":"Point",
"coordinates":[
135.34960723,
34.72818909
]
}
},
{
"type":"Feature",
"properties":{
"Name":"樋之池公園",
"Jusho":"兵庫県西宮市樋之池町",
"Capacity":"－",
"la":"34.75171545000",
"ln":"135.32055517000"
},
"geometry":{
"type":"Point",
"coordinates":[
135.32055517,
34.75171545
]
}
},
{
"type":"Feature",
"properties":{
"Name":"平尻公園",
"Jusho":"兵庫県西宮市北六甲台2丁目",
"Capacity":"－",
"la":"34.83638605000",
"ln":"135.24812674000"
},
"geometry":{
"type":"Point",
"coordinates":[
135.24812674,
34.83638605
]
}
},
{
"type":"Feature",
"properties":{
"Name":"名塩南台中央公園",
"Jusho":"兵庫県西宮市名塩南台3丁目",
"Capacity":"－",
"la":"34.82408406000",
"ln":"135.30074898000"
},
"geometry":{
"type":"Point",
"coordinates":[
135.30074898,
34.82408406
]
}
},
{
"type":"Feature",
"properties":{
"Name":"鳴尾浜（浜甲子園運動）公園",
"Jusho":"兵庫県西宮市枝川町",
"Capacity":"－",
"la":"34.70817906910",
"ln":"135.36203132000"
},
"geometry":{
"type":"Point",
"coordinates":[
135.36203132,
34.7081790691
]
}
},
{
"type":"Feature",
"properties":{
"Name":"鳴尾浜臨海公園",
"Jusho":"兵庫県西宮市鳴尾浜1丁目",
"Capacity":"－",
"la":"34.69885801000",
"ln":"135.36879472000"
},
"geometry":{
"type":"Point",
"coordinates":[
135.36879472,
34.69885801
]
}
},
{
"type":"Feature",
"properties":{
"Name":"流通西公園",
"Jusho":"兵庫県西宮市山口町阪神流通2丁目",
"Capacity":"－",
"la":"34.82464151000",
"ln":"135.23007138000"
},
"geometry":{
"type":"Point",
"coordinates":[
135.23007138,
34.82464151
]
}
},
{
"type":"Feature",
"properties":{
"Name":"五色台運動公園アスパ五色体育館",
"Jusho":"兵庫県洲本市五色町鳥飼浦2613",
"Capacity":"－",
"la":"34.35426728970",
"ln":"134.75805451000"
},
"geometry":{
"type":"Point",
"coordinates":[
134.75805451,
34.3542672897
]
}
},
{
"type":"Feature",
"properties":{
"Name":"高田屋嘉兵衛公園五色農林漁業体験実習館（浜千鳥）",
"Jusho":"兵庫県洲本市五色町都志1087",
"Capacity":"－",
"la":"34.41606146740",
"ln":"134.79284977200"
},
"geometry":{
"type":"Point",
"coordinates":[
134.792849772,
34.4160614674
]
}
},
{
"type":"Feature",
"properties":{
"Name":"稲野公園",
"Jusho":"兵庫県伊丹市稲野町2丁目3-2",
"Capacity":"－",
"la":"34.76322479000",
"ln":"135.41727070000"
},
"geometry":{
"type":"Point",
"coordinates":[
135.4172707,
34.76322479
]
}
},
{
"type":"Feature",
"properties":{
"Name":"荒牧バラ公園",
"Jusho":"兵庫県伊丹市荒牧6丁目5",
"Capacity":"－",
"la":"34.81176072000",
"ln":"135.38639099000"
},
"geometry":{
"type":"Point",
"coordinates":[
135.38639099,
34.81176072
]
}
},
{
"type":"Feature",
"properties":{
"Name":"昆陽池公園",
"Jusho":"兵庫県伊丹市昆陽池3丁目",
"Capacity":"－",
"la":"34.78858057000",
"ln":"135.39542455000"
},
"geometry":{
"type":"Point",
"coordinates":[
135.39542455,
34.78858057
]
}
},
{
"type":"Feature",
"properties":{
"Name":"昆陽南公園",
"Jusho":"兵庫県伊丹市山田1丁目6",
"Capacity":"－",
"la":"34.77431920000",
"ln":"135.39141967000"
},
"geometry":{
"type":"Point",
"coordinates":[
135.39141967,
34.7743192
]
}
},
{
"type":"Feature",
"properties":{
"Name":"笹原公園",
"Jusho":"兵庫県伊丹市車塚1丁目32番1",
"Capacity":"－",
"la":"34.76460709000",
"ln":"135.39921864000"
},
"geometry":{
"type":"Point",
"coordinates":[
135.39921864,
34.76460709
]
}
},
{
"type":"Feature",
"properties":{
"Name":"十六名公園",
"Jusho":"兵庫県伊丹市西野1丁目",
"Capacity":"－",
"la":"34.78621297000",
"ln":"135.37829090000"
},
"geometry":{
"type":"Point",
"coordinates":[
135.3782909,
34.78621297
]
}
},
{
"type":"Feature",
"properties":{
"Name":"瑞ケ丘公園",
"Jusho":"兵庫県伊丹市瑞ケ丘1丁目",
"Capacity":"－",
"la":"34.79203279910",
"ln":"135.39982464000"
},
"geometry":{
"type":"Point",
"coordinates":[
135.39982464,
34.7920327991
]
}
},
{
"type":"Feature",
"properties":{
"Name":"瑞ケ池公園",
"Jusho":"兵庫県伊丹市瑞ケ丘5丁目",
"Capacity":"－",
"la":"34.79506518780",
"ln":"135.39807614500"
},
"geometry":{
"type":"Point",
"coordinates":[
135.398076145,
34.7950651878
]
}
},
{
"type":"Feature",
"properties":{
"Name":"西桑津公園",
"Jusho":"兵庫県伊丹市桑津3丁目1",
"Capacity":"－",
"la":"34.78328136000",
"ln":"135.43254494000"
},
"geometry":{
"type":"Point",
"coordinates":[
135.43254494,
34.78328136
]
}
},
{
"type":"Feature",
"properties":{
"Name":"緑ケ丘公園",
"Jusho":"兵庫県伊丹市緑ケ丘1丁目",
"Capacity":"－",
"la":"34.79442518910",
"ln":"135.40822209000"
},
"geometry":{
"type":"Point",
"coordinates":[
135.40822209,
34.7944251891
]
}
},
{
"type":"Feature",
"properties":{
"Name":"中央公園",
"Jusho":"兵庫県相生市那波南本町9番30号",
"Capacity":"－",
"la":"34.80536991000",
"ln":"134.46324229000"
},
"geometry":{
"type":"Point",
"coordinates":[
134.46324229,
34.80536991
]
}
},
{
"type":"Feature",
"properties":{
"Name":"神美台スポーツ公園管理棟",
"Jusho":"兵庫県豊岡市神美台157-40",
"Capacity":"－",
"la":"35.51689203720",
"ln":"134.86775395600"
},
"geometry":{
"type":"Point",
"coordinates":[
134.867753956,
35.5168920372
]
}
},
{
"type":"Feature",
"properties":{
"Name":"加古川運動公園",
"Jusho":"兵庫県加古川市西神吉町鼎1050",
"Capacity":"32500",
"la":"34.80805363000",
"ln":"134.82575247000"
},
"geometry":{
"type":"Point",
"coordinates":[
134.82575247,
34.80805363
]
}
},
{
"type":"Feature",
"properties":{
"Name":"金剛寺浦公園",
"Jusho":"兵庫県加古川市加古川町木村232-1",
"Capacity":"2412",
"la":"34.76643996000",
"ln":"134.83257897000"
},
"geometry":{
"type":"Point",
"coordinates":[
134.83257897,
34.76643996
]
}
},
{
"type":"Feature",
"properties":{
"Name":"迎野公園",
"Jusho":"兵庫県加古川市新神野2丁目11",
"Capacity":"4020",
"la":"34.79272294000",
"ln":"134.87402044000"
},
"geometry":{
"type":"Point",
"coordinates":[
134.87402044,
34.79272294
]
}
},
{
"type":"Feature",
"properties":{
"Name":"志方東公園",
"Jusho":"兵庫県加古川市志方町細工所1138-22",
"Capacity":"11500",
"la":"34.83911401000",
"ln":"134.84886647000"
},
"geometry":{
"type":"Point",
"coordinates":[
134.84886647,
34.83911401
]
}
},
{
"type":"Feature",
"properties":{
"Name":"小柳公園",
"Jusho":"兵庫県加古川市加古川町北在家2788",
"Capacity":"2188",
"la":"34.75616500000",
"ln":"134.83837819000"
},
"geometry":{
"type":"Point",
"coordinates":[
134.83837819,
34.756165
]
}
},
{
"type":"Feature",
"properties":{
"Name":"石守公園",
"Jusho":"兵庫県加古川市神野町石守471-9",
"Capacity":"3082",
"la":"34.76782481000",
"ln":"134.87404397000"
},
"geometry":{
"type":"Point",
"coordinates":[
134.87404397,
34.76782481
]
}
},
{
"type":"Feature",
"properties":{
"Name":"池田公園",
"Jusho":"兵庫県加古川市尾上町池田850-10",
"Capacity":"4200",
"la":"34.73607845700",
"ln":"134.82273438300"
},
"geometry":{
"type":"Point",
"coordinates":[
134.822734383,
34.736078457
]
}
},
{
"type":"Feature",
"properties":{
"Name":"鶴林寺公園",
"Jusho":"兵庫県加古川市加古川町北在家419",
"Capacity":"7500",
"la":"34.75250437000",
"ln":"134.83296716000"
},
"geometry":{
"type":"Point",
"coordinates":[
134.83296716,
34.75250437
]
}
},
{
"type":"Feature",
"properties":{
"Name":"日岡山公園",
"Jusho":"兵庫県加古川市加古川町大野1682",
"Capacity":"25500",
"la":"34.77863240000",
"ln":"134.86329248000"
},
"geometry":{
"type":"Point",
"coordinates":[
134.86329248,
34.7786324
]
}
},
{
"type":"Feature",
"properties":{
"Name":"浜の宮公園",
"Jusho":"兵庫県加古川市尾上町口里817-1",
"Capacity":"15000",
"la":"34.73571254000",
"ln":"134.83340680000"
},
"geometry":{
"type":"Point",
"coordinates":[
134.8334068,
34.73571254
]
}
},
{
"type":"Feature",
"properties":{
"Name":"北山公園",
"Jusho":"兵庫県加古川市西条山手2丁目28",
"Capacity":"5108",
"la":"34.78381346000",
"ln":"134.88681872000"
},
"geometry":{
"type":"Point",
"coordinates":[
134.88681872,
34.78381346
]
}
},
{
"type":"Feature",
"properties":{
"Name":"北野公園",
"Jusho":"兵庫県加古川市野口町北野1193-1",
"Capacity":"3687",
"la":"34.75789848000",
"ln":"134.87653775000"
},
"geometry":{
"type":"Point",
"coordinates":[
134.87653775,
34.75789848
]
}
},
{
"type":"Feature",
"properties":{
"Name":"吉川総合公園文化体育館",
"Jusho":"兵庫県三木市吉川町西奥260",
"Capacity":"－",
"la":"34.86015399910",
"ln":"135.11159300000"
},
"geometry":{
"type":"Point",
"coordinates":[
135.111593,
34.8601539991
]
}
},
{
"type":"Feature",
"properties":{
"Name":"高砂公園",
"Jusho":"兵庫県高砂市",
"Capacity":"4900",
"la":"34.74853505000",
"ln":"134.79602871000"
},
"geometry":{
"type":"Point",
"coordinates":[
134.79602871,
34.74853505
]
}
},
{
"type":"Feature",
"properties":{
"Name":"市ノ池公園",
"Jusho":"兵庫県高砂市",
"Capacity":"8300",
"la":"34.80917214000",
"ln":"134.78027199000"
},
"geometry":{
"type":"Point",
"coordinates":[
134.78027199,
34.80917214
]
}
},
{
"type":"Feature",
"properties":{
"Name":"新浜公園",
"Jusho":"兵庫県高砂市",
"Capacity":"3500",
"la":"34.75573387000",
"ln":"134.78788671000"
},
"geometry":{
"type":"Point",
"coordinates":[
134.78788671,
34.75573387
]
}
},
{
"type":"Feature",
"properties":{
"Name":"曽根松原公園",
"Jusho":"兵庫県高砂市",
"Capacity":"4700",
"la":"34.77679149910",
"ln":"134.77569696000"
},
"geometry":{
"type":"Point",
"coordinates":[
134.77569696,
34.7767914991
]
}
},
{
"type":"Feature",
"properties":{
"Name":"総合運動公園",
"Jusho":"兵庫県高砂市米田町島526",
"Capacity":"30500",
"la":"34.78135999910",
"ln":"134.79993000000"
},
"geometry":{
"type":"Point",
"coordinates":[
134.79993,
34.7813599991
]
}
},
{
"type":"Feature",
"properties":{
"Name":"天川東公園",
"Jusho":"兵庫県高砂市",
"Capacity":"4500",
"la":"34.78712113000",
"ln":"134.76895072000"
},
"geometry":{
"type":"Point",
"coordinates":[
134.76895072,
34.78712113
]
}
},
{
"type":"Feature",
"properties":{
"Name":"けやき坂中央公園",
"Jusho":"兵庫県川西市けやき坂2丁目",
"Capacity":"－",
"la":"34.86090966000",
"ln":"135.38152441000"
},
"geometry":{
"type":"Point",
"coordinates":[
135.38152441,
34.86090966
]
}
},
{
"type":"Feature",
"properties":{
"Name":"水明台第５公園",
"Jusho":"兵庫県川西市水明台4丁目",
"Capacity":"－",
"la":"34.87874965000",
"ln":"135.39799453000"
},
"geometry":{
"type":"Point",
"coordinates":[
135.39799453,
34.87874965
]
}
},
{
"type":"Feature",
"properties":{
"Name":"清和台中央公園",
"Jusho":"兵庫県川西市清和台東3丁目",
"Capacity":"－",
"la":"34.87292726000",
"ln":"135.38835440000"
},
"geometry":{
"type":"Point",
"coordinates":[
135.3883544,
34.87292726
]
}
},
{
"type":"Feature",
"properties":{
"Name":"湯山台運動公園",
"Jusho":"兵庫県川西市湯山台2丁目",
"Capacity":"－",
"la":"34.84684910000",
"ln":"135.39505411000"
},
"geometry":{
"type":"Point",
"coordinates":[
135.39505411,
34.8468491
]
}
},
{
"type":"Feature",
"properties":{
"Name":"平木谷池公園",
"Jusho":"兵庫県川西市大和西2丁目",
"Capacity":"－",
"la":"34.88845363000",
"ln":"135.41917306000"
},
"geometry":{
"type":"Point",
"coordinates":[
135.41917306,
34.88845363
]
}
},
{
"type":"Feature",
"properties":{
"Name":"北ひばりが丘公園",
"Jusho":"兵庫県川西市南野坂2丁目",
"Capacity":"－",
"la":"34.84787058000",
"ln":"135.40356522000"
},
"geometry":{
"type":"Point",
"coordinates":[
135.40356522,
34.84787058
]
}
},
{
"type":"Feature",
"properties":{
"Name":"ひまわりの丘公園",
"Jusho":"兵庫県小野市浄谷町1545-321",
"Capacity":"－",
"la":"34.86970963000",
"ln":"134.95448615000"
},
"geometry":{
"type":"Point",
"coordinates":[
134.95448615,
34.86970963
]
}
},
{
"type":"Feature",
"properties":{
"Name":"匠台公園",
"Jusho":"兵庫県小野市匠台",
"Capacity":"－",
"la":"34.82431545000",
"ln":"134.97441159000"
},
"geometry":{
"type":"Point",
"coordinates":[
134.97441159,
34.82431545
]
}
},
{
"type":"Feature",
"properties":{
"Name":"匠台公園体育館",
"Jusho":"兵庫県小野市匠台77",
"Capacity":"420",
"la":"34.82415071180",
"ln":"134.97457217400"
},
"geometry":{
"type":"Point",
"coordinates":[
134.974572174,
34.8241507118
]
}
},
{
"type":"Feature",
"properties":{
"Name":"上新防災ふれあい公園",
"Jusho":"兵庫県小野市上新町",
"Capacity":"30",
"la":"34.84958555910",
"ln":"134.93197557000"
},
"geometry":{
"type":"Point",
"coordinates":[
134.93197557,
34.8495855591
]
}
},
{
"type":"Feature",
"properties":{
"Name":"大池総合公園",
"Jusho":"兵庫県小野市王子町917-1",
"Capacity":"－",
"la":"34.85508216000",
"ln":"134.93719098000"
},
"geometry":{
"type":"Point",
"coordinates":[
134.93719098,
34.85508216
]
}
},
{
"type":"Feature",
"properties":{
"Name":"１丁目児童公園",
"Jusho":"兵庫県三田市富士が丘1丁目20",
"Capacity":"－",
"la":"34.88623909910",
"ln":"135.19529955000"
},
"geometry":{
"type":"Point",
"coordinates":[
135.19529955,
34.8862390991
]
}
},
{
"type":"Feature",
"properties":{
"Name":"あかしあ台公園",
"Jusho":"兵庫県三田市",
"Capacity":"－",
"la":"34.90478082000",
"ln":"135.18423905000"
},
"geometry":{
"type":"Point",
"coordinates":[
135.18423905,
34.90478082
]
}
},
{
"type":"Feature",
"properties":{
"Name":"えのき公園",
"Jusho":"兵庫県三田市中町9",
"Capacity":"－",
"la":"34.88520534910",
"ln":"135.23035291000"
},
"geometry":{
"type":"Point",
"coordinates":[
135.23035291,
34.8852053491
]
}
},
{
"type":"Feature",
"properties":{
"Name":"さくら坂公園",
"Jusho":"兵庫県三田市さくら坂1",
"Capacity":"－",
"la":"34.89351195000",
"ln":"135.18838791000"
},
"geometry":{
"type":"Point",
"coordinates":[
135.18838791,
34.89351195
]
}
},
{
"type":"Feature",
"properties":{
"Name":"すずかけ台公園",
"Jusho":"兵庫県三田市すずかけ台4丁目1番地",
"Capacity":"－",
"la":"34.90143857000",
"ln":"135.19709257000"
},
"geometry":{
"type":"Point",
"coordinates":[
135.19709257,
34.90143857
]
}
},
{
"type":"Feature",
"properties":{
"Name":"つつじが丘中央公園",
"Jusho":"兵庫県三田市つつじが丘北2丁目5-12",
"Capacity":"－",
"la":"34.94648954000",
"ln":"135.13004585000"
},
"geometry":{
"type":"Point",
"coordinates":[
135.13004585,
34.94648954
]
}
},
{
"type":"Feature",
"properties":{
"Name":"テクノ公園",
"Jusho":"兵庫県三田市テクノパ-ク3番地1",
"Capacity":"－",
"la":"34.93257097000",
"ln":"135.17004311000"
},
"geometry":{
"type":"Point",
"coordinates":[
135.17004311,
34.93257097
]
}
},
{
"type":"Feature",
"properties":{
"Name":"なかよし公園",
"Jusho":"兵庫県三田市東山397-1",
"Capacity":"－",
"la":"34.94799214000",
"ln":"135.18788230000"
},
"geometry":{
"type":"Point",
"coordinates":[
135.1878823,
34.94799214
]
}
},
{
"type":"Feature",
"properties":{
"Name":"なみきみち公園",
"Jusho":"兵庫県三田市南が丘1丁目34",
"Capacity":"－",
"la":"34.88023048210",
"ln":"135.21848396900"
},
"geometry":{
"type":"Point",
"coordinates":[
135.218483969,
34.8802304821
]
}
},
{
"type":"Feature",
"properties":{
"Name":"はじかみ池公園",
"Jusho":"兵庫県三田市あかしあ台5丁目1番地",
"Capacity":"－",
"la":"34.89890328000",
"ln":"135.18883952000"
},
"geometry":{
"type":"Point",
"coordinates":[
135.18883952,
34.89890328
]
}
},
{
"type":"Feature",
"properties":{
"Name":"ルーラガーデン公園",
"Jusho":"兵庫県三田市下深田746-692",
"Capacity":"－",
"la":"34.88742120840",
"ln":"135.20968961800"
},
"geometry":{
"type":"Point",
"coordinates":[
135.209689618,
34.8874212084
]
}
},
{
"type":"Feature",
"properties":{
"Name":"羽束運動公園",
"Jusho":"兵庫県三田市",
"Capacity":"－",
"la":"34.92097928850",
"ln":"135.27750811800"
},
"geometry":{
"type":"Point",
"coordinates":[
135.277508118,
34.9209792885
]
}
},
{
"type":"Feature",
"properties":{
"Name":"奥池公園",
"Jusho":"兵庫県三田市高次2丁目1008番地",
"Capacity":"－",
"la":"34.89050829000",
"ln":"135.23514040000"
},
"geometry":{
"type":"Point",
"coordinates":[
135.2351404,
34.89050829
]
}
},
{
"type":"Feature",
"properties":{
"Name":"横山公園",
"Jusho":"兵庫県三田市南が丘2丁目",
"Capacity":"－",
"la":"34.87711273300",
"ln":"135.21968768600"
},
"geometry":{
"type":"Point",
"coordinates":[
135.219687686,
34.877112733
]
}
},
{
"type":"Feature",
"properties":{
"Name":"下井沢ふれあい公園",
"Jusho":"兵庫県三田市下井沢",
"Capacity":"－",
"la":"34.92184120500",
"ln":"135.19124641300"
},
"geometry":{
"type":"Point",
"coordinates":[
135.191246413,
34.921841205
]
}
},
{
"type":"Feature",
"properties":{
"Name":"学園東公園",
"Jusho":"兵庫県三田市学園3丁目3番地",
"Capacity":"－",
"la":"34.91212111000",
"ln":"135.16611014000"
},
"geometry":{
"type":"Point",
"coordinates":[
135.16611014,
34.91212111
]
}
},
{
"type":"Feature",
"properties":{
"Name":"狭間２児童公園",
"Jusho":"兵庫県三田市",
"Capacity":"－",
"la":"34.88023469910",
"ln":"135.20679184000"
},
"geometry":{
"type":"Point",
"coordinates":[
135.20679184,
34.8802346991
]
}
},
{
"type":"Feature",
"properties":{
"Name":"狭間４児童公園",
"Jusho":"兵庫県三田市狭間が丘4丁目20",
"Capacity":"－",
"la":"34.88001806910",
"ln":"135.20014249000"
},
"geometry":{
"type":"Point",
"coordinates":[
135.20014249,
34.8800180691
]
}
},
{
"type":"Feature",
"properties":{
"Name":"狭間が丘三丁目児童公園",
"Jusho":"兵庫県三田市狭間が丘3丁目21",
"Capacity":"－",
"la":"34.87745087910",
"ln":"135.20284989000"
},
"geometry":{
"type":"Point",
"coordinates":[
135.20284989,
34.8774508791
]
}
},
{
"type":"Feature",
"properties":{
"Name":"駒ヶ谷運動公園",
"Jusho":"兵庫県三田市ゆりのき台1丁目44番地",
"Capacity":"－",
"la":"34.91208026000",
"ln":"135.18026637000"
},
"geometry":{
"type":"Point",
"coordinates":[
135.18026637,
34.91208026
]
}
},
{
"type":"Feature",
"properties":{
"Name":"御池南公園",
"Jusho":"兵庫県三田市西山1丁目13",
"Capacity":"－",
"la":"34.88556664000",
"ln":"135.21995886000"
},
"geometry":{
"type":"Point",
"coordinates":[
135.21995886,
34.88556664
]
}
},
{
"type":"Feature",
"properties":{
"Name":"三田谷公園",
"Jusho":"兵庫県三田市武庫が丘3丁目3836番地",
"Capacity":"－",
"la":"34.88373443000",
"ln":"135.20990639000"
},
"geometry":{
"type":"Point",
"coordinates":[
135.20990639,
34.88373443
]
}
},
{
"type":"Feature",
"properties":{
"Name":"車池公園",
"Jusho":"兵庫県三田市富士が丘2丁目18",
"Capacity":"－",
"la":"34.88894393000",
"ln":"135.19301319000"
},
"geometry":{
"type":"Point",
"coordinates":[
135.19301319,
34.88894393
]
}
},
{
"type":"Feature",
"properties":{
"Name":"小屋ヶ谷公園",
"Jusho":"兵庫県三田市狭間が丘5丁目",
"Capacity":"－",
"la":"34.88135236000",
"ln":"135.20201562000"
},
"geometry":{
"type":"Point",
"coordinates":[
135.20201562,
34.88135236
]
}
},
{
"type":"Feature",
"properties":{
"Name":"小寺公園",
"Jusho":"兵庫県三田市三田町19番",
"Capacity":"－",
"la":"34.88409900000",
"ln":"135.22553400000"
},
"geometry":{
"type":"Point",
"coordinates":[
135.225534,
34.884099
]
}
},
{
"type":"Feature",
"properties":{
"Name":"上新田公園",
"Jusho":"兵庫県三田市西山2丁目10",
"Capacity":"－",
"la":"34.88252909000",
"ln":"135.21770783000"
},
"geometry":{
"type":"Point",
"coordinates":[
135.21770783,
34.88252909
]
}
},
{
"type":"Feature",
"properties":{
"Name":"城山公園",
"Jusho":"兵庫県三田市三輪字城山1314番地",
"Capacity":"－",
"la":"34.89926079000",
"ln":"135.22911222000"
},
"geometry":{
"type":"Point",
"coordinates":[
135.22911222,
34.89926079
]
}
},
{
"type":"Feature",
"properties":{
"Name":"深田公園",
"Jusho":"兵庫県三田市弥生が丘6丁目4番地",
"Capacity":"－",
"la":"34.88556286000",
"ln":"135.19819430000"
},
"geometry":{
"type":"Point",
"coordinates":[
135.1981943,
34.88556286
]
}
},
{
"type":"Feature",
"properties":{
"Name":"杉ケ丘公園広場",
"Jusho":"兵庫県三田市",
"Capacity":"－",
"la":"34.89796055120",
"ln":"135.22498694500"
},
"geometry":{
"type":"Point",
"coordinates":[
135.224986945,
34.8979605512
]
}
},
{
"type":"Feature",
"properties":{
"Name":"西相野公園",
"Jusho":"兵庫県三田市西相野",
"Capacity":"－",
"la":"34.95717949910",
"ln":"135.14289493000"
},
"geometry":{
"type":"Point",
"coordinates":[
135.14289493,
34.9571794991
]
}
},
{
"type":"Feature",
"properties":{
"Name":"大歳公園",
"Jusho":"兵庫県三田市南が丘1丁目9",
"Capacity":"－",
"la":"34.88160164890",
"ln":"135.22300345800"
},
"geometry":{
"type":"Point",
"coordinates":[
135.223003458,
34.8816016489
]
}
},
{
"type":"Feature",
"properties":{
"Name":"団地内公園",
"Jusho":"兵庫県三田市",
"Capacity":"－",
"la":"34.88482979600",
"ln":"135.22031911600"
},
"geometry":{
"type":"Point",
"coordinates":[
135.220319116,
34.884829796
]
}
},
{
"type":"Feature",
"properties":{
"Name":"中央公園",
"Jusho":"兵庫県三田市けやき台2丁目3番地",
"Capacity":"－",
"la":"34.90728956000",
"ln":"135.19553923000"
},
"geometry":{
"type":"Point",
"coordinates":[
135.19553923,
34.90728956
]
}
},
{
"type":"Feature",
"properties":{
"Name":"天神垣内公園",
"Jusho":"兵庫県三田市天神3丁目40",
"Capacity":"－",
"la":"34.88860089970",
"ln":"135.21395761000"
},
"geometry":{
"type":"Point",
"coordinates":[
135.21395761,
34.8886008997
]
}
},
{
"type":"Feature",
"properties":{
"Name":"天神上ノ宮公園",
"Jusho":"兵庫県三田市天神3丁目12",
"Capacity":"－",
"la":"34.88888752300",
"ln":"135.21621536800"
},
"geometry":{
"type":"Point",
"coordinates":[
135.216215368,
34.888887523
]
}
},
{
"type":"Feature",
"properties":{
"Name":"富士が丘３児童公園",
"Jusho":"兵庫県三田市富士が丘3-1",
"Capacity":"－",
"la":"34.88909657910",
"ln":"135.18788509000"
},
"geometry":{
"type":"Point",
"coordinates":[
135.18788509,
34.8890965791
]
}
},
{
"type":"Feature",
"properties":{
"Name":"富士が丘５児童公園",
"Jusho":"兵庫県三田市富士が丘5丁目67番地",
"Capacity":"－",
"la":"34.89203400000",
"ln":"135.19981700000"
},
"geometry":{
"type":"Point",
"coordinates":[
135.199817,
34.892034
]
}
},
{
"type":"Feature",
"properties":{
"Name":"富士が丘６丁目児童公園",
"Jusho":"兵庫県三田市富士が丘6丁目25",
"Capacity":"－",
"la":"34.89033302000",
"ln":"135.20004652000"
},
"geometry":{
"type":"Point",
"coordinates":[
135.20004652,
34.89033302
]
}
},
{
"type":"Feature",
"properties":{
"Name":"武庫が丘２児童公園",
"Jusho":"兵庫県三田市武庫が丘2",
"Capacity":"－",
"la":"34.88204785910",
"ln":"135.21318973000"
},
"geometry":{
"type":"Point",
"coordinates":[
135.21318973,
34.8820478591
]
}
},
{
"type":"Feature",
"properties":{
"Name":"武庫が丘６児童公園",
"Jusho":"兵庫県三田市武庫が丘6",
"Capacity":"－",
"la":"34.88796411910",
"ln":"135.20735245000"
},
"geometry":{
"type":"Point",
"coordinates":[
135.20735245,
34.8879641191
]
}
},
{
"type":"Feature",
"properties":{
"Name":"芳ノ塚公園",
"Jusho":"兵庫県三田市西山1丁目3",
"Capacity":"－",
"la":"34.88239835000",
"ln":"135.22046711000"
},
"geometry":{
"type":"Point",
"coordinates":[
135.22046711,
34.88239835
]
}
},
{
"type":"Feature",
"properties":{
"Name":"野鳥の森公園",
"Jusho":"兵庫県三田市つつじが丘南4丁目",
"Capacity":"－",
"la":"34.94330731130",
"ln":"135.12288402100"
},
"geometry":{
"type":"Point",
"coordinates":[
135.122884021,
34.9433073113
]
}
},
{
"type":"Feature",
"properties":{
"Name":"丸山総合公園",
"Jusho":"兵庫県加西市北条町西高室591-15",
"Capacity":"－",
"la":"34.92544110000",
"ln":"134.83603777000"
},
"geometry":{
"type":"Point",
"coordinates":[
134.83603777,
34.9254411
]
}
},
{
"type":"Feature",
"properties":{
"Name":"玉丘史跡公園",
"Jusho":"兵庫県加西市玉丘町76",
"Capacity":"－",
"la":"34.92069395160",
"ln":"134.85072539900"
},
"geometry":{
"type":"Point",
"coordinates":[
134.850725399,
34.9206939516
]
}
},
{
"type":"Feature",
"properties":{
"Name":"丹波伝統工芸公園",
"Jusho":"兵庫県篠山市今田町上立杭3",
"Capacity":"100",
"la":"34.98062494010",
"ln":"135.13124966600"
},
"geometry":{
"type":"Point",
"coordinates":[
135.131249666,
34.9806249401
]
}
},
{
"type":"Feature",
"properties":{
"Name":"遺跡公園",
"Jusho":"兵庫県丹波市春日町七日市733-1外",
"Capacity":"5779",
"la":"35.16564755600",
"ln":"135.11631181300"
},
"geometry":{
"type":"Point",
"coordinates":[
135.116311813,
35.165647556
]
}
},
{
"type":"Feature",
"properties":{
"Name":"水分れ公園駐車場",
"Jusho":"兵庫県丹波市氷上町石生1048外",
"Capacity":"750",
"la":"35.15133844770",
"ln":"135.06822380100"
},
"geometry":{
"type":"Point",
"coordinates":[
135.068223801,
35.1513384477
]
}
},
{
"type":"Feature",
"properties":{
"Name":"氷上さくら公園",
"Jusho":"兵庫県丹波市氷上町犬岡467-1",
"Capacity":"5500",
"la":"35.16336800000",
"ln":"135.04362800000"
},
"geometry":{
"type":"Point",
"coordinates":[
135.043628,
35.163368
]
}
},
{
"type":"Feature",
"properties":{
"Name":"県立淡路佐野運動公園",
"Jusho":"兵庫県淡路市佐野新島9-6",
"Capacity":"－",
"la":"34.45411587910",
"ln":"134.93080923000"
},
"geometry":{
"type":"Point",
"coordinates":[
134.93080923,
34.4541158791
]
}
},
{
"type":"Feature",
"properties":{
"Name":"県立淡路島公園",
"Jusho":"兵庫県淡路市岩屋2674-3番地",
"Capacity":"－",
"la":"34.57603318630",
"ln":"135.00692019600"
},
"geometry":{
"type":"Point",
"coordinates":[
135.006920196,
34.5760331863
]
}
},
{
"type":"Feature",
"properties":{
"Name":"佐野よい公園",
"Jusho":"兵庫県淡路市佐野新島",
"Capacity":"－",
"la":"34.45762247270",
"ln":"134.93352673600"
},
"geometry":{
"type":"Point",
"coordinates":[
134.933526736,
34.4576224727
]
}
},
{
"type":"Feature",
"properties":{
"Name":"佐野新島緑地公園",
"Jusho":"兵庫県淡路市佐野新島",
"Capacity":"－",
"la":"34.45585375340",
"ln":"134.92958126000"
},
"geometry":{
"type":"Point",
"coordinates":[
134.92958126,
34.4558537534
]
}
},
{
"type":"Feature",
"properties":{
"Name":"多賀海浜公園",
"Jusho":"兵庫県淡路市多賀",
"Capacity":"－",
"la":"34.47018012530",
"ln":"134.84052001000"
},
"geometry":{
"type":"Point",
"coordinates":[
134.84052001,
34.4701801253
]
}
},
{
"type":"Feature",
"properties":{
"Name":"津名臨界運動公園",
"Jusho":"兵庫県淡路市志筑新島7-1番地",
"Capacity":"－",
"la":"34.42492416220",
"ln":"134.90097650800"
},
"geometry":{
"type":"Point",
"coordinates":[
134.900976508,
34.4249241622
]
}
},
{
"type":"Feature",
"properties":{
"Name":"北淡震災記念公園",
"Jusho":"兵庫県淡路市小倉177番地",
"Capacity":"－",
"la":"34.55016452270",
"ln":"134.93771138800"
},
"geometry":{
"type":"Point",
"coordinates":[
134.937711388,
34.5501645227
]
}
},
{
"type":"Feature",
"properties":{
"Name":"北淡震災記念公園セミナーハウス",
"Jusho":"兵庫県淡路市小倉177",
"Capacity":"100",
"la":"34.54986812570",
"ln":"134.93885344100"
},
"geometry":{
"type":"Point",
"coordinates":[
134.938853441,
34.5498681257
]
}
},
{
"type":"Feature",
"properties":{
"Name":"家原遺跡公園",
"Jusho":"兵庫県宍粟市三方町624-1",
"Capacity":"－",
"la":"35.18372589210",
"ln":"134.62813394600"
},
"geometry":{
"type":"Point",
"coordinates":[
134.628133946,
35.1837258921
]
}
},
{
"type":"Feature",
"properties":{
"Name":"波賀総合スポーツ公園（メイプルスタジアム）",
"Jusho":"兵庫県宍粟市有賀97-1",
"Capacity":"－",
"la":"35.16282300980",
"ln":"134.54230504300"
},
"geometry":{
"type":"Point",
"coordinates":[
134.542305043,
35.1628230098
]
}
},
{
"type":"Feature",
"properties":{
"Name":"波賀不動滝公園楓香荘",
"Jusho":"兵庫県宍粟市原625",
"Capacity":"300",
"la":"35.20191810080",
"ln":"134.50508042000"
},
"geometry":{
"type":"Point",
"coordinates":[
134.50508042,
35.2019181008
]
}
},
{
"type":"Feature",
"properties":{
"Name":"本多公園グラウンド",
"Jusho":"兵庫県宍粟市中井26-1",
"Capacity":"－",
"la":"35.00179674480",
"ln":"134.54061182200"
},
"geometry":{
"type":"Point",
"coordinates":[
134.540611822,
35.0017967448
]
}
},
{
"type":"Feature",
"properties":{
"Name":"夢公園・中広瀬多目的広場",
"Jusho":"兵庫県宍粟市中広瀬128-5",
"Capacity":"－",
"la":"35.00440198910",
"ln":"134.54859540000"
},
"geometry":{
"type":"Point",
"coordinates":[
134.5485954,
35.0044019891
]
}
},
{
"type":"Feature",
"properties":{
"Name":"滝野総合公園体育館（スカイピア）",
"Jusho":"兵庫県加東市河高4007",
"Capacity":"－",
"la":"34.92777200000",
"ln":"134.93841800000"
},
"geometry":{
"type":"Point",
"coordinates":[
134.938418,
34.927772
]
}
},
{
"type":"Feature",
"properties":{
"Name":"千鳥ヶ浜公園",
"Jusho":"兵庫県たつの市",
"Capacity":"－",
"la":"34.85847553000",
"ln":"134.54227721000"
},
"geometry":{
"type":"Point",
"coordinates":[
134.54227721,
34.85847553
]
}
},
{
"type":"Feature",
"properties":{
"Name":"中川原公園",
"Jusho":"兵庫県たつの市",
"Capacity":"－",
"la":"34.85939000000",
"ln":"134.54579000000"
},
"geometry":{
"type":"Point",
"coordinates":[
134.54579,
34.85939
]
}
},
{
"type":"Feature",
"properties":{
"Name":"土師南山公園",
"Jusho":"兵庫県たつの市",
"Capacity":"－",
"la":"34.84056128000",
"ln":"134.50282336000"
},
"geometry":{
"type":"Point",
"coordinates":[
134.50282336,
34.84056128
]
}
},
{
"type":"Feature",
"properties":{
"Name":"龍野西運動公園",
"Jusho":"兵庫県たつの市",
"Capacity":"－",
"la":"34.85242324910",
"ln":"134.51319860000"
},
"geometry":{
"type":"Point",
"coordinates":[
134.5131986,
34.8524232491
]
}
},
{
"type":"Feature",
"properties":{
"Name":"龍野東運動公園",
"Jusho":"兵庫県たつの市",
"Capacity":"－",
"la":"34.86987783000",
"ln":"134.55618841000"
},
"geometry":{
"type":"Point",
"coordinates":[
134.55618841,
34.86987783
]
}
},
{
"type":"Feature",
"properties":{
"Name":"うぐいす池公園",
"Jusho":"兵庫県川辺郡猪名川町",
"Capacity":"－",
"la":"34.90280052000",
"ln":"135.38864973000"
},
"geometry":{
"type":"Point",
"coordinates":[
135.38864973,
34.90280052
]
}
},
{
"type":"Feature",
"properties":{
"Name":"さんさん公園",
"Jusho":"兵庫県川辺郡猪名川町",
"Capacity":"－",
"la":"34.89685135000",
"ln":"135.37026183000"
},
"geometry":{
"type":"Point",
"coordinates":[
135.37026183,
34.89685135
]
}
},
{
"type":"Feature",
"properties":{
"Name":"すいせん公園",
"Jusho":"兵庫県川辺郡猪名川町",
"Capacity":"－",
"la":"34.96752055000",
"ln":"135.33702132000"
},
"geometry":{
"type":"Point",
"coordinates":[
135.33702132,
34.96752055
]
}
},
{
"type":"Feature",
"properties":{
"Name":"せせらぎ公園",
"Jusho":"兵庫県川辺郡猪名川町",
"Capacity":"－",
"la":"34.89484917000",
"ln":"135.37289334000"
},
"geometry":{
"type":"Point",
"coordinates":[
135.37289334,
34.89484917
]
}
},
{
"type":"Feature",
"properties":{
"Name":"たんぽぽ公園",
"Jusho":"兵庫県川辺郡猪名川町",
"Capacity":"－",
"la":"34.97350678000",
"ln":"135.33071440000"
},
"geometry":{
"type":"Point",
"coordinates":[
135.3307144,
34.97350678
]
}
},
{
"type":"Feature",
"properties":{
"Name":"なかよし公園",
"Jusho":"兵庫県川辺郡猪名川町",
"Capacity":"－",
"la":"34.91662745120",
"ln":"135.37670945000"
},
"geometry":{
"type":"Point",
"coordinates":[
135.37670945,
34.9166274512
]
}
},
{
"type":"Feature",
"properties":{
"Name":"のびのび公園",
"Jusho":"兵庫県川辺郡猪名川町",
"Capacity":"－",
"la":"34.88686400000",
"ln":"135.37200100000"
},
"geometry":{
"type":"Point",
"coordinates":[
135.372001,
34.886864
]
}
},
{
"type":"Feature",
"properties":{
"Name":"みはらし公園",
"Jusho":"兵庫県川辺郡猪名川町",
"Capacity":"－",
"la":"34.89629851000",
"ln":"135.35900985000"
},
"geometry":{
"type":"Point",
"coordinates":[
135.35900985,
34.89629851
]
}
},
{
"type":"Feature",
"properties":{
"Name":"光の公園",
"Jusho":"兵庫県川辺郡猪名川町",
"Capacity":"－",
"la":"34.90345600000",
"ln":"135.35899800000"
},
"geometry":{
"type":"Point",
"coordinates":[
135.358998,
34.903456
]
}
},
{
"type":"Feature",
"properties":{
"Name":"向山公園",
"Jusho":"兵庫県川辺郡猪名川町",
"Capacity":"－",
"la":"34.88703170000",
"ln":"135.36730147000"
},
"geometry":{
"type":"Point",
"coordinates":[
135.36730147,
34.8870317
]
}
},
{
"type":"Feature",
"properties":{
"Name":"綱の塔公園",
"Jusho":"兵庫県川辺郡猪名川町",
"Capacity":"－",
"la":"34.89698582910",
"ln":"135.35621501000"
},
"geometry":{
"type":"Point",
"coordinates":[
135.35621501,
34.8969858291
]
}
},
{
"type":"Feature",
"properties":{
"Name":"猪名川台北公園",
"Jusho":"兵庫県川辺郡猪名川町猪名川台2-3-33",
"Capacity":"－",
"la":"34.88426343910",
"ln":"135.37375894000"
},
"geometry":{
"type":"Point",
"coordinates":[
135.37375894,
34.8842634391
]
}
},
{
"type":"Feature",
"properties":{
"Name":"松尾台公園",
"Jusho":"兵庫県川辺郡猪名川町",
"Capacity":"－",
"la":"34.89951096000",
"ln":"135.38605089000"
},
"geometry":{
"type":"Point",
"coordinates":[
135.38605089,
34.89951096
]
}
},
{
"type":"Feature",
"properties":{
"Name":"大原公園",
"Jusho":"兵庫県川辺郡猪名川町",
"Capacity":"－",
"la":"34.89886847000",
"ln":"135.36556141000"
},
"geometry":{
"type":"Point",
"coordinates":[
135.36556141,
34.89886847
]
}
},
{
"type":"Feature",
"properties":{
"Name":"東山公園",
"Jusho":"兵庫県川辺郡猪名川町",
"Capacity":"－",
"la":"34.93375722000",
"ln":"135.34579786000"
},
"geometry":{
"type":"Point",
"coordinates":[
135.34579786,
34.93375722
]
}
},
{
"type":"Feature",
"properties":{
"Name":"風の公園",
"Jusho":"兵庫県川辺郡猪名川町",
"Capacity":"－",
"la":"34.90273074160",
"ln":"135.35613626400"
},
"geometry":{
"type":"Point",
"coordinates":[
135.356136264,
34.9027307416
]
}
},
{
"type":"Feature",
"properties":{
"Name":"伏見台南公園",
"Jusho":"兵庫県川辺郡猪名川町",
"Capacity":"－",
"la":"34.91223807000",
"ln":"135.39903204000"
},
"geometry":{
"type":"Point",
"coordinates":[
135.39903204,
34.91223807
]
}
},
{
"type":"Feature",
"properties":{
"Name":"伏見台北公園",
"Jusho":"兵庫県川辺郡猪名川町",
"Capacity":"－",
"la":"34.91555278000",
"ln":"135.40144759000"
},
"geometry":{
"type":"Point",
"coordinates":[
135.40144759,
34.91555278
]
}
},
{
"type":"Feature",
"properties":{
"Name":"中央公園北アリーナ",
"Jusho":"兵庫県多可郡多可町中区岸上281-22",
"Capacity":"2425",
"la":"35.05744236750",
"ln":"134.91950129000"
},
"geometry":{
"type":"Point",
"coordinates":[
134.91950129,
35.0574423675
]
}
},
{
"type":"Feature",
"properties":{
"Name":"さくらの森公園",
"Jusho":"兵庫県加古郡稲美町草谷1202番地の1",
"Capacity":"－",
"la":"34.77233724000",
"ln":"134.94886159000"
},
"geometry":{
"type":"Point",
"coordinates":[
134.94886159,
34.77233724
]
}
},
{
"type":"Feature",
"properties":{
"Name":"稲美中央公園",
"Jusho":"兵庫県加古郡稲美町国安1287番地の3",
"Capacity":"－",
"la":"34.74934862000",
"ln":"134.92242598000"
},
"geometry":{
"type":"Point",
"coordinates":[
134.92242598,
34.74934862
]
}
},
{
"type":"Feature",
"properties":{
"Name":"大沢池スポーツ公園",
"Jusho":"兵庫県加古郡稲美町中一色280番地",
"Capacity":"－",
"la":"34.75489000000",
"ln":"134.88765000000"
},
"geometry":{
"type":"Point",
"coordinates":[
134.88765,
34.75489
]
}
},
{
"type":"Feature",
"properties":{
"Name":"天満大池公園",
"Jusho":"兵庫県加古郡稲美町六分一1179番地の1",
"Capacity":"－",
"la":"34.73145690000",
"ln":"134.90854613000"
},
"geometry":{
"type":"Point",
"coordinates":[
134.90854613,
34.7314569
]
}
},
{
"type":"Feature",
"properties":{
"Name":"瓜生公園",
"Jusho":"兵庫県加古郡播磨町西野添2丁目62番",
"Capacity":"－",
"la":"34.71771536000",
"ln":"134.87759231000"
},
"geometry":{
"type":"Point",
"coordinates":[
134.87759231,
34.71771536
]
}
},
{
"type":"Feature",
"properties":{
"Name":"駅西公園",
"Jusho":"兵庫県加古郡播磨町北野添2丁目1590番",
"Capacity":"－",
"la":"34.72144480000",
"ln":"134.88585053000"
},
"geometry":{
"type":"Point",
"coordinates":[
134.88585053,
34.7214448
]
}
},
{
"type":"Feature",
"properties":{
"Name":"宮の裏公園",
"Jusho":"兵庫県加古郡播磨町上野添2丁目1844番",
"Capacity":"－",
"la":"34.72350077000",
"ln":"134.88265642000"
},
"geometry":{
"type":"Point",
"coordinates":[
134.88265642,
34.72350077
]
}
},
{
"type":"Feature",
"properties":{
"Name":"宮西公園",
"Jusho":"兵庫県加古郡播磨町宮西2丁目61番2",
"Capacity":"－",
"la":"34.72135874000",
"ln":"134.85413012000"
},
"geometry":{
"type":"Point",
"coordinates":[
134.85413012,
34.72135874
]
}
},
{
"type":"Feature",
"properties":{
"Name":"宮北公園",
"Jusho":"兵庫県加古郡播磨町宮北3丁目473番5",
"Capacity":"－",
"la":"34.71543945000",
"ln":"134.86255096000"
},
"geometry":{
"type":"Point",
"coordinates":[
134.86255096,
34.71543945
]
}
},
{
"type":"Feature",
"properties":{
"Name":"古田公園",
"Jusho":"兵庫県加古郡播磨町古田2丁目460番3",
"Capacity":"－",
"la":"34.72479173000",
"ln":"134.86239996000"
},
"geometry":{
"type":"Point",
"coordinates":[
134.86239996,
34.72479173
]
}
},
{
"type":"Feature",
"properties":{
"Name":"古田西公園",
"Jusho":"兵庫県加古郡播磨町古田3丁目1181番4",
"Capacity":"－",
"la":"34.72623569000",
"ln":"134.85929877000"
},
"geometry":{
"type":"Point",
"coordinates":[
134.85929877,
34.72623569
]
}
},
{
"type":"Feature",
"properties":{
"Name":"向ケ池公園",
"Jusho":"兵庫県加古郡播磨町東本荘1丁目350番10",
"Capacity":"－",
"la":"34.71525775910",
"ln":"134.86860234000"
},
"geometry":{
"type":"Point",
"coordinates":[
134.86860234,
34.7152577591
]
}
},
{
"type":"Feature",
"properties":{
"Name":"鹿ノ川公園",
"Jusho":"兵庫県加古郡播磨町西野添1丁目130番",
"Capacity":"－",
"la":"34.71937927000",
"ln":"134.87960169000"
},
"geometry":{
"type":"Point",
"coordinates":[
134.87960169,
34.71937927
]
}
},
{
"type":"Feature",
"properties":{
"Name":"鹿ノ川東公園",
"Jusho":"兵庫県加古郡播磨町東野添2丁目36番",
"Capacity":"－",
"la":"34.71738067000",
"ln":"134.88208729000"
},
"geometry":{
"type":"Point",
"coordinates":[
134.88208729,
34.71738067
]
}
},
{
"type":"Feature",
"properties":{
"Name":"城西公園",
"Jusho":"兵庫県加古郡播磨町野添城2丁目68番",
"Capacity":"－",
"la":"34.72859766000",
"ln":"134.88118132000"
},
"geometry":{
"type":"Point",
"coordinates":[
134.88118132,
34.72859766
]
}
},
{
"type":"Feature",
"properties":{
"Name":"城東公園",
"Jusho":"兵庫県加古郡播磨町野添城1丁目36番",
"Capacity":"－",
"la":"34.72609225000",
"ln":"134.88233120000"
},
"geometry":{
"type":"Point",
"coordinates":[
134.8823312,
34.72609225
]
}
},
{
"type":"Feature",
"properties":{
"Name":"新島中央公園",
"Jusho":"兵庫県加古郡播磨町新島46番1",
"Capacity":"－",
"la":"34.70133454000",
"ln":"134.85158645000"
},
"geometry":{
"type":"Point",
"coordinates":[
134.85158645,
34.70133454
]
}
},
{
"type":"Feature",
"properties":{
"Name":"水田川西公園",
"Jusho":"兵庫県加古郡播磨町宮西1丁目101番1",
"Capacity":"－",
"la":"34.72463873000",
"ln":"134.85461795000"
},
"geometry":{
"type":"Point",
"coordinates":[
134.85461795,
34.72463873
]
}
},
{
"type":"Feature",
"properties":{
"Name":"石ケ池公園",
"Jusho":"兵庫県加古郡播磨町北本荘4丁目477番",
"Capacity":"－",
"la":"34.72345295910",
"ln":"134.86104101000"
},
"geometry":{
"type":"Point",
"coordinates":[
134.86104101,
34.7234529591
]
}
},
{
"type":"Feature",
"properties":{
"Name":"川端公園",
"Jusho":"兵庫県加古郡播磨町南大中2丁目110番5",
"Capacity":"－",
"la":"34.71831781000",
"ln":"134.86771961000"
},
"geometry":{
"type":"Point",
"coordinates":[
134.86771961,
34.71831781
]
}
},
{
"type":"Feature",
"properties":{
"Name":"大西公園",
"Jusho":"兵庫県加古郡播磨町西野添5丁目178番",
"Capacity":"－",
"la":"34.72162649000",
"ln":"134.87436335000"
},
"geometry":{
"type":"Point",
"coordinates":[
134.87436335,
34.72162649
]
}
},
{
"type":"Feature",
"properties":{
"Name":"大西東公園",
"Jusho":"兵庫県加古郡播磨町西野添3丁目122番",
"Capacity":"－",
"la":"34.72014428000",
"ln":"134.87665150000"
},
"geometry":{
"type":"Point",
"coordinates":[
134.8766515,
34.72014428
]
}
},
{
"type":"Feature",
"properties":{
"Name":"大中公園",
"Jusho":"兵庫県加古郡播磨町大中252番1",
"Capacity":"－",
"la":"34.72283138000",
"ln":"134.87264434000"
},
"geometry":{
"type":"Point",
"coordinates":[
134.87264434,
34.72283138
]
}
},
{
"type":"Feature",
"properties":{
"Name":"長池公園",
"Jusho":"兵庫県加古郡播磨町二子417番1",
"Capacity":"－",
"la":"34.70992180000",
"ln":"134.87550162000"
},
"geometry":{
"type":"Point",
"coordinates":[
134.87550162,
34.7099218
]
}
},
{
"type":"Feature",
"properties":{
"Name":"田中公園",
"Jusho":"兵庫県加古郡播磨町南野添2丁目60番",
"Capacity":"－",
"la":"34.71844213000",
"ln":"134.87365484000"
},
"geometry":{
"type":"Point",
"coordinates":[
134.87365484,
34.71844213
]
}
},
{
"type":"Feature",
"properties":{
"Name":"二子北公園",
"Jusho":"兵庫県加古郡播磨町二子533番2",
"Capacity":"－",
"la":"34.71118407000",
"ln":"134.87817305000"
},
"geometry":{
"type":"Point",
"coordinates":[
134.87817305,
34.71118407
]
}
},
{
"type":"Feature",
"properties":{
"Name":"浜田公園",
"Jusho":"兵庫県加古郡播磨町本荘70番地の1",
"Capacity":"－",
"la":"34.71071550000",
"ln":"134.86199344000"
},
"geometry":{
"type":"Point",
"coordinates":[
134.86199344,
34.7107155
]
}
},
{
"type":"Feature",
"properties":{
"Name":"平松公園",
"Jusho":"兵庫県加古郡播磨町北本荘3丁目940番2",
"Capacity":"－",
"la":"34.72097623000",
"ln":"134.85910132000"
},
"geometry":{
"type":"Point",
"coordinates":[
134.85910132,
34.72097623
]
}
},
{
"type":"Feature",
"properties":{
"Name":"野添北公園",
"Jusho":"兵庫県加古郡播磨町上野添2丁目1900番地",
"Capacity":"－",
"la":"34.72445703000",
"ln":"134.88302810000"
},
"geometry":{
"type":"Point",
"coordinates":[
134.8830281,
34.72445703
]
}
},
{
"type":"Feature",
"properties":{
"Name":"蓮池公園",
"Jusho":"兵庫県加古郡播磨町西野添4丁目68番",
"Capacity":"－",
"la":"34.72200900000",
"ln":"134.87773169000"
},
"geometry":{
"type":"Point",
"coordinates":[
134.87773169,
34.722009
]
}
},
{
"type":"Feature",
"properties":{
"Name":"総合公園グラウンド",
"Jusho":"兵庫県揖保郡太子町",
"Capacity":"－",
"la":"34.84268100000",
"ln":"134.58672500000"
},
"geometry":{
"type":"Point",
"coordinates":[
134.586725,
34.842681
]
}
},
{
"type":"Feature",
"properties":{
"Name":"太子山公園",
"Jusho":"兵庫県揖保郡太子町",
"Capacity":"－",
"la":"34.83216119910",
"ln":"134.57654464000"
},
"geometry":{
"type":"Point",
"coordinates":[
134.57654464,
34.8321611991
]
}
},
{
"type":"Feature",
"properties":{
"Name":"太田公園",
"Jusho":"兵庫県揖保郡太子町",
"Capacity":"－",
"la":"34.82814488000",
"ln":"134.60892709000"
},
"geometry":{
"type":"Point",
"coordinates":[
134.60892709,
34.82814488
]
}
},
{
"type":"Feature",
"properties":{
"Name":"斑鳩寺公園",
"Jusho":"兵庫県揖保郡太子町",
"Capacity":"－",
"la":"34.83727721910",
"ln":"134.57482563000"
},
"geometry":{
"type":"Point",
"coordinates":[
134.57482563,
34.8372772191
]
}
},
{
"type":"Feature",
"properties":{
"Name":"健康公園体育館",
"Jusho":"兵庫県美方郡新温泉町",
"Capacity":"－",
"la":"35.53529759220",
"ln":"134.49230828400"
},
"geometry":{
"type":"Point",
"coordinates":[
134.492308284,
35.5352975922
]
}
},
{
"type":"Feature",
"properties":{
"Name":"猪名川台東公園",
"Jusho":"兵庫県川辺郡猪名川町猪名川台1-2-30",
"Capacity":"－",
"la":"34.88355000000",
"ln":"135.37620700000"
},
"geometry":{
"type":"Point",
"coordinates":[
135.376207,
34.88355
]
}
},
{
"type":"Feature",
"properties":{
"Name":"猪名川台南公園",
"Jusho":"兵庫県川辺郡猪名川町猪名川台1-1-26",
"Capacity":"－",
"la":"34.88235100000",
"ln":"135.37605600000"
},
"geometry":{
"type":"Point",
"coordinates":[
135.376056,
34.882351
]
}
},
{
"type":"Feature",
"properties":{
"Name":"本庄中央公園",
"Jusho":"兵庫県神戸市東灘区青木5-18",
"Capacity":"－",
"la":"34.719685",
"ln":"135.285914"
},
"geometry":{
"type":"Point",
"coordinates":[
135.285914,
34.719685
]
}
},
{
"type":"Feature",
"properties":{
"Name":"小寄公園",
"Jusho":"兵庫県神戸市東灘区本山南町4-4",
"Capacity":"－",
"la":"34.721646",
"ln":"135.280379"
},
"geometry":{
"type":"Point",
"coordinates":[
135.280379,
34.721646
]
}
},
{
"type":"Feature",
"properties":{
"Name":"手水公園",
"Jusho":"兵庫県神戸市東灘区田中町3-16",
"Capacity":"－",
"la":"34.724033",
"ln":"135.271316"
},
"geometry":{
"type":"Point",
"coordinates":[
135.271316,
34.724033
]
}
},
{
"type":"Feature",
"properties":{
"Name":"瀬戸公園",
"Jusho":"兵庫県神戸市東灘区魚崎南町1-2",
"Capacity":"－",
"la":"34.712276",
"ln":"135.280017"
},
"geometry":{
"type":"Point",
"coordinates":[
135.280017,
34.712276
]
}
},
{
"type":"Feature",
"properties":{
"Name":"住吉宮町公園",
"Jusho":"兵庫県神戸市東灘区住吉宮町3-2",
"Capacity":"－",
"la":"34.7167336",
"ln":"135.2633581"
},
"geometry":{
"type":"Point",
"coordinates":[
135.2633581,
34.7167336
]
}
},
{
"type":"Feature",
"properties":{
"Name":"住吉公園",
"Jusho":"兵庫県神戸市東灘区住吉宮町3-3",
"Capacity":"－",
"la":"34.7162364",
"ln":"135.2624276"
},
"geometry":{
"type":"Point",
"coordinates":[
135.2624276,
34.7162364
]
}
},
{
"type":"Feature",
"properties":{
"Name":"御影公園",
"Jusho":"兵庫県神戸市東灘区御影中町5-1",
"Capacity":"－",
"la":"34.715035",
"ln":"135.254224"
},
"geometry":{
"type":"Point",
"coordinates":[
135.254224,
34.715035
]
}
},
{
"type":"Feature",
"properties":{
"Name":"大和公園",
"Jusho":"兵庫県神戸市灘区中郷町5-1",
"Capacity":"－",
"la":"34.7154781",
"ln":"135.2435651"
},
"geometry":{
"type":"Point",
"coordinates":[
135.2435651,
34.7154781
]
}
},
{
"type":"Feature",
"properties":{
"Name":"成徳公園",
"Jusho":"兵庫県神戸市灘区備後町1-3",
"Capacity":"－",
"la":"34.7153309",
"ln":"135.2420235"
},
"geometry":{
"type":"Point",
"coordinates":[
135.2420235,
34.7153309
]
}
},
{
"type":"Feature",
"properties":{
"Name":"王子公園",
"Jusho":"兵庫県神戸市灘区王子町2-1",
"Capacity":"－",
"la":"34.7100258",
"ln":"135.2169476"
},
"geometry":{
"type":"Point",
"coordinates":[
135.2169476,
34.7100258
]
}
},
{
"type":"Feature",
"properties":{
"Name":"なぎさ公園",
"Jusho":"兵庫県神戸市中央区脇浜海岸通1-2",
"Capacity":"－",
"la":"34.6969216",
"ln":"135.2146065"
},
"geometry":{
"type":"Point",
"coordinates":[
135.2146065,
34.6969216
]
}
},
{
"type":"Feature",
"properties":{
"Name":"摩耶海岸通公園",
"Jusho":"兵庫県神戸市灘区摩耶海岸通1-2",
"Capacity":"－",
"la":"34.7000798",
"ln":"135.2215447"
},
"geometry":{
"type":"Point",
"coordinates":[
135.2215447,
34.7000798
]
}
},
{
"type":"Feature",
"properties":{
"Name":"脇浜海岸通公園",
"Jusho":"兵庫県神戸市中央区脇浜海岸通4-2",
"Capacity":"－",
"la":"34.695005",
"ln":"135.209196"
},
"geometry":{
"type":"Point",
"coordinates":[
135.209196,
34.695005
]
}
},
{
"type":"Feature",
"properties":{
"Name":"西郷川河口公園",
"Jusho":"兵庫県神戸市灘区摩耶海岸通2-1",
"Capacity":"－",
"la":"34.7021519",
"ln":"135.2248194"
},
"geometry":{
"type":"Point",
"coordinates":[
135.2248194,
34.7021519
]
}
},
{
"type":"Feature",
"properties":{
"Name":"生田川公園（ＨＡＴゆめ公園）",
"Jusho":"兵庫県神戸市中央区脇浜海岸通3",
"Capacity":"－",
"la":"34.693618",
"ln":"135.2047"
},
"geometry":{
"type":"Point",
"coordinates":[
135.2047,
34.693618
]
}
},
{
"type":"Feature",
"properties":{
"Name":"磯上公園",
"Jusho":"兵庫県神戸市中央区八幡町2-1",
"Capacity":"－",
"la":"34.691555",
"ln":"135.199191"
},
"geometry":{
"type":"Point",
"coordinates":[
135.199191,
34.691555
]
}
},
{
"type":"Feature",
"properties":{
"Name":"みなとのもり公園(神戸震災復興記念公園)",
"Jusho":"兵庫県神戸市中央区小野浜町3",
"Capacity":"－",
"la":"34.686785",
"ln":"135.200754"
},
"geometry":{
"type":"Point",
"coordinates":[
135.200754,
34.686785
]
}
},
{
"type":"Feature",
"properties":{
"Name":"大倉山公園",
"Jusho":"兵庫県神戸市中央区楠町7-4",
"Capacity":"－",
"la":"34.686397",
"ln":"135.1729242"
},
"geometry":{
"type":"Point",
"coordinates":[
135.1729242,
34.686397
]
}
},
{
"type":"Feature",
"properties":{
"Name":"湊川公園",
"Jusho":"兵庫県神戸市兵庫区荒田町1-20",
"Capacity":"－",
"la":"34.679967",
"ln":"135.1662804"
},
"geometry":{
"type":"Point",
"coordinates":[
135.1662804,
34.679967
]
}
},
{
"type":"Feature",
"properties":{
"Name":"荒田公園",
"Jusho":"兵庫県神戸市兵庫区荒田町2-19",
"Capacity":"－",
"la":"34.6823501",
"ln":"135.1668247"
},
"geometry":{
"type":"Point",
"coordinates":[
135.1668247,
34.6823501
]
}
},
{
"type":"Feature",
"properties":{
"Name":"夢野台公園",
"Jusho":"兵庫県神戸市兵庫区滝山町",
"Capacity":"－",
"la":"34.6839219",
"ln":"135.1509953"
},
"geometry":{
"type":"Point",
"coordinates":[
135.1509953,
34.6839219
]
}
},
{
"type":"Feature",
"properties":{
"Name":"会下山公園",
"Jusho":"兵庫県神戸市兵庫区会下山町3",
"Capacity":"－",
"la":"34.678142",
"ln":"135.157474"
},
"geometry":{
"type":"Point",
"coordinates":[
135.157474,
34.678142
]
}
},
{
"type":"Feature",
"properties":{
"Name":"菊水公園",
"Jusho":"兵庫県神戸市兵庫区菊水町3",
"Capacity":"－",
"la":"34.6863052",
"ln":"135.1624445"
},
"geometry":{
"type":"Point",
"coordinates":[
135.1624445,
34.6863052
]
}
},
{
"type":"Feature",
"properties":{
"Name":"兵庫駅南公園",
"Jusho":"兵庫県神戸市兵庫区駅南通5-2",
"Capacity":"－",
"la":"34.664766",
"ln":"135.16067"
},
"geometry":{
"type":"Point",
"coordinates":[
135.16067,
34.664766
]
}
},
{
"type":"Feature",
"properties":{
"Name":"正慶町公園",
"Jusho":"兵庫県神戸市兵庫区駅南通4-1",
"Capacity":"－",
"la":"34.6638656",
"ln":"135.1606865"
},
"geometry":{
"type":"Point",
"coordinates":[
135.1606865,
34.6638656
]
}
},
{
"type":"Feature",
"properties":{
"Name":"御崎公園",
"Jusho":"兵庫県神戸市兵庫区御崎町1-2",
"Capacity":"－",
"la":"34.6576663",
"ln":"135.1701277"
},
"geometry":{
"type":"Point",
"coordinates":[
135.1701277,
34.6576663
]
}
},
{
"type":"Feature",
"properties":{
"Name":"新湊川公園",
"Jusho":"兵庫県神戸市長田区細田町1",
"Capacity":"－",
"la":"34.663403",
"ln":"135.151065"
},
"geometry":{
"type":"Point",
"coordinates":[
135.151065,
34.663403
]
}
},
{
"type":"Feature",
"properties":{
"Name":"神楽公園",
"Jusho":"兵庫県神戸市長田区細田町1-2",
"Capacity":"－",
"la":"34.6630488",
"ln":"135.1505901"
},
"geometry":{
"type":"Point",
"coordinates":[
135.1505901,
34.6630488
]
}
},
{
"type":"Feature",
"properties":{
"Name":"西代蓮池公園",
"Jusho":"兵庫県神戸市長田区蓮池町",
"Capacity":"－",
"la":"34.6641265",
"ln":"135.1440462"
},
"geometry":{
"type":"Point",
"coordinates":[
135.1440462,
34.6641265
]
}
},
{
"type":"Feature",
"properties":{
"Name":"若松公園",
"Jusho":"兵庫県神戸市長田区若松町6-3",
"Capacity":"－",
"la":"34.6554106",
"ln":"135.1439465"
},
"geometry":{
"type":"Point",
"coordinates":[
135.1439465,
34.6554106
]
}
},
{
"type":"Feature",
"properties":{
"Name":"妙法寺川公園",
"Jusho":"兵庫県神戸市須磨区戸政町1",
"Capacity":"－",
"la":"34.653946",
"ln":"135.130029"
},
"geometry":{
"type":"Point",
"coordinates":[
135.130029,
34.653946
]
}
},
{
"type":"Feature",
"properties":{
"Name":"妙法寺川左岸公園",
"Jusho":"兵庫県神戸市須磨区大池町5",
"Capacity":"－",
"la":"34.651188",
"ln":"135.131342"
},
"geometry":{
"type":"Point",
"coordinates":[
135.131342,
34.651188
]
}
},
{
"type":"Feature",
"properties":{
"Name":"鷹取駅北公園",
"Jusho":"兵庫県神戸市須磨区大池町5-7",
"Capacity":"－",
"la":"34.654485",
"ln":"135.135427"
},
"geometry":{
"type":"Point",
"coordinates":[
135.135427,
34.654485
]
}
},
{
"type":"Feature",
"properties":{
"Name":"下中島公園",
"Jusho":"兵庫県神戸市須磨区中島町1",
"Capacity":"－",
"la":"34.651173",
"ln":"135.129982"
},
"geometry":{
"type":"Point",
"coordinates":[
135.129982,
34.651173
]
}
},
{
"type":"Feature",
"properties":{
"Name":"須磨海浜公園",
"Jusho":"兵庫県神戸市須磨区若宮町1",
"Capacity":"－",
"la":"34.643822",
"ln":"135.130901"
},
"geometry":{
"type":"Point",
"coordinates":[
135.130901,
34.643822
]
}
},
{
"type":"Feature",
"properties":{
"Name":"離宮公園",
"Jusho":"兵庫県神戸市須磨区水野町1",
"Capacity":"－",
"la":"34.6540441",
"ln":"135.1204125"
},
"geometry":{
"type":"Point",
"coordinates":[
135.1204125,
34.6540441
]
}
},
{
"type":"Feature",
"properties":{
"Name":"須磨浦公園",
"Jusho":"兵庫県神戸市須磨区一ノ谷町5",
"Capacity":"－",
"la":"34.6368234",
"ln":"135.0990622"
},
"geometry":{
"type":"Point",
"coordinates":[
135.0990622,
34.6368234
]
}
},
{
"type":"Feature",
"properties":{
"Name":"青山台東公園",
"Jusho":"兵庫県神戸市垂水区青山台4-1",
"Capacity":"－",
"la":"34.6427532",
"ln":"135.0756724"
},
"geometry":{
"type":"Point",
"coordinates":[
135.0756724,
34.6427532
]
}
},
{
"type":"Feature",
"properties":{
"Name":"矢元台公園",
"Jusho":"兵庫県神戸市垂水区狩口台2-7",
"Capacity":"－",
"la":"34.6494765",
"ln":"135.0256817"
},
"geometry":{
"type":"Point",
"coordinates":[
135.0256817,
34.6494765
]
}
},
{
"type":"Feature",
"properties":{
"Name":"鈴蘭公園",
"Jusho":"兵庫県神戸市北区南五葉5-1",
"Capacity":"－",
"la":"34.7225006",
"ln":"135.1355404"
},
"geometry":{
"type":"Point",
"coordinates":[
135.1355404,
34.7225006
]
}
}
]
};