var k={
"type":"FeatureCollection",
"features":[
{
"type":"Feature",
"properties":{
"Name":"高知県立春野総合運動公園",
"Jusho":"高知県高知市春野町芳原2485",
"Capacity":"－",
"la":"33.50961724910",
"ln":"133.50126714000"
},
"geometry":{
"type":"Point",
"coordinates":[
133.50126714,
33.5096172491
]
}
},
{
"type":"Feature",
"properties":{
"Name":"室戸広域公園野球場",
"Jusho":"高知県室戸市領家800",
"Capacity":"－",
"la":"33.28803756490",
"ln":"134.17135247100"
},
"geometry":{
"type":"Point",
"coordinates":[
134.171352471,
33.2880375649
]
}
},
{
"type":"Feature",
"properties":{
"Name":"室戸市中央公園グラウンド",
"Jusho":"高知県室戸市室戸岬町6811",
"Capacity":"－",
"la":"33.28643219000",
"ln":"134.15862304000"
},
"geometry":{
"type":"Point",
"coordinates":[
134.15862304,
33.28643219
]
}
},
{
"type":"Feature",
"properties":{
"Name":"錦児童公園",
"Jusho":"高知県香南市吉川町吉原1010-3",
"Capacity":"－",
"la":"33.54677065100",
"ln":"133.69316140400"
},
"geometry":{
"type":"Point",
"coordinates":[
133.693161404,
33.546770651
]
}
},
{
"type":"Feature",
"properties":{
"Name":"新浜緑地公園",
"Jusho":"高知県香南市吉川町吉原301",
"Capacity":"－",
"la":"33.54065687410",
"ln":"133.70201870600"
},
"geometry":{
"type":"Point",
"coordinates":[
133.702018706,
33.5406568741
]
}
},
{
"type":"Feature",
"properties":{
"Name":"歴史の丘公園",
"Jusho":"高知県香南市赤岡町861-1",
"Capacity":"－",
"la":"33.54187139380",
"ln":"133.72686241400"
},
"geometry":{
"type":"Point",
"coordinates":[
133.726862414,
33.5418713938
]
}
},
{
"type":"Feature",
"properties":{
"Name":"白石多目的運動公園",
"Jusho":"高知県香美市香北町白石434",
"Capacity":"－",
"la":"33.67608958490",
"ln":"133.83688780800"
},
"geometry":{
"type":"Point",
"coordinates":[
133.836887808,
33.6760895849
]
}
},
{
"type":"Feature",
"properties":{
"Name":"安田町ほたるの里河川公園",
"Jusho":"高知県安芸郡安田町大字内京坊23",
"Capacity":"－",
"la":"33.47265672050",
"ln":"133.99357235700"
},
"geometry":{
"type":"Point",
"coordinates":[
133.993572357,
33.4726567205
]
}
},
{
"type":"Feature",
"properties":{
"Name":"和田公園管理棟",
"Jusho":"高知県安芸郡北川村大字和田813-8",
"Capacity":"－",
"la":"33.48870800000",
"ln":"134.08162100000"
},
"geometry":{
"type":"Point",
"coordinates":[
134.081621,
33.488708
]
}
},
{
"type":"Feature",
"properties":{
"Name":"魚梁瀬運動公園",
"Jusho":"高知県安芸郡馬路村大字魚梁瀬",
"Capacity":"－",
"la":"33.61411466660",
"ln":"134.11051617700"
},
"geometry":{
"type":"Point",
"coordinates":[
134.110516177,
33.6141146666
]
}
},
{
"type":"Feature",
"properties":{
"Name":"大渡ダム公園運動広場",
"Jusho":"高知県吾川郡仁淀川町高瀬3869",
"Capacity":"－",
"la":"33.54253200000",
"ln":"133.11432300000"
},
"geometry":{
"type":"Point",
"coordinates":[
133.114323,
33.542532
]
}
},
{
"type":"Feature",
"properties":{
"Name":"田村白王公園",
"Jusho":"高知県吾川郡仁淀川町田村637",
"Capacity":"－",
"la":"33.58915712220",
"ln":"133.15818910500"
},
"geometry":{
"type":"Point",
"coordinates":[
133.158189105,
33.5891571222
]
}
},
{
"type":"Feature",
"properties":{
"Name":"日高村総合運動公園管理棟",
"Jusho":"高知県高岡郡日高村本郷2670",
"Capacity":"－",
"la":"33.52161737650",
"ln":"133.34628047000"
},
"geometry":{
"type":"Point",
"coordinates":[
133.34628047,
33.5216173765
]
}
},
{
"type":"Feature",
"properties":{
"Name":"津野町葉山運動公園総合センター",
"Jusho":"高知県高岡郡津野町永野230-2",
"Capacity":"－",
"la":"33.44574663700",
"ln":"133.19966734800"
},
"geometry":{
"type":"Point",
"coordinates":[
133.199667348,
33.445746637
]
}
},
{
"type":"Feature",
"properties":{
"Name":"四万十町轟公園",
"Jusho":"高知県高岡郡四万十町大正1205-17",
"Capacity":"－",
"la":"33.18278413540",
"ln":"132.97236158700"
},
"geometry":{
"type":"Point",
"coordinates":[
132.972361587,
33.1827841354
]
}
}
]
};