var o={
"type": "FeatureCollection",
"features": [
{
"type": "Feature",
"properties": {
"Name": "（学法）福島高等学校",
"Jusho": "福島県福島市御山町9－",
"Capacity": "－",
"la": "37.76495500000",
"ln": "140.46801100000"
},
"geometry": {
"type": "Point",
"coordinates": [
140.468011,
37.764955
]
}
},
{
"type": "Feature",
"properties": {
"Name": "（社）県建設業協会",
"Jusho": "福島県福島市五月町4-25",
"Capacity": "－",
"la": "37.74880871500",
"ln": "140.46137734800"
},
"geometry": {
"type": "Point",
"coordinates": [
140.461377348,
37.748808715
]
}
},
{
"type": "Feature",
"properties": {
"Name": "おおとり幼稚園",
"Jusho": "福島県福島市飯坂町字桜下1－",
"Capacity": "－",
"la": "37.83353000000",
"ln": "140.44645500000"
},
"geometry": {
"type": "Point",
"coordinates": [
140.446455,
37.83353
]
}
},
{
"type": "Feature",
"properties": {
"Name": "こむこむ館",
"Jusho": "福島県福島市早稲町1－",
"Capacity": "－",
"la": "37.75179363970",
"ln": "140.46059217400"
},
"geometry": {
"type": "Point",
"coordinates": [
140.460592174,
37.7517936397
]
}
},
{
"type": "Feature",
"properties": {
"Name": "にしね幼稚園",
"Jusho": "福島県福島市飯坂町湯野字台7－",
"Capacity": "－",
"la": "37.83075300000",
"ln": "140.45917700000"
},
"geometry": {
"type": "Point",
"coordinates": [
140.459177,
37.830753
]
}
},
{
"type": "Feature",
"properties": {
"Name": "パルセいいざか",
"Jusho": "福島県福島市飯坂町字筑前27－",
"Capacity": "－",
"la": "37.83160600000",
"ln": "140.44878300000"
},
"geometry": {
"type": "Point",
"coordinates": [
140.448783,
37.831606
]
}
},
{
"type": "Feature",
"properties": {
"Name": "ひらの幼稚園",
"Jusho": "福島県福島市飯坂町平野字西石堂43－",
"Capacity": "－",
"la": "37.81028400000",
"ln": "140.44157800000"
},
"geometry": {
"type": "Point",
"coordinates": [
140.441578,
37.810284
]
}
},
{
"type": "Feature",
"properties": {
"Name": "ふくしま西幼稚園",
"Jusho": "福島県福島市天神町12-32",
"Capacity": "－",
"la": "37.75870600000",
"ln": "140.46354000000"
},
"geometry": {
"type": "Point",
"coordinates": [
140.46354,
37.758706
]
}
},
{
"type": "Feature",
"properties": {
"Name": "ふくしま東幼稚園",
"Jusho": "福島県福島市松浪町3-46",
"Capacity": "－",
"la": "37.76706600000",
"ln": "140.47756600000"
},
"geometry": {
"type": "Point",
"coordinates": [
140.477566,
37.767066
]
}
},
{
"type": "Feature",
"properties": {
"Name": "ふくしま南幼稚園",
"Jusho": "福島県福島市杉妻町1-27",
"Capacity": "－",
"la": "37.75176200000",
"ln": "140.46742900000"
},
"geometry": {
"type": "Point",
"coordinates": [
140.467429,
37.751762
]
}
},
{
"type": "Feature",
"properties": {
"Name": "ヘルシーランド福島",
"Jusho": "福島県福島市岡部字上川原26",
"Capacity": "－",
"la": "37.76567448510",
"ln": "140.49235700000"
},
"geometry": {
"type": "Point",
"coordinates": [
140.492357,
37.7656744851
]
}
},
{
"type": "Feature",
"properties": {
"Name": "ほうらい幼稚園",
"Jusho": "福島県福島市蓬莱町七丁目1-2",
"Capacity": "－",
"la": "37.69349100000",
"ln": "140.48195800000"
},
"geometry": {
"type": "Point",
"coordinates": [
140.481958,
37.693491
]
}
},
{
"type": "Feature",
"properties": {
"Name": "まつかわ西幼稚園",
"Jusho": "福島県福島市松川町字稲荷17－",
"Capacity": "－",
"la": "37.65929900000",
"ln": "140.45835000000"
},
"geometry": {
"type": "Point",
"coordinates": [
140.45835,
37.659299
]
}
},
{
"type": "Feature",
"properties": {
"Name": "まつかわ東幼稚園",
"Jusho": "福島県福島市松川町沼袋字戸ノ内832-2",
"Capacity": "－",
"la": "37.64538752110",
"ln": "140.50006691400"
},
"geometry": {
"type": "Point",
"coordinates": [
140.500066914,
37.6453875211
]
}
},
{
"type": "Feature",
"properties": {
"Name": "もちずり学習センター",
"Jusho": "福島県福島市岡部字高畑46",
"Capacity": "－",
"la": "37.77276400000",
"ln": "140.50017500000"
},
"geometry": {
"type": "Point",
"coordinates": [
140.500175,
37.772764
]
}
},
{
"type": "Feature",
"properties": {
"Name": "安洞院",
"Jusho": "福島県福島市山口字寺前5",
"Capacity": "－",
"la": "37.77842517880",
"ln": "140.51415352200"
},
"geometry": {
"type": "Point",
"coordinates": [
140.514153522,
37.7784251788
]
}
},
{
"type": "Feature",
"properties": {
"Name": "岡山幼稚園",
"Jusho": "福島県福島市山口字上中田43－",
"Capacity": "－",
"la": "37.77198699910",
"ln": "140.51124200000"
},
"geometry": {
"type": "Point",
"coordinates": [
140.511242,
37.7719869991
]
}
},
{
"type": "Feature",
"properties": {
"Name": "吉井田学習センター",
"Jusho": "福島県福島市仁井田字西下川原1－",
"Capacity": "－",
"la": "37.75374700000",
"ln": "140.43646100000"
},
"geometry": {
"type": "Point",
"coordinates": [
140.436461,
37.753747
]
}
},
{
"type": "Feature",
"properties": {
"Name": "橘高等学校",
"Jusho": "福島県福島市宮下町7-41",
"Capacity": "－",
"la": "37.76245500000",
"ln": "140.46773400000"
},
"geometry": {
"type": "Point",
"coordinates": [
140.467734,
37.762455
]
}
},
{
"type": "Feature",
"properties": {
"Name": "旧蓬莱幼稚園",
"Jusho": "福島県福島市蓬莱町二丁目7－6",
"Capacity": "－",
"la": "37.69971300000",
"ln": "140.46870100000"
},
"geometry": {
"type": "Point",
"coordinates": [
140.468701,
37.699713
]
}
},
{
"type": "Feature",
"properties": {
"Name": "金谷川幼稚園",
"Jusho": "福島県福島市松川町浅川字陳場21",
"Capacity": "－",
"la": "37.68229200000",
"ln": "140.46542800000"
},
"geometry": {
"type": "Point",
"coordinates": [
140.465428,
37.682292
]
}
},
{
"type": "Feature",
"properties": {
"Name": "県教育センター",
"Jusho": "福島県福島市瀬上町字五月田16",
"Capacity": "－",
"la": "37.80172830500",
"ln": "140.48712631700"
},
"geometry": {
"type": "Point",
"coordinates": [
140.487126317,
37.801728305
]
}
},
{
"type": "Feature",
"properties": {
"Name": "吾妻学習センター",
"Jusho": "福島県福島市笹木野字折杉41－",
"Capacity": "－",
"la": "37.76016300000",
"ln": "140.41956100000"
},
"geometry": {
"type": "Point",
"coordinates": [
140.419561,
37.760163
]
}
},
{
"type": "Feature",
"properties": {
"Name": "吾妻学習センター分館",
"Jusho": "福島県福島市上野寺字下平場35－",
"Capacity": "－",
"la": "37.75867900000",
"ln": "140.39622000000"
},
"geometry": {
"type": "Point",
"coordinates": [
140.39622,
37.758679
]
}
},
{
"type": "Feature",
"properties": {
"Name": "向瀬上集会所",
"Jusho": "福島県福島市瀬上町字裏山20－",
"Capacity": "－",
"la": "37.80462200000",
"ln": "140.51184700000"
},
"geometry": {
"type": "Point",
"coordinates": [
140.511847,
37.804622
]
}
},
{
"type": "Feature",
"properties": {
"Name": "国体記念体育館",
"Jusho": "福島県福島市仁井田字西下川原41－",
"Capacity": "－",
"la": "37.75265800000",
"ln": "140.43624300000"
},
"geometry": {
"type": "Point",
"coordinates": [
140.436243,
37.752658
]
}
},
{
"type": "Feature",
"properties": {
"Name": "佐倉幼稚園",
"Jusho": "福島県福島市上名倉字下田16－",
"Capacity": "－",
"la": "37.73226200000",
"ln": "140.39107600000"
},
"geometry": {
"type": "Point",
"coordinates": [
140.391076,
37.732262
]
}
},
{
"type": "Feature",
"properties": {
"Name": "桜の聖母学院高等学校",
"Jusho": "福島県福島市野田町七丁目11－",
"Capacity": "－",
"la": "37.76078800000",
"ln": "140.44440300000"
},
"geometry": {
"type": "Point",
"coordinates": [
140.444403,
37.760788
]
}
},
{
"type": "Feature",
"properties": {
"Name": "桜の聖母短期大学",
"Jusho": "福島県福島市花園町3-6",
"Capacity": "－",
"la": "37.76313689120",
"ln": "140.47310724100"
},
"geometry": {
"type": "Point",
"coordinates": [
140.473107241,
37.7631368912
]
}
},
{
"type": "Feature",
"properties": {
"Name": "笹谷幼稚園",
"Jusho": "福島県福島市笹谷字上町18－",
"Capacity": "－",
"la": "37.79532199910",
"ln": "140.42342700000"
},
"geometry": {
"type": "Point",
"coordinates": [
140.423427,
37.7953219991
]
}
},
{
"type": "Feature",
"properties": {
"Name": "三河台学習センター",
"Jusho": "福島県福島市野田町七丁目1-42",
"Capacity": "－",
"la": "37.75841700000",
"ln": "140.44445600000"
},
"geometry": {
"type": "Point",
"coordinates": [
140.444456,
37.758417
]
}
},
{
"type": "Feature",
"properties": {
"Name": "市民会館",
"Jusho": "福島県福島市霞町1-52",
"Capacity": "－",
"la": "37.76161099910",
"ln": "140.46919500000"
},
"geometry": {
"type": "Point",
"coordinates": [
140.469195,
37.7616109991
]
}
},
{
"type": "Feature",
"properties": {
"Name": "社会教育館（こぶし荘）",
"Jusho": "福島県福島市町庭坂字砥石山40－3",
"Capacity": "－",
"la": "37.75171377420",
"ln": "140.30674092500"
},
"geometry": {
"type": "Point",
"coordinates": [
140.306740925,
37.7517137742
]
}
},
{
"type": "Feature",
"properties": {
"Name": "松川学習センター",
"Jusho": "福島県福島市松川町字桑原8",
"Capacity": "－",
"la": "37.65979200000",
"ln": "140.47077200000"
},
"geometry": {
"type": "Point",
"coordinates": [
140.470772,
37.659792
]
}
},
{
"type": "Feature",
"properties": {
"Name": "松川地区体育館",
"Jusho": "福島県福島市松川町字伊藤2",
"Capacity": "－",
"la": "37.65894600000",
"ln": "140.45817400000"
},
"geometry": {
"type": "Point",
"coordinates": [
140.458174,
37.658946
]
}
},
{
"type": "Feature",
"properties": {
"Name": "信夫学習センター",
"Jusho": "福島県福島市大森字馬場1",
"Capacity": "－",
"la": "37.72599000000",
"ln": "140.43640600000"
},
"geometry": {
"type": "Point",
"coordinates": [
140.436406,
37.72599
]
}
},
{
"type": "Feature",
"properties": {
"Name": "信陵学習センター",
"Jusho": "福島県福島市笹谷字才ノ神1",
"Capacity": "－",
"la": "37.79373700000",
"ln": "140.43102500000"
},
"geometry": {
"type": "Point",
"coordinates": [
140.431025,
37.793737
]
}
},
{
"type": "Feature",
"properties": {
"Name": "森合幼稚園",
"Jusho": "福島県福島市森合字谷地3-2",
"Capacity": "－",
"la": "37.76651000000",
"ln": "140.44859700000"
},
"geometry": {
"type": "Point",
"coordinates": [
140.448597,
37.76651
]
}
},
{
"type": "Feature",
"properties": {
"Name": "杉妻会館",
"Jusho": "福島県福島市杉妻町3-45",
"Capacity": "－",
"la": "37.74884300000",
"ln": "140.46649900000"
},
"geometry": {
"type": "Point",
"coordinates": [
140.466499,
37.748843
]
}
},
{
"type": "Feature",
"properties": {
"Name": "杉妻学習センター",
"Jusho": "福島県福島市黒岩字田部屋53-2",
"Capacity": "－",
"la": "37.72857100000",
"ln": "140.46465000000"
},
"geometry": {
"type": "Point",
"coordinates": [
140.46465,
37.728571
]
}
},
{
"type": "Feature",
"properties": {
"Name": "杉妻幼稚園",
"Jusho": "福島県福島市伏拝字沢口18－",
"Capacity": "－",
"la": "37.72326500000",
"ln": "140.46443000000"
},
"geometry": {
"type": "Point",
"coordinates": [
140.46443,
37.723265
]
}
},
{
"type": "Feature",
"properties": {
"Name": "摺上川ダム管理所（インフォメーションセンター）",
"Jusho": "福島県福島市飯坂町茂庭字蝉狩野25",
"Capacity": "－",
"la": "37.92942699910",
"ln": "140.41797000000"
},
"geometry": {
"type": "Point",
"coordinates": [
140.41797,
37.9294269991
]
}
},
{
"type": "Feature",
"properties": {
"Name": "清水学習センター",
"Jusho": "福島県福島市御山字松川原5－",
"Capacity": "－",
"la": "37.78085900000",
"ln": "140.45691500000"
},
"geometry": {
"type": "Point",
"coordinates": [
140.456915,
37.780859
]
}
},
{
"type": "Feature",
"properties": {
"Name": "清水学習センター分館",
"Jusho": "福島県福島市南沢又字柳清水8－",
"Capacity": "－",
"la": "37.77899800000",
"ln": "140.44233900000"
},
"geometry": {
"type": "Point",
"coordinates": [
140.442339,
37.778998
]
}
},
{
"type": "Feature",
"properties": {
"Name": "清水幼稚園",
"Jusho": "福島県福島市南沢又字柳清水20-2",
"Capacity": "－",
"la": "37.77948100000",
"ln": "140.44387400000"
},
"geometry": {
"type": "Point",
"coordinates": [
140.443874,
37.779481
]
}
},
{
"type": "Feature",
"properties": {
"Name": "西学習センター",
"Jusho": "福島県福島市上名倉字妻下4-2",
"Capacity": "－",
"la": "37.72538000000",
"ln": "140.38376400000"
},
"geometry": {
"type": "Point",
"coordinates": [
140.383764,
37.72538
]
}
},
{
"type": "Feature",
"properties": {
"Name": "西部勤労者センター",
"Jusho": "福島県福島市佐倉下字観ノ守北46",
"Capacity": "－",
"la": "37.73975900000",
"ln": "140.40726900000"
},
"geometry": {
"type": "Point",
"coordinates": [
140.407269,
37.739759
]
}
},
{
"type": "Feature",
"properties": {
"Name": "西部体育館",
"Jusho": "福島県福島市笹木野字払川添20",
"Capacity": "－",
"la": "37.78223300000",
"ln": "140.40998600000"
},
"geometry": {
"type": "Point",
"coordinates": [
140.409986,
37.782233
]
}
},
{
"type": "Feature",
"properties": {
"Name": "大笹生幼稚園",
"Jusho": "福島県福島市大笹生字中南25-3",
"Capacity": "－",
"la": "37.79947800000",
"ln": "140.40326600000"
},
"geometry": {
"type": "Point",
"coordinates": [
140.403266,
37.799478
]
}
},
{
"type": "Feature",
"properties": {
"Name": "中央学習センター",
"Jusho": "福島県福島市松木町1-7",
"Capacity": "－",
"la": "37.75799599910",
"ln": "140.47074200000"
},
"geometry": {
"type": "Point",
"coordinates": [
140.470742,
37.7579959991
]
}
},
{
"type": "Feature",
"properties": {
"Name": "庭塚幼稚園",
"Jusho": "福島県福島市在庭坂字薬師田14-3",
"Capacity": "－",
"la": "37.75748100000",
"ln": "140.37596500000"
},
"geometry": {
"type": "Point",
"coordinates": [
140.375965,
37.757481
]
}
},
{
"type": "Feature",
"properties": {
"Name": "渡利学習センター",
"Jusho": "福島県福島市渡利字岩崎町190",
"Capacity": "－",
"la": "37.74963500000",
"ln": "140.48561100000"
},
"geometry": {
"type": "Point",
"coordinates": [
140.485611,
37.749635
]
}
},
{
"type": "Feature",
"properties": {
"Name": "渡利地区体育館",
"Jusho": "福島県福島市渡利字岩崎町188",
"Capacity": "－",
"la": "37.74937000000",
"ln": "140.48523600000"
},
"geometry": {
"type": "Point",
"coordinates": [
140.485236,
37.74937
]
}
},
{
"type": "Feature",
"properties": {
"Name": "渡利幼稚園",
"Jusho": "福島県福島市渡利字沖町128",
"Capacity": "－",
"la": "37.74715200000",
"ln": "140.48081700000"
},
"geometry": {
"type": "Point",
"coordinates": [
140.480817,
37.747152
]
}
},
{
"type": "Feature",
"properties": {
"Name": "東部勤労者研修センター",
"Jusho": "福島県福島市岡島字段橋10-4",
"Capacity": "－",
"la": "37.78907700000",
"ln": "140.51688200000"
},
"geometry": {
"type": "Point",
"coordinates": [
140.516882,
37.789077
]
}
},
{
"type": "Feature",
"properties": {
"Name": "東部体育館",
"Jusho": "福島県福島市岡部字高畑46-4",
"Capacity": "－",
"la": "37.77241700000",
"ln": "140.49996200000"
},
"geometry": {
"type": "Point",
"coordinates": [
140.499962,
37.772417
]
}
},
{
"type": "Feature",
"properties": {
"Name": "湯野地区体育館",
"Jusho": "福島県福島市飯坂町湯野字暮坪山3-4",
"Capacity": "－",
"la": "37.83889300000",
"ln": "140.45976100000"
},
"geometry": {
"type": "Point",
"coordinates": [
140.459761,
37.838893
]
}
},
{
"type": "Feature",
"properties": {
"Name": "南体育館",
"Jusho": "福島県福島市松川町浅川字笠松11－",
"Capacity": "－",
"la": "37.67754600000",
"ln": "140.46601900000"
},
"geometry": {
"type": "Point",
"coordinates": [
140.466019,
37.677546
]
}
},
{
"type": "Feature",
"properties": {
"Name": "飯坂学習センター",
"Jusho": "福島県福島市飯坂町字銀杏6－1",
"Capacity": "－",
"la": "37.82750500000",
"ln": "140.44718400000"
},
"geometry": {
"type": "Point",
"coordinates": [
140.447184,
37.827505
]
}
},
{
"type": "Feature",
"properties": {
"Name": "飯野あおぞら保育園",
"Jusho": "福島県福島市飯野町久保田字上戸63",
"Capacity": "－",
"la": "37.67059400000",
"ln": "140.53901200000"
},
"geometry": {
"type": "Point",
"coordinates": [
140.539012,
37.670594
]
}
},
{
"type": "Feature",
"properties": {
"Name": "飯野おひさま保育園",
"Jusho": "福島県福島市飯野町字経壇46-5",
"Capacity": "－",
"la": "37.65260700000",
"ln": "140.53506600000"
},
"geometry": {
"type": "Point",
"coordinates": [
140.535066,
37.652607
]
}
},
{
"type": "Feature",
"properties": {
"Name": "飯野学習センター",
"Jusho": "福島県福島市飯野町字境川19-2",
"Capacity": "－",
"la": "37.65727858660",
"ln": "140.53947492200"
},
"geometry": {
"type": "Point",
"coordinates": [
140.539474922,
37.6572785866
]
}
},
{
"type": "Feature",
"properties": {
"Name": "飯野学習センター青木分館",
"Jusho": "福島県福島市飯野町青木字向広表50",
"Capacity": "－",
"la": "37.67170500000",
"ln": "140.52930800000"
},
"geometry": {
"type": "Point",
"coordinates": [
140.529308,
37.671705
]
}
},
{
"type": "Feature",
"properties": {
"Name": "飯野学習センター大久保分館",
"Jusho": "福島県福島市飯野町大久保字岩見内17",
"Capacity": "－",
"la": "37.66385700000",
"ln": "140.54832600000"
},
"geometry": {
"type": "Point",
"coordinates": [
140.548326,
37.663857
]
}
},
{
"type": "Feature",
"properties": {
"Name": "飯野学習センター明治分館",
"Jusho": "福島県福島市飯野町明治字北小戸明利30－",
"Capacity": "－",
"la": "37.65844800000",
"ln": "140.52301700000"
},
"geometry": {
"type": "Point",
"coordinates": [
140.523017,
37.658448
]
}
},
{
"type": "Feature",
"properties": {
"Name": "飯野地域福祉センター",
"Jusho": "福島県福島市飯野町字西宮平25－",
"Capacity": "－",
"la": "37.65277500000",
"ln": "140.53960500000"
},
"geometry": {
"type": "Point",
"coordinates": [
140.539605,
37.652775
]
}
},
{
"type": "Feature",
"properties": {
"Name": "飯野地区体育館",
"Jusho": "福島県福島市飯野町明治字芳作62－",
"Capacity": "－",
"la": "37.66173400000",
"ln": "140.51310400000"
},
"geometry": {
"type": "Point",
"coordinates": [
140.513104,
37.661734
]
}
},
{
"type": "Feature",
"properties": {
"Name": "飯野幼稚園",
"Jusho": "福島県福島市飯野町字経壇46-5",
"Capacity": "－",
"la": "37.65269099910",
"ln": "140.53365000000"
},
"geometry": {
"type": "Point",
"coordinates": [
140.53365,
37.6526909991
]
}
},
{
"type": "Feature",
"properties": {
"Name": "福大附属幼稚園",
"Jusho": "福島県福島市浜田町12-39",
"Capacity": "－",
"la": "37.75937300000",
"ln": "140.47645500000"
},
"geometry": {
"type": "Point",
"coordinates": [
140.476455,
37.759373
]
}
},
{
"type": "Feature",
"properties": {
"Name": "福島テルサ",
"Jusho": "福島県福島市上町4-25",
"Capacity": "－",
"la": "37.75424500000",
"ln": "140.46961500000"
},
"geometry": {
"type": "Point",
"coordinates": [
140.469615,
37.754245
]
}
},
{
"type": "Feature",
"properties": {
"Name": "福島学院大学",
"Jusho": "福島県福島市宮代字乳児池1－",
"Capacity": "－",
"la": "37.79966600000",
"ln": "140.48748900000"
},
"geometry": {
"type": "Point",
"coordinates": [
140.487489,
37.799666
]
}
},
{
"type": "Feature",
"properties": {
"Name": "福島県消防学校",
"Jusho": "福島県福島市荒井字仲沢7",
"Capacity": "－",
"la": "37.71081700000",
"ln": "140.37117500000"
},
"geometry": {
"type": "Point",
"coordinates": [
140.371175,
37.710817
]
}
},
{
"type": "Feature",
"properties": {
"Name": "福島県青少年会館",
"Jusho": "福島県福島市黒岩字田部屋53-5",
"Capacity": "－",
"la": "37.72857300000",
"ln": "140.46546100000"
},
"geometry": {
"type": "Point",
"coordinates": [
140.465461,
37.728573
]
}
},
{
"type": "Feature",
"properties": {
"Name": "福島県立医科大学",
"Jusho": "福島県福島市光が丘1",
"Capacity": "－",
"la": "37.68940799910",
"ln": "140.46940400000"
},
"geometry": {
"type": "Point",
"coordinates": [
140.469404,
37.6894079991
]
}
},
{
"type": "Feature",
"properties": {
"Name": "福島工業高等学校",
"Jusho": "福島県福島市森合字小松原1",
"Capacity": "－",
"la": "37.76912100000",
"ln": "140.45245700000"
},
"geometry": {
"type": "Point",
"coordinates": [
140.452457,
37.769121
]
}
},
{
"type": "Feature",
"properties": {
"Name": "福島高等学校",
"Jusho": "福島県福島市森合町5-72",
"Capacity": "－",
"la": "37.76467700000",
"ln": "140.46162300000"
},
"geometry": {
"type": "Point",
"coordinates": [
140.461623,
37.764677
]
}
},
{
"type": "Feature",
"properties": {
"Name": "福島市音楽堂",
"Jusho": "福島県福島市入江町1－",
"Capacity": "－",
"la": "37.76960800000",
"ln": "140.47857200000"
},
"geometry": {
"type": "Point",
"coordinates": [
140.478572,
37.769608
]
}
},
{
"type": "Feature",
"properties": {
"Name": "福島商業高等学校",
"Jusho": "福島県福島市丸子字辰之尾1",
"Capacity": "－",
"la": "37.78365100000",
"ln": "140.47679700000"
},
"geometry": {
"type": "Point",
"coordinates": [
140.476797,
37.783651
]
}
},
{
"type": "Feature",
"properties": {
"Name": "福島成蹊高等学校",
"Jusho": "福島県福島市上浜町5－0",
"Capacity": "－",
"la": "37.75579000000",
"ln": "140.47828900000"
},
"geometry": {
"type": "Point",
"coordinates": [
140.478289,
37.75579
]
}
},
{
"type": "Feature",
"properties": {
"Name": "福島西高等学校",
"Jusho": "福島県福島市方木田字上原37",
"Capacity": "－",
"la": "37.74801200000",
"ln": "140.45051400000"
},
"geometry": {
"type": "Point",
"coordinates": [
140.450514,
37.748012
]
}
},
{
"type": "Feature",
"properties": {
"Name": "福島体育館",
"Jusho": "福島県福島市霞町4-45",
"Capacity": "－",
"la": "37.76442500000",
"ln": "140.46957800000"
},
"geometry": {
"type": "Point",
"coordinates": [
140.469578,
37.764425
]
}
},
{
"type": "Feature",
"properties": {
"Name": "福島大学",
"Jusho": "福島県福島市松川町浅川字直道2",
"Capacity": "－",
"la": "37.68314100000",
"ln": "140.45619800000"
},
"geometry": {
"type": "Point",
"coordinates": [
140.456198,
37.683141
]
}
},
{
"type": "Feature",
"properties": {
"Name": "福島東高等学校",
"Jusho": "福島県福島市浜田町12-21",
"Capacity": "－",
"la": "37.75801200000",
"ln": "140.47634400000"
},
"geometry": {
"type": "Point",
"coordinates": [
140.476344,
37.758012
]
}
},
{
"type": "Feature",
"properties": {
"Name": "福島東稜高等学校",
"Jusho": "福島県福島市山居上3",
"Capacity": "－",
"la": "37.76912200000",
"ln": "140.47467700000"
},
"geometry": {
"type": "Point",
"coordinates": [
140.474677,
37.769122
]
}
},
{
"type": "Feature",
"properties": {
"Name": "福島南高等学校",
"Jusho": "福島県福島市渡利字七社宮17",
"Capacity": "－",
"la": "37.74745700000",
"ln": "140.47467800000"
},
"geometry": {
"type": "Point",
"coordinates": [
140.474678,
37.747457
]
}
},
{
"type": "Feature",
"properties": {
"Name": "福島北高等学校",
"Jusho": "福島県福島市飯坂町字後畑1",
"Capacity": "－",
"la": "37.81633800000",
"ln": "140.45134400000"
},
"geometry": {
"type": "Point",
"coordinates": [
140.451344,
37.816338
]
}
},
{
"type": "Feature",
"properties": {
"Name": "福島明成高等学校",
"Jusho": "福島県福島市長井川字北原田1",
"Capacity": "－",
"la": "37.72273700000",
"ln": "140.44995900000"
},
"geometry": {
"type": "Point",
"coordinates": [
140.449959,
37.722737
]
}
},
{
"type": "Feature",
"properties": {
"Name": "福島養護学校",
"Jusho": "福島県福島市古川146－",
"Capacity": "－",
"la": "37.77939800000",
"ln": "140.48134300000"
},
"geometry": {
"type": "Point",
"coordinates": [
140.481343,
37.779398
]
}
},
{
"type": "Feature",
"properties": {
"Name": "文知摺集会所",
"Jusho": "福島県福島市山口字山神32-2",
"Capacity": "－",
"la": "37.77266849310",
"ln": "140.51497295700"
},
"geometry": {
"type": "Point",
"coordinates": [
140.514972957,
37.7726684931
]
}
},
{
"type": "Feature",
"properties": {
"Name": "平田幼稚園",
"Jusho": "福島県福島市小田字東覚寺22－",
"Capacity": "－",
"la": "37.71070105000",
"ln": "140.43236870000"
},
"geometry": {
"type": "Point",
"coordinates": [
140.4323687,
37.71070105
]
}
},
{
"type": "Feature",
"properties": {
"Name": "蓬莱学習センター",
"Jusho": "福島県福島市蓬莱町四丁目1-2",
"Capacity": "－",
"la": "37.69836000000",
"ln": "140.47285100000"
},
"geometry": {
"type": "Point",
"coordinates": [
140.472851,
37.69836
]
}
},
{
"type": "Feature",
"properties": {
"Name": "蓬莱学習センター分館",
"Jusho": "福島県福島市蓬莱町四丁目1－",
"Capacity": "－",
"la": "37.69798799910",
"ln": "140.47226300000"
},
"geometry": {
"type": "Point",
"coordinates": [
140.472263,
37.6979879991
]
}
},
{
"type": "Feature",
"properties": {
"Name": "蓬莱児童センター",
"Jusho": "福島県福島市蓬莱町四丁目14－",
"Capacity": "－",
"la": "37.69860700000",
"ln": "140.47454500000"
},
"geometry": {
"type": "Point",
"coordinates": [
140.474545,
37.698607
]
}
},
{
"type": "Feature",
"properties": {
"Name": "北信学習センター",
"Jusho": "福島県福島市鎌倉字中江1",
"Capacity": "－",
"la": "37.79647600000",
"ln": "140.47915000000"
},
"geometry": {
"type": "Point",
"coordinates": [
140.47915,
37.796476
]
}
},
{
"type": "Feature",
"properties": {
"Name": "北沢又幼稚園",
"Jusho": "福島県福島市北沢又字愛宕1－",
"Capacity": "－",
"la": "37.78580899910",
"ln": "140.43346900000"
},
"geometry": {
"type": "Point",
"coordinates": [
140.433469,
37.7858089991
]
}
},
{
"type": "Feature",
"properties": {
"Name": "立子山自然の家",
"Jusho": "福島県福島市立小山字金井作1",
"Capacity": "－",
"la": "37.69954990320",
"ln": "140.50573009700"
},
"geometry": {
"type": "Point",
"coordinates": [
140.505730097,
37.6995499032
]
}
},
{
"type": "Feature",
"properties": {
"Name": "あさか開成高校",
"Jusho": "福島県郡山市桃見台15－",
"Capacity": "－",
"la": "37.40443700000",
"ln": "140.37218200000"
},
"geometry": {
"type": "Point",
"coordinates": [
140.372182,
37.404437
]
}
},
{
"type": "Feature",
"properties": {
"Name": "イオンタウン郡山",
"Jusho": "福島県郡山市松木町2-88",
"Capacity": "－",
"la": "37.39110630000",
"ln": "140.38936013000"
},
"geometry": {
"type": "Point",
"coordinates": [
140.38936013,
37.3911063
]
}
},
{
"type": "Feature",
"properties": {
"Name": "こども総合支援センター",
"Jusho": "福島県郡山市桑野一丁目2-3",
"Capacity": "－",
"la": "37.40030452610",
"ln": "140.35750811600"
},
"geometry": {
"type": "Point",
"coordinates": [
140.357508116,
37.4003045261
]
}
},
{
"type": "Feature",
"properties": {
"Name": "サニー・ランド湖南",
"Jusho": "福島県郡山市湖南町福良字福良台畠8588",
"Capacity": "－",
"la": "37.38849096100",
"ln": "140.08897959800"
},
"geometry": {
"type": "Point",
"coordinates": [
140.088979598,
37.388490961
]
}
},
{
"type": "Feature",
"properties": {
"Name": "サン・サン・グリーン湖南",
"Jusho": "福島県郡山市湖南町福良字台畠8584",
"Capacity": "－",
"la": "37.38901481390",
"ln": "140.08847966800"
},
"geometry": {
"type": "Point",
"coordinates": [
140.088479668,
37.3890148139
]
}
},
{
"type": "Feature",
"properties": {
"Name": "ジャスコ郡山フェスタ店",
"Jusho": "福島県郡山市日和田町字小原1",
"Capacity": "－",
"la": "37.44453600000",
"ln": "140.37625600000"
},
"geometry": {
"type": "Point",
"coordinates": [
140.376256,
37.444536
]
}
},
{
"type": "Feature",
"properties": {
"Name": "ビックパレットふくしま",
"Jusho": "福島県郡山市安積町日出山字1千久保19-8",
"Capacity": "－",
"la": "37.36967151820",
"ln": "140.37372317300"
},
"geometry": {
"type": "Point",
"coordinates": [
140.373723173,
37.3696715182
]
}
},
{
"type": "Feature",
"properties": {
"Name": "ユラックス熱海",
"Jusho": "福島県郡山市熱海町熱海二丁目148-2",
"Capacity": "－",
"la": "37.48043461330",
"ln": "140.27841550200"
},
"geometry": {
"type": "Point",
"coordinates": [
140.278415502,
37.4804346133
]
}
},
{
"type": "Feature",
"properties": {
"Name": "逢瀬コミュニティセンター",
"Jusho": "福島県郡山市逢瀬町多田野字南原3",
"Capacity": "－",
"la": "37.39384700000",
"ln": "140.27005600000"
},
"geometry": {
"type": "Point",
"coordinates": [
140.270056,
37.393847
]
}
},
{
"type": "Feature",
"properties": {
"Name": "安積公民館安積分室",
"Jusho": "福島県郡山市安積一丁目30",
"Capacity": "－",
"la": "37.36466900000",
"ln": "140.36603400000"
},
"geometry": {
"type": "Point",
"coordinates": [
140.366034,
37.364669
]
}
},
{
"type": "Feature",
"properties": {
"Name": "安積高校",
"Jusho": "福島県郡山市開成五丁目25-63",
"Capacity": "－",
"la": "37.39110400000",
"ln": "140.35025900000"
},
"geometry": {
"type": "Point",
"coordinates": [
140.350259,
37.391104
]
}
},
{
"type": "Feature",
"properties": {
"Name": "安積消防センター",
"Jusho": "福島県郡山市安積町長久保一丁目16-37",
"Capacity": "－",
"la": "37.36074700000",
"ln": "140.36038200000"
},
"geometry": {
"type": "Point",
"coordinates": [
140.360382,
37.360747
]
}
},
{
"type": "Feature",
"properties": {
"Name": "安積総合学習センター（サンフレッシュ郡山）",
"Jusho": "福島県郡山市安積町荒井字南赤坂265",
"Capacity": "－",
"la": "37.36549899910",
"ln": "140.35268300000"
},
"geometry": {
"type": "Point",
"coordinates": [
140.352683,
37.3654989991
]
}
},
{
"type": "Feature",
"properties": {
"Name": "安積南地域公民館",
"Jusho": "福島県郡山市安積町笹川字吉田40-81",
"Capacity": "－",
"la": "37.35139800000",
"ln": "140.34896700000"
},
"geometry": {
"type": "Point",
"coordinates": [
140.348967,
37.351398
]
}
},
{
"type": "Feature",
"properties": {
"Name": "安積黎明高校",
"Jusho": "福島県郡山市長者二丁目3-3",
"Capacity": "－",
"la": "37.39999300000",
"ln": "140.36997900000"
},
"geometry": {
"type": "Point",
"coordinates": [
140.369979,
37.399993
]
}
},
{
"type": "Feature",
"properties": {
"Name": "永盛地域公民館",
"Jusho": "福島県郡山市安積町日出山字旧屋敷44－",
"Capacity": "－",
"la": "37.36333300000",
"ln": "140.37741100000"
},
"geometry": {
"type": "Point",
"coordinates": [
140.377411,
37.363333
]
}
},
{
"type": "Feature",
"properties": {
"Name": "駅前広場",
"Jusho": "福島県郡山市駅前二丁目3－",
"Capacity": "－",
"la": "37.39830390630",
"ln": "140.38785409800"
},
"geometry": {
"type": "Point",
"coordinates": [
140.387854098,
37.3983039063
]
}
},
{
"type": "Feature",
"properties": {
"Name": "奥羽大学",
"Jusho": "福島県郡山市富田町字三角堂31－",
"Capacity": "－",
"la": "37.41832400000",
"ln": "140.37442200000"
},
"geometry": {
"type": "Point",
"coordinates": [
140.374422,
37.418324
]
}
},
{
"type": "Feature",
"properties": {
"Name": "河内ふれあいセンター",
"Jusho": "福島県郡山市逢瀬町河内字西荒井156",
"Capacity": "－",
"la": "37.41883800000",
"ln": "140.27555000000"
},
"geometry": {
"type": "Point",
"coordinates": [
140.27555,
37.418838
]
}
},
{
"type": "Feature",
"properties": {
"Name": "開成山弓道場",
"Jusho": "福島県郡山市開成一丁目5－2",
"Capacity": "－",
"la": "37.39953117110",
"ln": "140.35783542200"
},
"geometry": {
"type": "Point",
"coordinates": [
140.357835422,
37.3995311711
]
}
},
{
"type": "Feature",
"properties": {
"Name": "開成山野球場",
"Jusho": "福島県郡山市開成一丁目5－2",
"Capacity": "－",
"la": "37.39880294260",
"ln": "140.35913385500"
},
"geometry": {
"type": "Point",
"coordinates": [
140.359133855,
37.3988029426
]
}
},
{
"type": "Feature",
"properties": {
"Name": "開成山陸上競技場",
"Jusho": "福島県郡山市開成一丁目5－2",
"Capacity": "－",
"la": "37.39796392750",
"ln": "140.36109064800"
},
"geometry": {
"type": "Point",
"coordinates": [
140.361090648,
37.3979639275
]
}
},
{
"type": "Feature",
"properties": {
"Name": "開成地域公民館",
"Jusho": "福島県郡山市開成三丁目14－0",
"Capacity": "－",
"la": "37.39315200000",
"ln": "140.35144300000"
},
"geometry": {
"type": "Point",
"coordinates": [
140.351443,
37.393152
]
}
},
{
"type": "Feature",
"properties": {
"Name": "喜久田ふれあいセンター",
"Jusho": "福島県郡山市喜久田町堀之内字下河原1",
"Capacity": "－",
"la": "37.45323999910",
"ln": "140.34300300000"
},
"geometry": {
"type": "Point",
"coordinates": [
140.343003,
37.4532399991
]
}
},
{
"type": "Feature",
"properties": {
"Name": "橘地域公民館",
"Jusho": "福島県郡山市本町一丁目20－8",
"Capacity": "－",
"la": "37.39204700000",
"ln": "140.38595400000"
},
"geometry": {
"type": "Point",
"coordinates": [
140.385954,
37.392047
]
}
},
{
"type": "Feature",
"properties": {
"Name": "久留米地域公民館",
"Jusho": "福島県郡山市久留米三丁目46",
"Capacity": "－",
"la": "37.37931700000",
"ln": "140.35599000000"
},
"geometry": {
"type": "Point",
"coordinates": [
140.35599,
37.379317
]
}
},
{
"type": "Feature",
"properties": {
"Name": "旧総合教育支援センター",
"Jusho": "福島県郡山市開成一丁目1－",
"Capacity": "－",
"la": "37.39616000000",
"ln": "140.36193100000"
},
"geometry": {
"type": "Point",
"coordinates": [
140.361931,
37.39616
]
}
},
{
"type": "Feature",
"properties": {
"Name": "勤労青少年ホーム",
"Jusho": "福島県郡山市麓山一丁目8-4",
"Capacity": "－",
"la": "37.39403137230",
"ln": "140.37208638700"
},
"geometry": {
"type": "Point",
"coordinates": [
140.372086387,
37.3940313723
]
}
},
{
"type": "Feature",
"properties": {
"Name": "桑野地域公民館",
"Jusho": "福島県郡山市亀田一丁目28-4",
"Capacity": "－",
"la": "37.40336200000",
"ln": "140.34641000000"
},
"geometry": {
"type": "Point",
"coordinates": [
140.34641,
37.403362
]
}
},
{
"type": "Feature",
"properties": {
"Name": "薫地域公民館",
"Jusho": "福島県郡山市鶴見坦二丁目19-27",
"Capacity": "－",
"la": "37.39168300000",
"ln": "140.36291400000"
},
"geometry": {
"type": "Point",
"coordinates": [
140.362914,
37.391683
]
}
},
{
"type": "Feature",
"properties": {
"Name": "郡山カルチャーパーク",
"Jusho": "福島県郡山市安積町成田字東丸山61",
"Capacity": "－",
"la": "37.36740130000",
"ln": "140.32974376000"
},
"geometry": {
"type": "Point",
"coordinates": [
140.32974376,
37.3674013
]
}
},
{
"type": "Feature",
"properties": {
"Name": "郡山開成学園（郡山女子大学）",
"Jusho": "福島県郡山市開成三丁目25-2",
"Capacity": "－",
"la": "37.39732517600",
"ln": "140.35178396900"
},
"geometry": {
"type": "Point",
"coordinates": [
140.351783969,
37.397325176
]
}
},
{
"type": "Feature",
"properties": {
"Name": "郡山高校",
"Jusho": "福島県郡山市大槻町字上篠林3",
"Capacity": "－",
"la": "37.40221400000",
"ln": "140.33720500000"
},
"geometry": {
"type": "Point",
"coordinates": [
140.337205,
37.402214
]
}
},
{
"type": "Feature",
"properties": {
"Name": "郡山市民文化センター",
"Jusho": "福島県郡山市堤下町1-2",
"Capacity": "－",
"la": "37.39274399910",
"ln": "140.37815700000"
},
"geometry": {
"type": "Point",
"coordinates": [
140.378157,
37.3927439991
]
}
},
{
"type": "Feature",
"properties": {
"Name": "郡山商業高校",
"Jusho": "福島県郡山市菜根五丁目6-7",
"Capacity": "－",
"la": "37.38443900000",
"ln": "140.36248000000"
},
"geometry": {
"type": "Point",
"coordinates": [
140.36248,
37.384439
]
}
},
{
"type": "Feature",
"properties": {
"Name": "郡山地域職業訓練センター（清水台地域公民館）",
"Jusho": "福島県郡山市清水台一丁目6－",
"Capacity": "－",
"la": "37.39848499910",
"ln": "140.38144300000"
},
"geometry": {
"type": "Point",
"coordinates": [
140.381443,
37.3984849991
]
}
},
{
"type": "Feature",
"properties": {
"Name": "郡山地方広域消防本部",
"Jusho": "福島県郡山市堂前町5－6",
"Capacity": "－",
"la": "37.39610500000",
"ln": "140.38192300000"
},
"geometry": {
"type": "Point",
"coordinates": [
140.381923,
37.396105
]
}
},
{
"type": "Feature",
"properties": {
"Name": "郡山東高校",
"Jusho": "福島県郡山市山根町13-45",
"Capacity": "－",
"la": "37.38610600000",
"ln": "140.37442400000"
},
"geometry": {
"type": "Point",
"coordinates": [
140.374424,
37.386106
]
}
},
{
"type": "Feature",
"properties": {
"Name": "郡山北工業高校",
"Jusho": "福島県郡山市八山田字大林1",
"Capacity": "－",
"la": "37.42722100000",
"ln": "140.37481900000"
},
"geometry": {
"type": "Point",
"coordinates": [
140.374819,
37.427221
]
}
},
{
"type": "Feature",
"properties": {
"Name": "県農協五連郡山支所広場",
"Jusho": "福島県郡山市朝日二丁目91-3",
"Capacity": "－",
"la": "37.40459534040",
"ln": "140.36141527600"
},
"geometry": {
"type": "Point",
"coordinates": [
140.361415276,
37.4045953404
]
}
},
{
"type": "Feature",
"properties": {
"Name": "湖南コミュニティセンター",
"Jusho": "福島県郡山市湖南町舟津字舟津852",
"Capacity": "－",
"la": "37.41082700000",
"ln": "140.12539700000"
},
"geometry": {
"type": "Point",
"coordinates": [
140.125397,
37.410827
]
}
},
{
"type": "Feature",
"properties": {
"Name": "湖南公民館",
"Jusho": "福島県郡山市湖南町福良字家老9390-4",
"Capacity": "－",
"la": "37.38939614540",
"ln": "140.08990745400"
},
"geometry": {
"type": "Point",
"coordinates": [
140.089907454,
37.3893961454
]
}
},
{
"type": "Feature",
"properties": {
"Name": "向舘消防センター",
"Jusho": "福島県郡山市富田町字向舘9-2",
"Capacity": "－",
"la": "37.41562719410",
"ln": "140.34115924600"
},
"geometry": {
"type": "Point",
"coordinates": [
140.341159246,
37.4156271941
]
}
},
{
"type": "Feature",
"properties": {
"Name": "行徳地域公民館",
"Jusho": "福島県郡山市富久山町久保田字桝形43",
"Capacity": "－",
"la": "37.41855800000",
"ln": "140.37834000000"
},
"geometry": {
"type": "Point",
"coordinates": [
140.37834,
37.418558
]
}
},
{
"type": "Feature",
"properties": {
"Name": "高瀬地域公民館",
"Jusho": "福島県郡山市田村町上行合字宮耕地93－",
"Capacity": "－",
"la": "37.36647000000",
"ln": "140.40597300000"
},
"geometry": {
"type": "Point",
"coordinates": [
140.405973,
37.36647
]
}
},
{
"type": "Feature",
"properties": {
"Name": "黒木消防センター",
"Jusho": "福島県郡山市中田町黒木字大阪343-3",
"Capacity": "－",
"la": "37.37946748680",
"ln": "140.50865992000"
},
"geometry": {
"type": "Point",
"coordinates": [
140.50865992,
37.3794674868
]
}
},
{
"type": "Feature",
"properties": {
"Name": "咲田消防センター",
"Jusho": "福島県郡山市咲田二丁目10－",
"Capacity": "－",
"la": "37.40326500000",
"ln": "140.37754900000"
},
"geometry": {
"type": "Point",
"coordinates": [
140.377549,
37.403265
]
}
},
{
"type": "Feature",
"properties": {
"Name": "三穂田ふれあいセンター",
"Jusho": "福島県郡山市三穂田町富岡字鹿ノ崎11－",
"Capacity": "－",
"la": "37.35662800000",
"ln": "140.28686200000"
},
"geometry": {
"type": "Point",
"coordinates": [
140.286862,
37.356628
]
}
},
{
"type": "Feature",
"properties": {
"Name": "三穂田公民館",
"Jusho": "福島県郡山市三穂田町八幡字東屋敷6",
"Capacity": "－",
"la": "37.35907000000",
"ln": "140.28930900000"
},
"geometry": {
"type": "Point",
"coordinates": [
140.289309,
37.35907
]
}
},
{
"type": "Feature",
"properties": {
"Name": "三穂田地域交流センター",
"Jusho": "福島県郡山市三穂田町富岡字吉室内106－",
"Capacity": "－",
"la": "37.34484600000",
"ln": "140.27107000000"
},
"geometry": {
"type": "Point",
"coordinates": [
140.27107,
37.344846
]
}
},
{
"type": "Feature",
"properties": {
"Name": "市民プラザ（ビッグアイ６・７Ｆ）",
"Jusho": "福島県郡山市駅前二丁目11－",
"Capacity": "－",
"la": "37.40019899910",
"ln": "140.38816200000"
},
"geometry": {
"type": "Point",
"coordinates": [
140.388162,
37.4001989991
]
}
},
{
"type": "Feature",
"properties": {
"Name": "柴宮地域公民館",
"Jusho": "福島県郡山市安積町荒井字前田24－",
"Capacity": "－",
"la": "37.37385900000",
"ln": "140.33908700000"
},
"geometry": {
"type": "Point",
"coordinates": [
140.339087,
37.373859
]
}
},
{
"type": "Feature",
"properties": {
"Name": "小原田地域公民館",
"Jusho": "福島県郡山市小原田四丁目3-4",
"Capacity": "－",
"la": "37.38089500000",
"ln": "140.37996000000"
},
"geometry": {
"type": "Point",
"coordinates": [
140.37996,
37.380895
]
}
},
{
"type": "Feature",
"properties": {
"Name": "小山田地域公民館",
"Jusho": "福島県郡山市大槻町字六角50－",
"Capacity": "－",
"la": "37.40456700000",
"ln": "140.33246400000"
},
"geometry": {
"type": "Point",
"coordinates": [
140.332464,
37.404567
]
}
},
{
"type": "Feature",
"properties": {
"Name": "尚志高校",
"Jusho": "福島県郡山市大槻町字坦ノ腰2",
"Capacity": "－",
"la": "37.37974200000",
"ln": "140.31100900000"
},
"geometry": {
"type": "Point",
"coordinates": [
140.311009,
37.379742
]
}
},
{
"type": "Feature",
"properties": {
"Name": "障害者福祉センター",
"Jusho": "福島県郡山市香久池一丁目15－5",
"Capacity": "－",
"la": "37.38013400000",
"ln": "140.37096400000"
},
"geometry": {
"type": "Point",
"coordinates": [
140.370964,
37.380134
]
}
},
{
"type": "Feature",
"properties": {
"Name": "水天宮広場",
"Jusho": "福島県郡山市久留米三丁目52",
"Capacity": "－",
"la": "37.37819578580",
"ln": "140.35663148800"
},
"geometry": {
"type": "Point",
"coordinates": [
140.356631488,
37.3781957858
]
}
},
{
"type": "Feature",
"properties": {
"Name": "西田ふれあいセンター",
"Jusho": "福島県郡山市西田町三町目字桜内259",
"Capacity": "－",
"la": "37.45557299910",
"ln": "140.43994700000"
},
"geometry": {
"type": "Point",
"coordinates": [
140.439947,
37.4555729991
]
}
},
{
"type": "Feature",
"properties": {
"Name": "西田地域交流センター",
"Jusho": "福島県郡山市西田町三町目字仁王ケ作19-2",
"Capacity": "－",
"la": "37.44659900000",
"ln": "140.42974500000"
},
"geometry": {
"type": "Point",
"coordinates": [
140.429745,
37.446599
]
}
},
{
"type": "Feature",
"properties": {
"Name": "西部体育館",
"Jusho": "福島県郡山市大槻町字漆棒48",
"Capacity": "－",
"la": "37.39430000000",
"ln": "140.30339800000"
},
"geometry": {
"type": "Point",
"coordinates": [
140.303398,
37.3943
]
}
},
{
"type": "Feature",
"properties": {
"Name": "西部第二体育館",
"Jusho": "福島県郡山市待池台1-7",
"Capacity": "－",
"la": "37.44638700000",
"ln": "140.31435000000"
},
"geometry": {
"type": "Point",
"coordinates": [
140.31435,
37.446387
]
}
},
{
"type": "Feature",
"properties": {
"Name": "青少年会館",
"Jusho": "福島県郡山市大槻町字漆棒82",
"Capacity": "－",
"la": "37.39613900000",
"ln": "140.30321700000"
},
"geometry": {
"type": "Point",
"coordinates": [
140.303217,
37.396139
]
}
},
{
"type": "Feature",
"properties": {
"Name": "赤木地域公民館",
"Jusho": "福島県郡山市赤木町7－9",
"Capacity": "－",
"la": "37.40470100000",
"ln": "140.38280400000"
},
"geometry": {
"type": "Point",
"coordinates": [
140.382804,
37.404701
]
}
},
{
"type": "Feature",
"properties": {
"Name": "総合体育館",
"Jusho": "福島県郡山市豊田町3－0",
"Capacity": "－",
"la": "37.39736600000",
"ln": "140.36392000000"
},
"geometry": {
"type": "Point",
"coordinates": [
140.36392,
37.397366
]
}
},
{
"type": "Feature",
"properties": {
"Name": "総合地方卸売市場",
"Jusho": "福島県郡山市大槻町字向原114",
"Capacity": "－",
"la": "37.36937000000",
"ln": "140.32384700000"
},
"geometry": {
"type": "Point",
"coordinates": [
140.323847,
37.36937
]
}
},
{
"type": "Feature",
"properties": {
"Name": "総合福祉センター",
"Jusho": "福島県郡山市朝日一丁目29-9",
"Capacity": "－",
"la": "37.40107599910",
"ln": "140.35873000000"
},
"geometry": {
"type": "Point",
"coordinates": [
140.35873,
37.4010759991
]
}
},
{
"type": "Feature",
"properties": {
"Name": "大成地域公民館",
"Jusho": "福島県郡山市鳴神二丁目55",
"Capacity": "－",
"la": "37.39424300000",
"ln": "140.33744600000"
},
"geometry": {
"type": "Point",
"coordinates": [
140.337446,
37.394243
]
}
},
{
"type": "Feature",
"properties": {
"Name": "大槻ふれあいセンター",
"Jusho": "福島県郡山市大槻町字中前田56－",
"Capacity": "－",
"la": "37.38751700000",
"ln": "140.31986300000"
},
"geometry": {
"type": "Point",
"coordinates": [
140.319863,
37.387517
]
}
},
{
"type": "Feature",
"properties": {
"Name": "大槻公民館大槻分室",
"Jusho": "福島県郡山市大槻町字中柵31－",
"Capacity": "－",
"la": "37.38972002600",
"ln": "140.31470149300"
},
"geometry": {
"type": "Point",
"coordinates": [
140.314701493,
37.389720026
]
}
},
{
"type": "Feature",
"properties": {
"Name": "大槻東地域公民館",
"Jusho": "福島県郡山市御前南二丁目93",
"Capacity": "－",
"la": "37.38096400000",
"ln": "140.33358700000"
},
"geometry": {
"type": "Point",
"coordinates": [
140.333587,
37.380964
]
}
},
{
"type": "Feature",
"properties": {
"Name": "大島地域公民館",
"Jusho": "福島県郡山市桑野五丁目5－",
"Capacity": "－",
"la": "37.41079200000",
"ln": "140.35577300000"
},
"geometry": {
"type": "Point",
"coordinates": [
140.355773,
37.410792
]
}
},
{
"type": "Feature",
"properties": {
"Name": "男女共同参画センター",
"Jusho": "福島県郡山市麓山二丁目9－",
"Capacity": "－",
"la": "37.39448000000",
"ln": "140.37033600000"
},
"geometry": {
"type": "Point",
"coordinates": [
140.370336,
37.39448
]
}
},
{
"type": "Feature",
"properties": {
"Name": "中央公民館",
"Jusho": "福島県郡山市麓山一丁目8-4",
"Capacity": "－",
"la": "37.39396300000",
"ln": "140.37208400000"
},
"geometry": {
"type": "Point",
"coordinates": [
140.372084,
37.393963
]
}
},
{
"type": "Feature",
"properties": {
"Name": "中央公民館針生分館",
"Jusho": "福島県郡山市大槻町字笹ノ台71－",
"Capacity": "－",
"la": "37.38439500000",
"ln": "140.34993600000"
},
"geometry": {
"type": "Point",
"coordinates": [
140.349936,
37.384395
]
}
},
{
"type": "Feature",
"properties": {
"Name": "中町緑地",
"Jusho": "福島県郡山市中町68-2",
"Capacity": "－",
"la": "37.39580753130",
"ln": "140.38253772900"
},
"geometry": {
"type": "Point",
"coordinates": [
140.382537729,
37.3958075313
]
}
},
{
"type": "Feature",
"properties": {
"Name": "中田ふれあいセンター",
"Jusho": "福島県郡山市中田町下枝字大平358",
"Capacity": "－",
"la": "37.35675900000",
"ln": "140.48970200000"
},
"geometry": {
"type": "Point",
"coordinates": [
140.489702,
37.356759
]
}
},
{
"type": "Feature",
"properties": {
"Name": "中田地域交流センター",
"Jusho": "福島県郡山市中田町中津川字町田前179－",
"Capacity": "－",
"la": "37.35923499910",
"ln": "140.51241200000"
},
"geometry": {
"type": "Point",
"coordinates": [
140.512412,
37.3592349991
]
}
},
{
"type": "Feature",
"properties": {
"Name": "田村公民館",
"Jusho": "福島県郡山市田村町岩作字穂多礼40-3",
"Capacity": "－",
"la": "37.32533300000",
"ln": "140.41245700000"
},
"geometry": {
"type": "Point",
"coordinates": [
140.412457,
37.325333
]
}
},
{
"type": "Feature",
"properties": {
"Name": "東部勤労者研修センター",
"Jusho": "福島県郡山市田村町金屋字下夕川原167-2",
"Capacity": "－",
"la": "37.37682276190",
"ln": "140.39259200000"
},
"geometry": {
"type": "Point",
"coordinates": [
140.392592,
37.3768227619
]
}
},
{
"type": "Feature",
"properties": {
"Name": "東部体育館",
"Jusho": "福島県郡山市田村町金屋字下夕河原167-2",
"Capacity": "－",
"la": "37.37661500000",
"ln": "140.39259200000"
},
"geometry": {
"type": "Point",
"coordinates": [
140.392592,
37.376615
]
}
},
{
"type": "Feature",
"properties": {
"Name": "東部地域公民館",
"Jusho": "福島県郡山市阿久津町字久保24－",
"Capacity": "－",
"la": "37.40500000000",
"ln": "140.41349500000"
},
"geometry": {
"type": "Point",
"coordinates": [
140.413495,
37.405
]
}
},
{
"type": "Feature",
"properties": {
"Name": "桃見台地域公民館",
"Jusho": "福島県郡山市桃見台12-3",
"Capacity": "－",
"la": "37.40487400000",
"ln": "140.37018000000"
},
"geometry": {
"type": "Point",
"coordinates": [
140.37018,
37.404874
]
}
},
{
"type": "Feature",
"properties": {
"Name": "二瀬地域公民館",
"Jusho": "福島県郡山市田村町栃本字市穀4-2",
"Capacity": "－",
"la": "37.31093900000",
"ln": "140.48497700000"
},
"geometry": {
"type": "Point",
"coordinates": [
140.484977,
37.310939
]
}
},
{
"type": "Feature",
"properties": {
"Name": "日本大学工学部・東北高校",
"Jusho": "福島県郡山市田村町徳定字中河原1",
"Capacity": "－",
"la": "37.35916400000",
"ln": "140.38470200000"
},
"geometry": {
"type": "Point",
"coordinates": [
140.384702,
37.359164
]
}
},
{
"type": "Feature",
"properties": {
"Name": "日和田公民館",
"Jusho": "福島県郡山市日和田町字小堰23-4",
"Capacity": "－",
"la": "37.44613300000",
"ln": "140.38870800000"
},
"geometry": {
"type": "Point",
"coordinates": [
140.388708,
37.446133
]
}
},
{
"type": "Feature",
"properties": {
"Name": "日和田地域交流センター",
"Jusho": "福島県郡山市日和田町広野入5－",
"Capacity": "－",
"la": "37.45545400000",
"ln": "140.38766600000"
},
"geometry": {
"type": "Point",
"coordinates": [
140.387666,
37.455454
]
}
},
{
"type": "Feature",
"properties": {
"Name": "熱海温泉事務所",
"Jusho": "福島県郡山市熱海町熱海五丁目26",
"Capacity": "－",
"la": "37.48994100000",
"ln": "140.25948700000"
},
"geometry": {
"type": "Point",
"coordinates": [
140.259487,
37.489941
]
}
},
{
"type": "Feature",
"properties": {
"Name": "熱海消防センター",
"Jusho": "福島県郡山市熱海町熱海四丁目110",
"Capacity": "－",
"la": "37.48246600000",
"ln": "140.27020700000"
},
"geometry": {
"type": "Point",
"coordinates": [
140.270207,
37.482466
]
}
},
{
"type": "Feature",
"properties": {
"Name": "白岩コミュニティ消防センター",
"Jusho": "福島県郡山市白岩町字柿ノ口21",
"Capacity": "－",
"la": "37.41166300000",
"ln": "140.43141900000"
},
"geometry": {
"type": "Point",
"coordinates": [
140.431419,
37.411663
]
}
},
{
"type": "Feature",
"properties": {
"Name": "磐梯熱海スポーツパーク",
"Jusho": "福島県郡山市熱海町高玉字南泥布沢2-7",
"Capacity": "－",
"la": "37.48485899910",
"ln": "140.27839400000"
},
"geometry": {
"type": "Point",
"coordinates": [
140.278394,
37.4848589991
]
}
},
{
"type": "Feature",
"properties": {
"Name": "富久山コミュニティ消防センター",
"Jusho": "福島県郡山市八山田三丁目173",
"Capacity": "－",
"la": "37.43171594250",
"ln": "140.37322199700"
},
"geometry": {
"type": "Point",
"coordinates": [
140.373221997,
37.4317159425
]
}
},
{
"type": "Feature",
"properties": {
"Name": "富久山公民館富久山分室",
"Jusho": "福島県郡山市富久山町久保田字久保田216",
"Capacity": "－",
"la": "37.41473900000",
"ln": "140.39076100000"
},
"geometry": {
"type": "Point",
"coordinates": [
140.390761,
37.414739
]
}
},
{
"type": "Feature",
"properties": {
"Name": "富久山総合学習センター（サンライフ郡山）",
"Jusho": "福島県郡山市富久山町福原字泉崎181－",
"Capacity": "－",
"la": "37.41934000000",
"ln": "140.39032200000"
},
"geometry": {
"type": "Point",
"coordinates": [
140.390322,
37.41934
]
}
},
{
"type": "Feature",
"properties": {
"Name": "富田公民館",
"Jusho": "福島県郡山市町東三丁目84",
"Capacity": "－",
"la": "37.42078000000",
"ln": "140.34792300000"
},
"geometry": {
"type": "Point",
"coordinates": [
140.347923,
37.42078
]
}
},
{
"type": "Feature",
"properties": {
"Name": "富田西ふれあいセンター",
"Jusho": "福島県郡山市富田町字大十内85-22",
"Capacity": "－",
"la": "37.41667700000",
"ln": "140.33471000000"
},
"geometry": {
"type": "Point",
"coordinates": [
140.33471,
37.416677
]
}
},
{
"type": "Feature",
"properties": {
"Name": "富田東地域公民館",
"Jusho": "福島県郡山市富田町字天神林40－",
"Capacity": "－",
"la": "37.42356000000",
"ln": "140.35773900000"
},
"geometry": {
"type": "Point",
"coordinates": [
140.357739,
37.42356
]
}
},
{
"type": "Feature",
"properties": {
"Name": "福島県立テクノアカデミー郡山",
"Jusho": "福島県郡山市字上野山5",
"Capacity": "－",
"la": "37.38812385600",
"ln": "140.40742915700"
},
"geometry": {
"type": "Point",
"coordinates": [
140.407429157,
37.388123856
]
}
},
{
"type": "Feature",
"properties": {
"Name": "片平ふれあいセンター",
"Jusho": "福島県郡山市片平町字町南7-2",
"Capacity": "－",
"la": "37.41887699910",
"ln": "140.30390100000"
},
"geometry": {
"type": "Point",
"coordinates": [
140.303901,
37.4188769991
]
}
},
{
"type": "Feature",
"properties": {
"Name": "芳賀地域公民館",
"Jusho": "福島県郡山市芳賀二丁目6－",
"Capacity": "－",
"la": "37.39093100000",
"ln": "140.39651100000"
},
"geometry": {
"type": "Point",
"coordinates": [
140.396511,
37.390931
]
}
},
{
"type": "Feature",
"properties": {
"Name": "本町緑地",
"Jusho": "福島県郡山市本町一丁目299-2",
"Capacity": "－",
"la": "37.39345529000",
"ln": "140.38700233000"
},
"geometry": {
"type": "Point",
"coordinates": [
140.38700233,
37.39345529
]
}
},
{
"type": "Feature",
"properties": {
"Name": "名倉地域公民館",
"Jusho": "福島県郡山市字名倉248-3",
"Capacity": "－",
"la": "37.37506000000",
"ln": "140.36684800000"
},
"geometry": {
"type": "Point",
"coordinates": [
140.366848,
37.37506
]
}
},
{
"type": "Feature",
"properties": {
"Name": "野鳥の森学習館",
"Jusho": "福島県郡山市菜根四丁目18-6",
"Capacity": "－",
"la": "37.38130400000",
"ln": "140.36377800000"
},
"geometry": {
"type": "Point",
"coordinates": [
140.363778,
37.381304
]
}
},
{
"type": "Feature",
"properties": {
"Name": "緑ケ丘ふれあいセンター",
"Jusho": "福島県郡山市緑ケ丘東三丁目1-21",
"Capacity": "－",
"la": "37.38295500000",
"ln": "140.43577300000"
},
"geometry": {
"type": "Point",
"coordinates": [
140.435773,
37.382955
]
}
},
{
"type": "Feature",
"properties": {
"Name": "労働福祉会館",
"Jusho": "福島県郡山市虎丸町7-7",
"Capacity": "－",
"la": "37.39848500000",
"ln": "140.37363500000"
},
"geometry": {
"type": "Point",
"coordinates": [
140.373635,
37.398485
]
}
},
{
"type": "Feature",
"properties": {
"Name": "麓山消防センター",
"Jusho": "福島県郡山市麓山一丁目7－2",
"Capacity": "－",
"la": "37.39516784580",
"ln": "140.37381271600"
},
"geometry": {
"type": "Point",
"coordinates": [
140.373812716,
37.3951678458
]
}
},
{
"type": "Feature",
"properties": {
"Name": "いわき市石炭化石館広場",
"Jusho": "福島県いわき市常磐湯本町向田3番地の1",
"Capacity": "－",
"la": "37.01261899910",
"ln": "140.84845400000"
},
"geometry": {
"type": "Point",
"coordinates": [
140.848454,
37.0126189991
]
}
},
{
"type": "Feature",
"properties": {
"Name": "いわき市北部憩いの家",
"Jusho": "福島県いわき市平上片寄字大平23",
"Capacity": "－",
"la": "37.07495271500",
"ln": "140.92643616500"
},
"geometry": {
"type": "Point",
"coordinates": [
140.926436165,
37.074952715
]
}
},
{
"type": "Feature",
"properties": {
"Name": "いわき市勿来駐車場",
"Jusho": "福島県いわき市勿来町九面浜田11番地の4",
"Capacity": "－",
"la": "36.86519433670",
"ln": "140.78037954100"
},
"geometry": {
"type": "Point",
"coordinates": [
140.780379541,
36.8651943367
]
}
},
{
"type": "Feature",
"properties": {
"Name": "さかえ幼稚園庭園",
"Jusho": "福島県いわき市内郷御台境町前田地内",
"Capacity": "－",
"la": "37.05357300000",
"ln": "140.87192200000"
},
"geometry": {
"type": "Point",
"coordinates": [
140.871922,
37.053573
]
}
},
{
"type": "Feature",
"properties": {
"Name": "さくら保育園",
"Jusho": "福島県いわき市好間町下好間字沼田112",
"Capacity": "－",
"la": "37.05923900000",
"ln": "140.86211700000"
},
"geometry": {
"type": "Point",
"coordinates": [
140.862117,
37.059239
]
}
},
{
"type": "Feature",
"properties": {
"Name": "ひまわりちびっ子広場",
"Jusho": "福島県いわき市勿来町四沢作田地内",
"Capacity": "－",
"la": "36.88650321560",
"ln": "140.77291198300"
},
"geometry": {
"type": "Point",
"coordinates": [
140.772911983,
36.8865032156
]
}
},
{
"type": "Feature",
"properties": {
"Name": "愛谷集会所",
"Jusho": "福島県いわき市好間町愛谷字花輪69",
"Capacity": "－",
"la": "37.07390011670",
"ln": "140.87163845200"
},
"geometry": {
"type": "Point",
"coordinates": [
140.871638452,
37.0739001167
]
}
},
{
"type": "Feature",
"properties": {
"Name": "井上集会所",
"Jusho": "福島県いわき市山田町井上73",
"Capacity": "－",
"la": "36.92723800000",
"ln": "140.75428700000"
},
"geometry": {
"type": "Point",
"coordinates": [
140.754287,
36.927238
]
}
},
{
"type": "Feature",
"properties": {
"Name": "一丁目集会所",
"Jusho": "福島県いわき市内郷高坂町一丁目地内",
"Capacity": "－",
"la": "37.04894182790",
"ln": "140.85329999300"
},
"geometry": {
"type": "Point",
"coordinates": [
140.853299993,
37.0489418279
]
}
},
{
"type": "Feature",
"properties": {
"Name": "宇根尻多目的集会所",
"Jusho": "福島県いわき市川前町川前字宇根尻115－",
"Capacity": "－",
"la": "37.21254100000",
"ln": "140.73317300000"
},
"geometry": {
"type": "Point",
"coordinates": [
140.733173,
37.212541
]
}
},
{
"type": "Feature",
"properties": {
"Name": "円成院",
"Jusho": "福島県いわき市久之浜町田之綱字西内58",
"Capacity": "－",
"la": "37.12557733180",
"ln": "140.99309697300"
},
"geometry": {
"type": "Point",
"coordinates": [
140.993096973,
37.1255773318
]
}
},
{
"type": "Feature",
"properties": {
"Name": "円福寺",
"Jusho": "福島県いわき市遠野町入遠野字天王322",
"Capacity": "－",
"la": "37.05232103120",
"ln": "140.69899242000"
},
"geometry": {
"type": "Point",
"coordinates": [
140.69899242,
37.0523210312
]
}
},
{
"type": "Feature",
"properties": {
"Name": "遠野市民運動場",
"Jusho": "福島県いわき市遠野町上遠野字久保作34",
"Capacity": "－",
"la": "37.00312100000",
"ln": "140.74153500000"
},
"geometry": {
"type": "Point",
"coordinates": [
140.741535,
37.003121
]
}
},
{
"type": "Feature",
"properties": {
"Name": "遠野保育所",
"Jusho": "福島県いわき市遠野町上遠野字白幡106-2",
"Capacity": "－",
"la": "37.00727000000",
"ln": "140.74177000000"
},
"geometry": {
"type": "Point",
"coordinates": [
140.74177,
37.00727
]
}
},
{
"type": "Feature",
"properties": {
"Name": "塩田集落農事集会所",
"Jusho": "福島県いわき市小川町塩田字平前20-2",
"Capacity": "－",
"la": "37.13609352610",
"ln": "140.84162758000"
},
"geometry": {
"type": "Point",
"coordinates": [
140.84162758,
37.1360935261
]
}
},
{
"type": "Feature",
"properties": {
"Name": "横川多目的集会施設",
"Jusho": "福島県いわき市小川町上小川字横川46－",
"Capacity": "－",
"la": "37.16780000000",
"ln": "140.85165400000"
},
"geometry": {
"type": "Point",
"coordinates": [
140.851654,
37.1678
]
}
},
{
"type": "Feature",
"properties": {
"Name": "桶売福祉館",
"Jusho": "福島県いわき市川前町下桶売字矢田谷地144－",
"Capacity": "－",
"la": "37.24888000000",
"ln": "140.72190000000"
},
"geometry": {
"type": "Point",
"coordinates": [
140.7219,
37.24888
]
}
},
{
"type": "Feature",
"properties": {
"Name": "下好間公民館",
"Jusho": "福島県いわき市好間町下好間字一町坪10",
"Capacity": "－",
"la": "37.05902000000",
"ln": "140.86011700000"
},
"geometry": {
"type": "Point",
"coordinates": [
140.860117,
37.05902
]
}
},
{
"type": "Feature",
"properties": {
"Name": "下黒田公民館",
"Jusho": "福島県いわき市田人町黒田字赤仁田乙164",
"Capacity": "－",
"la": "36.97588200000",
"ln": "140.70360200000"
},
"geometry": {
"type": "Point",
"coordinates": [
140.703602,
36.975882
]
}
},
{
"type": "Feature",
"properties": {
"Name": "下三坂体育館",
"Jusho": "福島県いわき市三和町下三坂字立町30",
"Capacity": "－",
"la": "37.20851000000",
"ln": "140.67305600000"
},
"geometry": {
"type": "Point",
"coordinates": [
140.673056,
37.20851
]
}
},
{
"type": "Feature",
"properties": {
"Name": "下小川公民館",
"Jusho": "福島県いわき市小川町下小川字前原299－",
"Capacity": "－",
"la": "37.10801400930",
"ln": "140.87507171000"
},
"geometry": {
"type": "Point",
"coordinates": [
140.87507171,
37.1080140093
]
}
},
{
"type": "Feature",
"properties": {
"Name": "下小川公民館",
"Jusho": "福島県いわき市川部町北ノ内88",
"Capacity": "－",
"la": "36.92186725670",
"ln": "140.73923955000"
},
"geometry": {
"type": "Point",
"coordinates": [
140.73923955,
36.9218672567
]
}
},
{
"type": "Feature",
"properties": {
"Name": "下川公民館",
"Jusho": "福島県いわき市泉町下川字宿ノ川19",
"Capacity": "－",
"la": "36.93988500000",
"ln": "140.86383100000"
},
"geometry": {
"type": "Point",
"coordinates": [
140.863831,
36.939885
]
}
},
{
"type": "Feature",
"properties": {
"Name": "下船尾集会所",
"Jusho": "福島県いわき市常磐下船尾町村山5-2",
"Capacity": "－",
"la": "36.98829300000",
"ln": "140.87171500000"
},
"geometry": {
"type": "Point",
"coordinates": [
140.871715,
36.988293
]
}
},
{
"type": "Feature",
"properties": {
"Name": "下平石児童遊園地",
"Jusho": "福島県いわき市田人町旅人字下平石地内",
"Capacity": "－",
"la": "36.95401289650",
"ln": "140.70427537900"
},
"geometry": {
"type": "Point",
"coordinates": [
140.704275379,
36.9540128965
]
}
},
{
"type": "Feature",
"properties": {
"Name": "下矢田集会所",
"Jusho": "福島県いわき市鹿島町下矢田字仲沖7－",
"Capacity": "－",
"la": "37.00546800000",
"ln": "140.90629200000"
},
"geometry": {
"type": "Point",
"coordinates": [
140.906292,
37.005468
]
}
},
{
"type": "Feature",
"properties": {
"Name": "夏井公民館",
"Jusho": "福島県いわき市平荒田目字高原16",
"Capacity": "－",
"la": "37.05467700000",
"ln": "140.95063200000"
},
"geometry": {
"type": "Point",
"coordinates": [
140.950632,
37.054677
]
}
},
{
"type": "Feature",
"properties": {
"Name": "株式会社マルト釜の前店駐車場",
"Jusho": "福島県いわき市場常磐上湯長谷町山の神前地内",
"Capacity": "－",
"la": "36.99923411120",
"ln": "140.83698419800"
},
"geometry": {
"type": "Point",
"coordinates": [
140.836984198,
36.9992341112
]
}
},
{
"type": "Feature",
"properties": {
"Name": "釜ノ前第２児童遊園",
"Jusho": "福島県いわき市常磐上湯長谷町釜ノ前161－63",
"Capacity": "－",
"la": "36.99631254050",
"ln": "140.83239219000"
},
"geometry": {
"type": "Point",
"coordinates": [
140.83239219,
36.9963125405
]
}
},
{
"type": "Feature",
"properties": {
"Name": "釜ノ前団地集会所",
"Jusho": "福島県いわき市常磐上湯長谷町釜ノ前161-200",
"Capacity": "－",
"la": "36.99572954990",
"ln": "140.83277277300"
},
"geometry": {
"type": "Point",
"coordinates": [
140.832772773,
36.9957295499
]
}
},
{
"type": "Feature",
"properties": {
"Name": "関場公民館",
"Jusho": "福島県いわき市小川町関場字前田19－",
"Capacity": "－",
"la": "37.11716154620",
"ln": "140.87055663800"
},
"geometry": {
"type": "Point",
"coordinates": [
140.870556638,
37.1171615462
]
}
},
{
"type": "Feature",
"properties": {
"Name": "関船体育館",
"Jusho": "福島県いわき市常磐関船町作田3",
"Capacity": "－",
"la": "37.00124800000",
"ln": "140.84921500000"
},
"geometry": {
"type": "Point",
"coordinates": [
140.849215,
37.001248
]
}
},
{
"type": "Feature",
"properties": {
"Name": "関田公民館",
"Jusho": "福島県いわき市勿来町関田行屋前2－",
"Capacity": "－",
"la": "36.88131003450",
"ln": "140.78863975400"
},
"geometry": {
"type": "Point",
"coordinates": [
140.788639754,
36.8813100345
]
}
},
{
"type": "Feature",
"properties": {
"Name": "関田中央ちびっこ広場",
"Jusho": "福島県いわき市勿来町関田行屋前地内",
"Capacity": "－",
"la": "36.88127592740",
"ln": "140.78960975200"
},
"geometry": {
"type": "Point",
"coordinates": [
140.789609752,
36.8812759274
]
}
},
{
"type": "Feature",
"properties": {
"Name": "舘公民館",
"Jusho": "福島県いわき市小川町西小川字舘94－",
"Capacity": "－",
"la": "37.10720623850",
"ln": "140.85890355100"
},
"geometry": {
"type": "Point",
"coordinates": [
140.858903551,
37.1072062385
]
}
},
{
"type": "Feature",
"properties": {
"Name": "岩間集会所",
"Jusho": "福島県いわき市岩間町川田106-3",
"Capacity": "－",
"la": "36.91390599910",
"ln": "140.82387400000"
},
"geometry": {
"type": "Point",
"coordinates": [
140.823874,
36.9139059991
]
}
},
{
"type": "Feature",
"properties": {
"Name": "希望ヶ丘集会所",
"Jusho": "福島県いわき市常磐上湯長谷町五反田206-2",
"Capacity": "－",
"la": "36.99868299910",
"ln": "140.83977100000"
},
"geometry": {
"type": "Point",
"coordinates": [
140.839771,
36.9986829991
]
}
},
{
"type": "Feature",
"properties": {
"Name": "鬼越神社境内",
"Jusho": "福島県いわき市錦町鬼越下地内",
"Capacity": "－",
"la": "36.91230155030",
"ln": "140.77116666200"
},
"geometry": {
"type": "Point",
"coordinates": [
140.771166662,
36.9123015503
]
}
},
{
"type": "Feature",
"properties": {
"Name": "菊田保育所",
"Jusho": "福島県いわき市山田町東川原13",
"Capacity": "－",
"la": "36.92689000000",
"ln": "140.77734400000"
},
"geometry": {
"type": "Point",
"coordinates": [
140.777344,
36.92689
]
}
},
{
"type": "Feature",
"properties": {
"Name": "久之浜公民館",
"Jusho": "福島県いわき市久之浜町久之浜字南荒蒔3",
"Capacity": "－",
"la": "37.14186500000",
"ln": "140.99790700000"
},
"geometry": {
"type": "Point",
"coordinates": [
140.997907,
37.141865
]
}
},
{
"type": "Feature",
"properties": {
"Name": "久之浜市民運動場",
"Jusho": "福島県いわき市久之浜町金ヶ沢字北磯脇29-2",
"Capacity": "－",
"la": "37.15270848220",
"ln": "140.99956535500"
},
"geometry": {
"type": "Point",
"coordinates": [
140.999565355,
37.1527084822
]
}
},
{
"type": "Feature",
"properties": {
"Name": "久之浜保育所所庭",
"Jusho": "福島県いわき市大久町小久字連郷地内",
"Capacity": "－",
"la": "37.14342800000",
"ln": "140.99171000000"
},
"geometry": {
"type": "Point",
"coordinates": [
140.99171,
37.143428
]
}
},
{
"type": "Feature",
"properties": {
"Name": "久保多目的集会所",
"Jusho": "福島県いわき市好間町北好間字屋敷前79－2",
"Capacity": "－",
"la": "37.06746300000",
"ln": "140.83620200000"
},
"geometry": {
"type": "Point",
"coordinates": [
140.836202,
37.067463
]
}
},
{
"type": "Feature",
"properties": {
"Name": "宮沢集会所",
"Jusho": "福島県いわき市内郷宮町宮沢2",
"Capacity": "－",
"la": "37.04063613140",
"ln": "140.84384159100"
},
"geometry": {
"type": "Point",
"coordinates": [
140.843841591,
37.0406361314
]
}
},
{
"type": "Feature",
"properties": {
"Name": "宮保育所所庭",
"Jusho": "福島県いわき市内郷宮町金坂地内",
"Capacity": "－",
"la": "37.04024000000",
"ln": "140.84589700000"
},
"geometry": {
"type": "Point",
"coordinates": [
140.845897,
37.04024
]
}
},
{
"type": "Feature",
"properties": {
"Name": "玉川集会所",
"Jusho": "福島県いわき市小名浜玉川町南24－",
"Capacity": "－",
"la": "36.98415299910",
"ln": "140.88579100000"
},
"geometry": {
"type": "Point",
"coordinates": [
140.885791,
36.9841529991
]
}
},
{
"type": "Feature",
"properties": {
"Name": "玉田院境内",
"Jusho": "福島県いわき市山田町井上地内",
"Capacity": "－",
"la": "36.92787601170",
"ln": "140.75668121900"
},
"geometry": {
"type": "Point",
"coordinates": [
140.756681219,
36.9278760117
]
}
},
{
"type": "Feature",
"properties": {
"Name": "桐ヶ岡多目的集会所",
"Jusho": "福島県いわき市小川町柴原字桐ヶ岡38-2",
"Capacity": "－",
"la": "37.15321800000",
"ln": "140.86836000000"
},
"geometry": {
"type": "Point",
"coordinates": [
140.86836,
37.153218
]
}
},
{
"type": "Feature",
"properties": {
"Name": "錦保育所",
"Jusho": "福島県いわき市錦町作鞍4",
"Capacity": "－",
"la": "36.89728300000",
"ln": "140.78518800000"
},
"geometry": {
"type": "Point",
"coordinates": [
140.785188,
36.897283
]
}
},
{
"type": "Feature",
"properties": {
"Name": "錦幼稚園",
"Jusho": "福島県いわき市錦町鷺内3－",
"Capacity": "－",
"la": "36.90164400000",
"ln": "140.79527000000"
},
"geometry": {
"type": "Point",
"coordinates": [
140.79527,
36.901644
]
}
},
{
"type": "Feature",
"properties": {
"Name": "金山集会所",
"Jusho": "福島県いわき市金山町朝日台1",
"Capacity": "－",
"la": "36.92720100000",
"ln": "140.82084200000"
},
"geometry": {
"type": "Point",
"coordinates": [
140.820842,
36.927201
]
}
},
{
"type": "Feature",
"properties": {
"Name": "九面集会所",
"Jusho": "福島県いわき市勿来町九面九浦町58",
"Capacity": "－",
"la": "36.85899200000",
"ln": "140.78920800000"
},
"geometry": {
"type": "Point",
"coordinates": [
140.789208,
36.858992
]
}
},
{
"type": "Feature",
"properties": {
"Name": "軽井沢多目的集会所",
"Jusho": "福島県いわき市三和町下永井字軽井沢86",
"Capacity": "－",
"la": "37.16271121400",
"ln": "140.77776968100"
},
"geometry": {
"type": "Point",
"coordinates": [
140.777769681,
37.162711214
]
}
},
{
"type": "Feature",
"properties": {
"Name": "建瀧寺",
"Jusho": "福島県いわき市遠野町滝字房林9",
"Capacity": "－",
"la": "36.98112691470",
"ln": "140.73358752900"
},
"geometry": {
"type": "Point",
"coordinates": [
140.733587529,
36.9811269147
]
}
},
{
"type": "Feature",
"properties": {
"Name": "県立いわき総合高等学校校庭",
"Jusho": "福島県いわき市内郷内町駒谷地内",
"Capacity": "－",
"la": "37.03976900000",
"ln": "140.85467400000"
},
"geometry": {
"type": "Point",
"coordinates": [
140.854674,
37.039769
]
}
},
{
"type": "Feature",
"properties": {
"Name": "県立いわき養護学校体育館",
"Jusho": "福島県いわき市平上神谷字石ノ町13－",
"Capacity": "－",
"la": "37.06726700000",
"ln": "140.91661100000"
},
"geometry": {
"type": "Point",
"coordinates": [
140.916611,
37.067267
]
}
},
{
"type": "Feature",
"properties": {
"Name": "県立四倉高等学校体育館",
"Jusho": "福島県いわき市四倉町字五丁目4",
"Capacity": "－",
"la": "37.11254200000",
"ln": "140.98798900000"
},
"geometry": {
"type": "Point",
"coordinates": [
140.987989,
37.112542
]
}
},
{
"type": "Feature",
"properties": {
"Name": "県立小名浜高等学校体育館",
"Jusho": "福島県いわき市小名浜下神白字武城23",
"Capacity": "－",
"la": "36.94672800000",
"ln": "140.92189200000"
},
"geometry": {
"type": "Point",
"coordinates": [
140.921892,
36.946728
]
}
},
{
"type": "Feature",
"properties": {
"Name": "県立湯本高等学校",
"Jusho": "福島県いわき市常磐上湯長谷町五反田55",
"Capacity": "－",
"la": "36.99643900000",
"ln": "140.84162100000"
},
"geometry": {
"type": "Point",
"coordinates": [
140.841621,
36.996439
]
}
},
{
"type": "Feature",
"properties": {
"Name": "県立磐城高等学校体育館",
"Jusho": "福島県いわき市平字高月7",
"Capacity": "－",
"la": "37.06310000000",
"ln": "140.87967100000"
},
"geometry": {
"type": "Point",
"coordinates": [
140.879671,
37.0631
]
}
},
{
"type": "Feature",
"properties": {
"Name": "県立磐城桜が丘高等学校体育館",
"Jusho": "福島県いわき市館平字桜町5",
"Capacity": "－",
"la": "37.06310000000",
"ln": "140.88717000000"
},
"geometry": {
"type": "Point",
"coordinates": [
140.88717,
37.0631
]
}
},
{
"type": "Feature",
"properties": {
"Name": "県立磐城農業高等学校体育館",
"Jusho": "福島県いわき市植田町小名田60",
"Capacity": "－",
"la": "36.92589100000",
"ln": "140.79024200000"
},
"geometry": {
"type": "Point",
"coordinates": [
140.790242,
36.925891
]
}
},
{
"type": "Feature",
"properties": {
"Name": "県立平工業高等学校体育館",
"Jusho": "福島県いわき市平下荒川字中剃1-3",
"Capacity": "－",
"la": "37.03671600000",
"ln": "140.90383500000"
},
"geometry": {
"type": "Point",
"coordinates": [
140.903835,
37.036716
]
}
},
{
"type": "Feature",
"properties": {
"Name": "県立平商業高等学校体育館",
"Jusho": "福島県いわき市平中塩字一水口45",
"Capacity": "－",
"la": "37.06972300000",
"ln": "140.90051900000"
},
"geometry": {
"type": "Point",
"coordinates": [
140.900519,
37.069723
]
}
},
{
"type": "Feature",
"properties": {
"Name": "県立平養護学校体育館",
"Jusho": "福島県いわき市平上平窪字羽黒40-45",
"Capacity": "－",
"la": "37.09365200000",
"ln": "140.88994600000"
},
"geometry": {
"type": "Point",
"coordinates": [
140.889946,
37.093652
]
}
},
{
"type": "Feature",
"properties": {
"Name": "県立勿来工業高等学校体育館",
"Jusho": "福島県いわき市植田町堂の作10",
"Capacity": "－",
"la": "36.92811300000",
"ln": "140.79274100000"
},
"geometry": {
"type": "Point",
"coordinates": [
140.792741,
36.928113
]
}
},
{
"type": "Feature",
"properties": {
"Name": "県立勿来高等学校体育館",
"Jusho": "福島県いわき市勿来町窪田町通二丁目1",
"Capacity": "－",
"la": "36.88867300000",
"ln": "140.76774600000"
},
"geometry": {
"type": "Point",
"coordinates": [
140.767746,
36.888673
]
}
},
{
"type": "Feature",
"properties": {
"Name": "源平野地集会所",
"Jusho": "福島県いわき市好間町北好間字上ノ原164",
"Capacity": "－",
"la": "37.06538801690",
"ln": "140.82802800000"
},
"geometry": {
"type": "Point",
"coordinates": [
140.828028,
37.0653880169
]
}
},
{
"type": "Feature",
"properties": {
"Name": "御厩保育所",
"Jusho": "福島県いわき市内郷御厩町下宿99",
"Capacity": "－",
"la": "37.04779600000",
"ln": "140.87756000000"
},
"geometry": {
"type": "Point",
"coordinates": [
140.87756,
37.047796
]
}
},
{
"type": "Feature",
"properties": {
"Name": "御前崎遊園地",
"Jusho": "福島県いわき市勿来町窪田御前崎地内",
"Capacity": "－",
"la": "36.89995038180",
"ln": "140.75366504800"
},
"geometry": {
"type": "Point",
"coordinates": [
140.753665048,
36.8999503818
]
}
},
{
"type": "Feature",
"properties": {
"Name": "好間公民館",
"Jusho": "福島県いわき市好間町中好間字中川原29－",
"Capacity": "－",
"la": "37.06335300000",
"ln": "140.85690900000"
},
"geometry": {
"type": "Point",
"coordinates": [
140.856909,
37.063353
]
}
},
{
"type": "Feature",
"properties": {
"Name": "好間多目的広場",
"Jusho": "福島県いわき市好間工業団地24-5",
"Capacity": "－",
"la": "37.07848730170",
"ln": "140.84557952900"
},
"geometry": {
"type": "Point",
"coordinates": [
140.845579529,
37.0784873017
]
}
},
{
"type": "Feature",
"properties": {
"Name": "好間保育所",
"Jusho": "福島県いわき市好間町上好間字馬場前19-3",
"Capacity": "－",
"la": "37.06815400000",
"ln": "140.85056200000"
},
"geometry": {
"type": "Point",
"coordinates": [
140.850562,
37.068154
]
}
},
{
"type": "Feature",
"properties": {
"Name": "江栗公民館",
"Jusho": "福島県いわき市錦町鬼越下69-2",
"Capacity": "－",
"la": "36.91229600000",
"ln": "140.77168700000"
},
"geometry": {
"type": "Point",
"coordinates": [
140.771687,
36.912296
]
}
},
{
"type": "Feature",
"properties": {
"Name": "江田公民館",
"Jusho": "福島県いわき市小川町上小川字江田41－",
"Capacity": "－",
"la": "37.17941200000",
"ln": "140.82666400000"
},
"geometry": {
"type": "Point",
"coordinates": [
140.826664,
37.179412
]
}
},
{
"type": "Feature",
"properties": {
"Name": "江畑町集会所",
"Jusho": "福島県いわき市江畑町平前60",
"Capacity": "－",
"la": "36.94581800000",
"ln": "140.79205000000"
},
"geometry": {
"type": "Point",
"coordinates": [
140.79205,
36.945818
]
}
},
{
"type": "Feature",
"properties": {
"Name": "江名公民館",
"Jusho": "福島県いわき市江名字南町17",
"Capacity": "－",
"la": "36.97081800000",
"ln": "140.95756100000"
},
"geometry": {
"type": "Point",
"coordinates": [
140.957561,
36.970818
]
}
},
{
"type": "Feature",
"properties": {
"Name": "高久公民館",
"Jusho": "福島県いわき市平下高久字水門100",
"Capacity": "－",
"la": "37.03122400000",
"ln": "140.95778300000"
},
"geometry": {
"type": "Point",
"coordinates": [
140.957783,
37.031224
]
}
},
{
"type": "Feature",
"properties": {
"Name": "高坂八区集会所",
"Jusho": "福島県いわき市内郷高坂町一丁目1－1",
"Capacity": "－",
"la": "37.04809637800",
"ln": "140.85913582600"
},
"geometry": {
"type": "Point",
"coordinates": [
140.859135826,
37.048096378
]
}
},
{
"type": "Feature",
"properties": {
"Name": "高坂保育所",
"Jusho": "福島県いわき市内郷高坂町一丁目75-2",
"Capacity": "－",
"la": "37.04940452950",
"ln": "140.85409212300"
},
"geometry": {
"type": "Point",
"coordinates": [
140.854092123,
37.0494045295
]
}
},
{
"type": "Feature",
"properties": {
"Name": "高崎多目的集会所",
"Jusho": "福島県いわき市小川町上小川字高崎27-2",
"Capacity": "－",
"la": "37.14605589080",
"ln": "140.83505092800"
},
"geometry": {
"type": "Point",
"coordinates": [
140.835050928,
37.1460558908
]
}
},
{
"type": "Feature",
"properties": {
"Name": "高萩公民館",
"Jusho": "福島県いわき市小川町高萩字家ノ前160-2",
"Capacity": "－",
"la": "37.12578700000",
"ln": "140.85730000000"
},
"geometry": {
"type": "Point",
"coordinates": [
140.8573,
37.125787
]
}
},
{
"type": "Feature",
"properties": {
"Name": "高部集会所",
"Jusho": "福島県いわき市川前町下桶売字高部26－",
"Capacity": "－",
"la": "37.23060911730",
"ln": "140.76319310200"
},
"geometry": {
"type": "Point",
"coordinates": [
140.763193102,
37.2306091173
]
}
},
{
"type": "Feature",
"properties": {
"Name": "国立福島工業高等専門学校体育館",
"Jusho": "福島県いわき市平上荒川字長尾30",
"Capacity": "－",
"la": "37.03254900000",
"ln": "140.88911500000"
},
"geometry": {
"type": "Point",
"coordinates": [
140.889115,
37.032549
]
}
},
{
"type": "Feature",
"properties": {
"Name": "佐糠公民館",
"Jusho": "福島県いわき市佐糠町東二丁目23-9",
"Capacity": "－",
"la": "36.91556200000",
"ln": "140.80679200000"
},
"geometry": {
"type": "Point",
"coordinates": [
140.806792,
36.915562
]
}
},
{
"type": "Feature",
"properties": {
"Name": "榊小屋公民館",
"Jusho": "福島県いわき市好間町榊小屋字京塚51",
"Capacity": "－",
"la": "37.06947000000",
"ln": "140.80607200000"
},
"geometry": {
"type": "Point",
"coordinates": [
140.806072,
37.06947
]
}
},
{
"type": "Feature",
"properties": {
"Name": "三島多目的集会所",
"Jusho": "福島県いわき市小川町三島字緑69",
"Capacity": "－",
"la": "37.12578500000",
"ln": "140.86814100000"
},
"geometry": {
"type": "Point",
"coordinates": [
140.868141,
37.125785
]
}
},
{
"type": "Feature",
"properties": {
"Name": "三本杉集会所",
"Jusho": "福島県いわき市内郷高坂町三本杉29-7",
"Capacity": "－",
"la": "37.04176611400",
"ln": "140.85302674100"
},
"geometry": {
"type": "Point",
"coordinates": [
140.853026741,
37.041766114
]
}
},
{
"type": "Feature",
"properties": {
"Name": "三和ふれあい館屋内ゲートボール場",
"Jusho": "福島県いわき市三和町下市萱字竹ノ内114－",
"Capacity": "－",
"la": "37.14273500000",
"ln": "140.68789100000"
},
"geometry": {
"type": "Point",
"coordinates": [
140.687891,
37.142735
]
}
},
{
"type": "Feature",
"properties": {
"Name": "山ノ入公民館",
"Jusho": "福島県いわき市小川町高萩字山ノ入294-2",
"Capacity": "－",
"la": "37.12665100000",
"ln": "140.84394300000"
},
"geometry": {
"type": "Point",
"coordinates": [
140.843943,
37.126651
]
}
},
{
"type": "Feature",
"properties": {
"Name": "山下谷集会所",
"Jusho": "福島県いわき市川前町川前字山下谷1-5",
"Capacity": "－",
"la": "37.23442465310",
"ln": "140.69702171000"
},
"geometry": {
"type": "Point",
"coordinates": [
140.69702171,
37.2344246531
]
}
},
{
"type": "Feature",
"properties": {
"Name": "山玉公民館",
"Jusho": "福島県いわき市山玉町畑ヶ田62-3",
"Capacity": "－",
"la": "36.89700800000",
"ln": "140.72257100000"
},
"geometry": {
"type": "Point",
"coordinates": [
140.722571,
36.897008
]
}
},
{
"type": "Feature",
"properties": {
"Name": "山田公民館",
"Jusho": "福島県いわき市山田町林崎前30",
"Capacity": "－",
"la": "36.92925200000",
"ln": "140.77352400000"
},
"geometry": {
"type": "Point",
"coordinates": [
140.773524,
36.929252
]
}
},
{
"type": "Feature",
"properties": {
"Name": "山田保育所",
"Jusho": "福島県いわき市山田町堀ノ内104-3",
"Capacity": "－",
"la": "36.95363800000",
"ln": "140.76627000000"
},
"geometry": {
"type": "Point",
"coordinates": [
140.76627,
36.953638
]
}
},
{
"type": "Feature",
"properties": {
"Name": "四倉公民館",
"Jusho": "福島県いわき市四倉町字東一丁目50",
"Capacity": "－",
"la": "37.10046700000",
"ln": "140.98499400000"
},
"geometry": {
"type": "Point",
"coordinates": [
140.984994,
37.100467
]
}
},
{
"type": "Feature",
"properties": {
"Name": "四倉市民運動場",
"Jusho": "福島県いわき市四倉町字栗木作53－",
"Capacity": "－",
"la": "37.11845414620",
"ln": "140.98580967600"
},
"geometry": {
"type": "Point",
"coordinates": [
140.985809676,
37.1184541462
]
}
},
{
"type": "Feature",
"properties": {
"Name": "四倉集会所",
"Jusho": "福島県いわき市四倉町字五丁目27－",
"Capacity": "－",
"la": "37.11005400000",
"ln": "140.99005600000"
},
"geometry": {
"type": "Point",
"coordinates": [
140.990056,
37.110054
]
}
},
{
"type": "Feature",
"properties": {
"Name": "四倉老人福祉センター",
"Jusho": "福島県いわき市四倉町字西四丁目108",
"Capacity": "－",
"la": "37.11088399910",
"ln": "140.98677600000"
},
"geometry": {
"type": "Point",
"coordinates": [
140.986776,
37.1108839991
]
}
},
{
"type": "Feature",
"properties": {
"Name": "四沢集会所",
"Jusho": "福島県いわき市勿来町四沢前ノ内68",
"Capacity": "－",
"la": "36.88739406970",
"ln": "140.77939325900"
},
"geometry": {
"type": "Point",
"coordinates": [
140.779393259,
36.8873940697
]
}
},
{
"type": "Feature",
"properties": {
"Name": "志田名集会所",
"Jusho": "福島県いわき市川前町下桶売字荻77-4",
"Capacity": "－",
"la": "37.26717400000",
"ln": "140.76458500000"
},
"geometry": {
"type": "Point",
"coordinates": [
140.764585,
37.267174
]
}
},
{
"type": "Feature",
"properties": {
"Name": "私立磐城第一高等学校体育館",
"Jusho": "福島県いわき市内郷御厩町上宿11",
"Capacity": "－",
"la": "37.04671300000",
"ln": "140.87494900000"
},
"geometry": {
"type": "Point",
"coordinates": [
140.874949,
37.046713
]
}
},
{
"type": "Feature",
"properties": {
"Name": "鹿島公民館",
"Jusho": "福島県いわき市鹿島町走熊字鬼越83－",
"Capacity": "－",
"la": "36.99411900000",
"ln": "140.91035600000"
},
"geometry": {
"type": "Point",
"coordinates": [
140.910356,
36.994119
]
}
},
{
"type": "Feature",
"properties": {
"Name": "鹿島集会所",
"Jusho": "福島県いわき市常磐上矢田町太良作48－",
"Capacity": "－",
"la": "37.01415000000",
"ln": "140.90381800000"
},
"geometry": {
"type": "Point",
"coordinates": [
140.903818,
37.01415
]
}
},
{
"type": "Feature",
"properties": {
"Name": "柴原公民館",
"Jusho": "福島県いわき市小川町柴原字舘下90-3",
"Capacity": "－",
"la": "37.13897515970",
"ln": "140.87042653600"
},
"geometry": {
"type": "Point",
"coordinates": [
140.870426536,
37.1389751597
]
}
},
{
"type": "Feature",
"properties": {
"Name": "若葉台集会所",
"Jusho": "福島県いわき市若葉台一丁目24-8",
"Capacity": "－",
"la": "37.01940500000",
"ln": "140.89800900000"
},
"geometry": {
"type": "Point",
"coordinates": [
140.898009,
37.019405
]
}
},
{
"type": "Feature",
"properties": {
"Name": "酒井高畔集会所",
"Jusho": "福島県いわき市勿来町酒井七反田37-7",
"Capacity": "－",
"la": "36.88126498660",
"ln": "140.74097322300"
},
"geometry": {
"type": "Point",
"coordinates": [
140.740973223,
36.8812649866
]
}
},
{
"type": "Feature",
"properties": {
"Name": "寿幼稚園",
"Jusho": "福島県いわき市好間町北好間字塊坪10-3",
"Capacity": "－",
"la": "37.06987600000",
"ln": "140.83497900000"
},
"geometry": {
"type": "Point",
"coordinates": [
140.834979,
37.069876
]
}
},
{
"type": "Feature",
"properties": {
"Name": "住吉集会所",
"Jusho": "福島県いわき市小名浜住吉字冠木11-2",
"Capacity": "－",
"la": "36.97637100000",
"ln": "140.88850000000"
},
"geometry": {
"type": "Point",
"coordinates": [
140.8885,
36.976371
]
}
},
{
"type": "Feature",
"properties": {
"Name": "出旅人生活改善センター",
"Jusho": "福島県いわき市田人町旅人字下平石137-3",
"Capacity": "－",
"la": "36.95261413520",
"ln": "140.70241411600"
},
"geometry": {
"type": "Point",
"coordinates": [
140.702414116,
36.9526141352
]
}
},
{
"type": "Feature",
"properties": {
"Name": "商工会議所勿来支所",
"Jusho": "福島県いわき市佐糠町八反田56-4",
"Capacity": "－",
"la": "36.91858400000",
"ln": "140.80281900000"
},
"geometry": {
"type": "Point",
"coordinates": [
140.802819,
36.918584
]
}
},
{
"type": "Feature",
"properties": {
"Name": "小久集会所",
"Jusho": "福島県いわき市大久町小久字町田前39",
"Capacity": "－",
"la": "37.14031800000",
"ln": "140.98058900000"
},
"geometry": {
"type": "Point",
"coordinates": [
140.980589,
37.140318
]
}
},
{
"type": "Feature",
"properties": {
"Name": "小山下集会所",
"Jusho": "福島県いわき市勿来町酒井小山下75-3",
"Capacity": "－",
"la": "36.88028200000",
"ln": "140.74840900000"
},
"geometry": {
"type": "Point",
"coordinates": [
140.748409,
36.880282
]
}
},
{
"type": "Feature",
"properties": {
"Name": "小川公民館",
"Jusho": "福島県いわき市小川町上小川字下广門44-2",
"Capacity": "－",
"la": "37.12833700000",
"ln": "140.85629500000"
},
"geometry": {
"type": "Point",
"coordinates": [
140.856295,
37.128337
]
}
},
{
"type": "Feature",
"properties": {
"Name": "小川市民運動場",
"Jusho": "福島県いわき市小川町柴原字館下6",
"Capacity": "－",
"la": "37.13758100000",
"ln": "140.87311500000"
},
"geometry": {
"type": "Point",
"coordinates": [
140.873115,
37.137581
]
}
},
{
"type": "Feature",
"properties": {
"Name": "小川保育所",
"Jusho": "福島県いわき市小川町高萩字下川原127－",
"Capacity": "－",
"la": "37.12853700000",
"ln": "140.86197400000"
},
"geometry": {
"type": "Point",
"coordinates": [
140.861974,
37.128537
]
}
},
{
"type": "Feature",
"properties": {
"Name": "小谷作集会所",
"Jusho": "福島県いわき市好間町小谷作字作畑181",
"Capacity": "－",
"la": "37.06442414130",
"ln": "140.86681321700"
},
"geometry": {
"type": "Point",
"coordinates": [
140.866813217,
37.0644241413
]
}
},
{
"type": "Feature",
"properties": {
"Name": "小島公民館",
"Jusho": "福島県いわき市内郷小島町二丁目10-7",
"Capacity": "－",
"la": "37.04719200000",
"ln": "140.88281500000"
},
"geometry": {
"type": "Point",
"coordinates": [
140.882815,
37.047192
]
}
},
{
"type": "Feature",
"properties": {
"Name": "小島保育園",
"Jusho": "福島県いわき市内郷小島町作田3",
"Capacity": "－",
"la": "37.04640800000",
"ln": "140.88322600000"
},
"geometry": {
"type": "Point",
"coordinates": [
140.883226,
37.046408
]
}
},
{
"type": "Feature",
"properties": {
"Name": "小浜公民館",
"Jusho": "福島県いわき市小浜町渚63",
"Capacity": "－",
"la": "36.91279425270",
"ln": "140.83327875400"
},
"geometry": {
"type": "Point",
"coordinates": [
140.833278754,
36.9127942527
]
}
},
{
"type": "Feature",
"properties": {
"Name": "小名田ちびっこ広場",
"Jusho": "福島県いわき市植田町西荒田地内",
"Capacity": "－",
"la": "36.92540273400",
"ln": "140.79374106500"
},
"geometry": {
"type": "Point",
"coordinates": [
140.793741065,
36.925402734
]
}
},
{
"type": "Feature",
"properties": {
"Name": "小名浜公民館",
"Jusho": "福島県いわき市小名浜愛宕上7-2",
"Capacity": "－",
"la": "36.95408500000",
"ln": "140.89460400000"
},
"geometry": {
"type": "Point",
"coordinates": [
140.894604,
36.954085
]
}
},
{
"type": "Feature",
"properties": {
"Name": "小名浜市民会館",
"Jusho": "福島県いわき市小名浜愛宕上6－",
"Capacity": "－",
"la": "36.95416500000",
"ln": "140.89525900000"
},
"geometry": {
"type": "Point",
"coordinates": [
140.895259,
36.954165
]
}
},
{
"type": "Feature",
"properties": {
"Name": "小名浜児童センター",
"Jusho": "福島県いわき市小名浜寺廻町10-3",
"Capacity": "－",
"la": "36.95194100000",
"ln": "140.89966800000"
},
"geometry": {
"type": "Point",
"coordinates": [
140.899668,
36.951941
]
}
},
{
"type": "Feature",
"properties": {
"Name": "小名浜西五区集会所",
"Jusho": "福島県いわき市小名浜字中原2-23",
"Capacity": "－",
"la": "36.94694300000",
"ln": "140.88002800000"
},
"geometry": {
"type": "Point",
"coordinates": [
140.880028,
36.946943
]
}
},
{
"type": "Feature",
"properties": {
"Name": "小名浜武道館",
"Jusho": "福島県いわき市小名浜字蛭川新川間62",
"Capacity": "－",
"la": "36.95349400000",
"ln": "140.90431900000"
},
"geometry": {
"type": "Point",
"coordinates": [
140.904319,
36.953494
]
}
},
{
"type": "Feature",
"properties": {
"Name": "小名浜臨海工業団地大畑緑地",
"Jusho": "福島県いわき市泉町下川字大剣地内",
"Capacity": "－",
"la": "36.92599841700",
"ln": "140.85512857000"
},
"geometry": {
"type": "Point",
"coordinates": [
140.85512857,
36.925998417
]
}
},
{
"type": "Feature",
"properties": {
"Name": "小名浜臨海工業団地東緑地",
"Jusho": "福島県いわき市泉町下川字神笑地内及び井戸内地内",
"Capacity": "－",
"la": "36.93345853630",
"ln": "140.86278581500"
},
"geometry": {
"type": "Point",
"coordinates": [
140.862785815,
36.9334585363
]
}
},
{
"type": "Feature",
"properties": {
"Name": "沼部橋記念遊園",
"Jusho": "福島県いわき市沼部町金山下14-2",
"Capacity": "－",
"la": "36.91920395360",
"ln": "140.74696099300"
},
"geometry": {
"type": "Point",
"coordinates": [
140.746960993,
36.9192039536
]
}
},
{
"type": "Feature",
"properties": {
"Name": "沼部公民館",
"Jusho": "福島県いわき市沼部町宿9",
"Capacity": "－",
"la": "36.91833600000",
"ln": "140.74681200000"
},
"geometry": {
"type": "Point",
"coordinates": [
140.746812,
36.918336
]
}
},
{
"type": "Feature",
"properties": {
"Name": "上ノ原公民館",
"Jusho": "福島県いわき市小川町西小川字上ノ原29",
"Capacity": "－",
"la": "37.12089455210",
"ln": "140.85556358000"
},
"geometry": {
"type": "Point",
"coordinates": [
140.85556358,
37.1208945521
]
}
},
{
"type": "Feature",
"properties": {
"Name": "上永井公民館",
"Jusho": "福島県いわき市三和町上永井字大平田141",
"Capacity": "－",
"la": "37.15440635010",
"ln": "140.75024414500"
},
"geometry": {
"type": "Point",
"coordinates": [
140.750244145,
37.1544063501
]
}
},
{
"type": "Feature",
"properties": {
"Name": "上遠野公民館",
"Jusho": "福島県いわき市遠野町上遠野字堀切1－",
"Capacity": "－",
"la": "37.00968000000",
"ln": "140.74493200000"
},
"geometry": {
"type": "Point",
"coordinates": [
140.744932,
37.00968
]
}
},
{
"type": "Feature",
"properties": {
"Name": "上桶売生活改善センター",
"Jusho": "福島県いわき市川前町上桶売字中里121－",
"Capacity": "－",
"la": "37.25589400000",
"ln": "140.71122100000"
},
"geometry": {
"type": "Point",
"coordinates": [
140.711221,
37.255894
]
}
},
{
"type": "Feature",
"properties": {
"Name": "上釜戸運動広場",
"Jusho": "福島県いわき市渡辺町上釜戸字堤ノ内38番1",
"Capacity": "－",
"la": "36.97843916090",
"ln": "140.80119586600"
},
"geometry": {
"type": "Point",
"coordinates": [
140.801195866,
36.9784391609
]
}
},
{
"type": "Feature",
"properties": {
"Name": "上釜戸集会所",
"Jusho": "福島県いわき市渡辺町上釜戸字堤ノ内58－",
"Capacity": "－",
"la": "36.97870100000",
"ln": "140.80068600000"
},
"geometry": {
"type": "Point",
"coordinates": [
140.800686,
36.978701
]
}
},
{
"type": "Feature",
"properties": {
"Name": "上好間下組部落公民館",
"Jusho": "福島県いわき市好間町上好間字南町田34-6",
"Capacity": "－",
"la": "37.06849537680",
"ln": "140.84626329000"
},
"geometry": {
"type": "Point",
"coordinates": [
140.84626329,
37.0684953768
]
}
},
{
"type": "Feature",
"properties": {
"Name": "上高久集会所",
"Jusho": "福島県いわき市平上高久字竹ノ後18-3",
"Capacity": "－",
"la": "37.03265742510",
"ln": "140.92930245200"
},
"geometry": {
"type": "Point",
"coordinates": [
140.929302452,
37.0326574251
]
}
},
{
"type": "Feature",
"properties": {
"Name": "上三坂体育館",
"Jusho": "福島県いわき市三和町上三坂字山神前111－",
"Capacity": "－",
"la": "37.18508400000",
"ln": "140.62085700000"
},
"geometry": {
"type": "Point",
"coordinates": [
140.620857,
37.185084
]
}
},
{
"type": "Feature",
"properties": {
"Name": "上平多目的集会施設",
"Jusho": "福島県いわき市小川町上平字前田24",
"Capacity": "－",
"la": "37.12963200000",
"ln": "140.86705500000"
},
"geometry": {
"type": "Point",
"coordinates": [
140.867055,
37.129632
]
}
},
{
"type": "Feature",
"properties": {
"Name": "上野原公民館",
"Jusho": "福島県いわき市好間町上好間字上野原390-2",
"Capacity": "－",
"la": "37.06078600000",
"ln": "140.84230500000"
},
"geometry": {
"type": "Point",
"coordinates": [
140.842305,
37.060786
]
}
},
{
"type": "Feature",
"properties": {
"Name": "上野公民館",
"Jusho": "福島県いわき市好間町北好間字上野103-2",
"Capacity": "－",
"la": "37.06850500000",
"ln": "140.85861400000"
},
"geometry": {
"type": "Point",
"coordinates": [
140.858614,
37.068505
]
}
},
{
"type": "Feature",
"properties": {
"Name": "常磐市民運動場",
"Jusho": "福島県いわき市常磐湯本町日渡92－",
"Capacity": "－",
"la": "37.02130700000",
"ln": "140.84106000000"
},
"geometry": {
"type": "Point",
"coordinates": [
140.84106,
37.021307
]
}
},
{
"type": "Feature",
"properties": {
"Name": "植田公民館",
"Jusho": "福島県いわき市植田町南町一丁目2-2",
"Capacity": "－",
"la": "36.91468200000",
"ln": "140.79829500000"
},
"geometry": {
"type": "Point",
"coordinates": [
140.798295,
36.914682
]
}
},
{
"type": "Feature",
"properties": {
"Name": "植田八幡神社境内",
"Jusho": "福島県いわき市植田町桜台地内",
"Capacity": "－",
"la": "36.91885182420",
"ln": "140.79534849800"
},
"geometry": {
"type": "Point",
"coordinates": [
140.795348498,
36.9188518242
]
}
},
{
"type": "Feature",
"properties": {
"Name": "神谷公民館",
"Jusho": "福島県いわき市平中神谷字籠田78－",
"Capacity": "－",
"la": "37.06667400000",
"ln": "140.93118900000"
},
"geometry": {
"type": "Point",
"coordinates": [
140.931189,
37.066674
]
}
},
{
"type": "Feature",
"properties": {
"Name": "神谷作集会所",
"Jusho": "福島県いわき市平神谷作字古屋敷50",
"Capacity": "－",
"la": "37.01348530310",
"ln": "140.96500404300"
},
"geometry": {
"type": "Point",
"coordinates": [
140.965004043,
37.0134853031
]
}
},
{
"type": "Feature",
"properties": {
"Name": "須賀公民館",
"Jusho": "福島県いわき市錦町須賀53",
"Capacity": "－",
"la": "36.90123900000",
"ln": "140.80623100000"
},
"geometry": {
"type": "Point",
"coordinates": [
140.806231,
36.901239
]
}
},
{
"type": "Feature",
"properties": {
"Name": "須賀町集会所",
"Jusho": "福島県いわき市小名浜字定西265-2",
"Capacity": "－",
"la": "36.94821300000",
"ln": "140.89934800000"
},
"geometry": {
"type": "Point",
"coordinates": [
140.899348,
36.948213
]
}
},
{
"type": "Feature",
"properties": {
"Name": "須賀遊園地",
"Jusho": "福島県いわき市勿来町関田須賀地内",
"Capacity": "－",
"la": "36.88526769530",
"ln": "140.79449392200"
},
"geometry": {
"type": "Point",
"coordinates": [
140.794493922,
36.8852676953
]
}
},
{
"type": "Feature",
"properties": {
"Name": "瀬戸公民館",
"Jusho": "福島県いわき市瀬戸町東瀬戸111－",
"Capacity": "－",
"la": "36.88575822660",
"ln": "140.72308211600"
},
"geometry": {
"type": "Point",
"coordinates": [
140.723082116,
36.8857582266
]
}
},
{
"type": "Feature",
"properties": {
"Name": "川前活性化センター",
"Jusho": "福島県いわき市川前町下桶売字久保田122-3",
"Capacity": "－",
"la": "37.24695800000",
"ln": "140.72326000000"
},
"geometry": {
"type": "Point",
"coordinates": [
140.72326,
37.246958
]
}
},
{
"type": "Feature",
"properties": {
"Name": "川前公民館",
"Jusho": "福島県いわき市川前町川前字椚立79",
"Capacity": "－",
"la": "37.20576800000",
"ln": "140.75725100000"
},
"geometry": {
"type": "Point",
"coordinates": [
140.757251,
37.205768
]
}
},
{
"type": "Feature",
"properties": {
"Name": "川前保育所",
"Jusho": "福島県いわき市川前町川前字五林37",
"Capacity": "－",
"la": "37.20857218450",
"ln": "140.74834387400"
},
"geometry": {
"type": "Point",
"coordinates": [
140.748343874,
37.2085721845
]
}
},
{
"type": "Feature",
"properties": {
"Name": "川部公民館",
"Jusho": "福島県いわき市川部町川原80",
"Capacity": "－",
"la": "36.90466800000",
"ln": "140.73069500000"
},
"geometry": {
"type": "Point",
"coordinates": [
140.730695,
36.904668
]
}
},
{
"type": "Feature",
"properties": {
"Name": "川部保育所",
"Jusho": "福島県いわき市川部町梅田54-2",
"Capacity": "－",
"la": "36.90711400000",
"ln": "140.73710800000"
},
"geometry": {
"type": "Point",
"coordinates": [
140.737108,
36.907114
]
}
},
{
"type": "Feature",
"properties": {
"Name": "泉公民館",
"Jusho": "福島県いわき市泉町四丁目13－1",
"Capacity": "－",
"la": "36.95168200000",
"ln": "140.85380800000"
},
"geometry": {
"type": "Point",
"coordinates": [
140.853808,
36.951682
]
}
},
{
"type": "Feature",
"properties": {
"Name": "泉田公民館",
"Jusho": "福島県いわき市渡辺町泉田字一町田77-6",
"Capacity": "－",
"la": "36.97649577140",
"ln": "140.84264611600"
},
"geometry": {
"type": "Point",
"coordinates": [
140.842646116,
36.9764957714
]
}
},
{
"type": "Feature",
"properties": {
"Name": "船尾保育園園庭",
"Jusho": "福島県いわき市常磐下船尾町村山地内",
"Capacity": "－",
"la": "36.98844300000",
"ln": "140.87156200000"
},
"geometry": {
"type": "Point",
"coordinates": [
140.871562,
36.988443
]
}
},
{
"type": "Feature",
"properties": {
"Name": "早稲田集会所",
"Jusho": "福島県いわき市泉町黒須野字早稲田235-56",
"Capacity": "－",
"la": "36.93270200000",
"ln": "140.82338600000"
},
"geometry": {
"type": "Point",
"coordinates": [
140.823386,
36.932702
]
}
},
{
"type": "Feature",
"properties": {
"Name": "相川公民館",
"Jusho": "福島県いわき市小川町西小川字相川102－",
"Capacity": "－",
"la": "37.11247510830",
"ln": "140.85643705800"
},
"geometry": {
"type": "Point",
"coordinates": [
140.856437058,
37.1124751083
]
}
},
{
"type": "Feature",
"properties": {
"Name": "総合体育館",
"Jusho": "福島県いわき市平下荒川字南作100",
"Capacity": "－",
"la": "37.03028100000",
"ln": "140.89628100000"
},
"geometry": {
"type": "Point",
"coordinates": [
140.896281,
37.030281
]
}
},
{
"type": "Feature",
"properties": {
"Name": "草木台集会所",
"Jusho": "福島県いわき市草木台2丁目10－",
"Capacity": "－",
"la": "37.01718859850",
"ln": "140.86756762300"
},
"geometry": {
"type": "Point",
"coordinates": [
140.867567623,
37.0171885985
]
}
},
{
"type": "Feature",
"properties": {
"Name": "大浦公民館",
"Jusho": "福島県いわき市四倉町狐塚字小橋89",
"Capacity": "－",
"la": "37.09035600000",
"ln": "140.96935100000"
},
"geometry": {
"type": "Point",
"coordinates": [
140.969351,
37.090356
]
}
},
{
"type": "Feature",
"properties": {
"Name": "大久公民館",
"Jusho": "福島県いわき市大久町大久字日渡77－",
"Capacity": "－",
"la": "37.15703500000",
"ln": "140.97711200000"
},
"geometry": {
"type": "Point",
"coordinates": [
140.977112,
37.157035
]
}
},
{
"type": "Feature",
"properties": {
"Name": "大原集会所",
"Jusho": "福島県いわき市小名浜大原字小屋61-5",
"Capacity": "－",
"la": "36.96415800000",
"ln": "140.89177800000"
},
"geometry": {
"type": "Point",
"coordinates": [
140.891778,
36.964158
]
}
},
{
"type": "Feature",
"properties": {
"Name": "大高公民館",
"Jusho": "福島県いわき市勿来町大高高松90",
"Capacity": "－",
"la": "36.89964291200",
"ln": "140.76298297200"
},
"geometry": {
"type": "Point",
"coordinates": [
140.762982972,
36.899642912
]
}
},
{
"type": "Feature",
"properties": {
"Name": "大高八幡台遊園地",
"Jusho": "福島県いわき市勿来町大高八幡地内",
"Capacity": "－",
"la": "36.90453775160",
"ln": "140.75779956200"
},
"geometry": {
"type": "Point",
"coordinates": [
140.757799562,
36.9045377516
]
}
},
{
"type": "Feature",
"properties": {
"Name": "大谷集落農事集会所",
"Jusho": "福島県いわき市山田町大谷154－",
"Capacity": "－",
"la": "36.93420600000",
"ln": "140.73403500000"
},
"geometry": {
"type": "Point",
"coordinates": [
140.734035,
36.934206
]
}
},
{
"type": "Feature",
"properties": {
"Name": "大畑集会所",
"Jusho": "福島県いわき市好間町上好間字大畑98-3",
"Capacity": "－",
"la": "37.05924400000",
"ln": "140.82769800000"
},
"geometry": {
"type": "Point",
"coordinates": [
140.827698,
37.059244
]
}
},
{
"type": "Feature",
"properties": {
"Name": "大野公民館",
"Jusho": "福島県いわき市四倉町山田小湊字方礼31",
"Capacity": "－",
"la": "37.11325000000",
"ln": "140.93451000000"
},
"geometry": {
"type": "Point",
"coordinates": [
140.93451,
37.11325
]
}
},
{
"type": "Feature",
"properties": {
"Name": "大利集会所",
"Jusho": "福島県いわき市好間町大利字道内147-4",
"Capacity": "－",
"la": "37.07839600000",
"ln": "140.80360800000"
},
"geometry": {
"type": "Point",
"coordinates": [
140.803608,
37.078396
]
}
},
{
"type": "Feature",
"properties": {
"Name": "沢尻公民館",
"Jusho": "福島県いわき市川前町上桶売字上沢尻57",
"Capacity": "－",
"la": "37.25933601820",
"ln": "140.68866725900"
},
"geometry": {
"type": "Point",
"coordinates": [
140.688667259,
37.2593360182
]
}
},
{
"type": "Feature",
"properties": {
"Name": "中好間公民館",
"Jusho": "福島県いわき市好間町中好間字八反田27-2",
"Capacity": "－",
"la": "37.06128425840",
"ln": "140.85574989800"
},
"geometry": {
"type": "Point",
"coordinates": [
140.855749898,
37.0612842584
]
}
},
{
"type": "Feature",
"properties": {
"Name": "中田馬場公民館",
"Jusho": "福島県いわき市錦町馬場60",
"Capacity": "－",
"la": "36.89255400000",
"ln": "140.79230200000"
},
"geometry": {
"type": "Point",
"coordinates": [
140.792302,
36.892554
]
}
},
{
"type": "Feature",
"properties": {
"Name": "長子公民館",
"Jusho": "福島県いわき市錦町長ノ町58",
"Capacity": "－",
"la": "36.90769655360",
"ln": "140.76117196900"
},
"geometry": {
"type": "Point",
"coordinates": [
140.761171969,
36.9076965536
]
}
},
{
"type": "Feature",
"properties": {
"Name": "綴保育所",
"Jusho": "福島県いわき市内郷綴町町之内36－",
"Capacity": "－",
"la": "37.03457500000",
"ln": "140.85461900000"
},
"geometry": {
"type": "Point",
"coordinates": [
140.854619,
37.034575
]
}
},
{
"type": "Feature",
"properties": {
"Name": "天竺集会所",
"Jusho": "福島県いわき市小名浜大原字中野地45－",
"Capacity": "－",
"la": "36.95865300000",
"ln": "140.89094300000"
},
"geometry": {
"type": "Point",
"coordinates": [
140.890943,
36.958653
]
}
},
{
"type": "Feature",
"properties": {
"Name": "添野公民館",
"Jusho": "福島県いわき市添野町桑木町199-3",
"Capacity": "－",
"la": "36.94034573320",
"ln": "140.80988276800"
},
"geometry": {
"type": "Point",
"coordinates": [
140.809882768,
36.9403457332
]
}
},
{
"type": "Feature",
"properties": {
"Name": "田人ふれあい館屋内運動場",
"Jusho": "福島県いわき市田人町旅人字下平石191",
"Capacity": "－",
"la": "36.95221199910",
"ln": "140.70483400000"
},
"geometry": {
"type": "Point",
"coordinates": [
140.704834,
36.9522119991
]
}
},
{
"type": "Feature",
"properties": {
"Name": "田人ふれあい館第２駐車場",
"Jusho": "福島県いわき市田人町旅人字下平石地内",
"Capacity": "－",
"la": "36.95289336640",
"ln": "140.70466172400"
},
"geometry": {
"type": "Point",
"coordinates": [
140.704661724,
36.9528933664
]
}
},
{
"type": "Feature",
"properties": {
"Name": "田人市民運動場",
"Jusho": "福島県いわき市田人町黒田字寺ノ下64",
"Capacity": "－",
"la": "36.96545000000",
"ln": "140.70456700000"
},
"geometry": {
"type": "Point",
"coordinates": [
140.704567,
36.96545
]
}
},
{
"type": "Feature",
"properties": {
"Name": "田人保育所所庭",
"Jusho": "福島県いわき市田人町黒田字一ノ倉地内",
"Capacity": "－",
"la": "36.96160800000",
"ln": "140.70177500000"
},
"geometry": {
"type": "Point",
"coordinates": [
140.701775,
36.961608
]
}
},
{
"type": "Feature",
"properties": {
"Name": "田代公民館",
"Jusho": "福島県いわき市好間町中好間字半貫沢34-90",
"Capacity": "－",
"la": "37.05545287210",
"ln": "140.83984700600"
},
"geometry": {
"type": "Point",
"coordinates": [
140.839847006,
37.0554528721
]
}
},
{
"type": "Feature",
"properties": {
"Name": "渡戸公民館",
"Jusho": "福島県いわき市三和町渡戸字宿頭118",
"Capacity": "－",
"la": "37.12350695100",
"ln": "140.73686276800"
},
"geometry": {
"type": "Point",
"coordinates": [
140.736862768,
37.123506951
]
}
},
{
"type": "Feature",
"properties": {
"Name": "渡辺公民館",
"Jusho": "福島県いわき市渡辺町田部字深町39－",
"Capacity": "－",
"la": "36.95820300000",
"ln": "140.82933900000"
},
"geometry": {
"type": "Point",
"coordinates": [
140.829339,
36.958203
]
}
},
{
"type": "Feature",
"properties": {
"Name": "東田墓園",
"Jusho": "福島県いわき市東田町菖蒲沢地内",
"Capacity": "－",
"la": "36.92865508000",
"ln": "140.81168058000"
},
"geometry": {
"type": "Point",
"coordinates": [
140.81168058,
36.92865508
]
}
},
{
"type": "Feature",
"properties": {
"Name": "道山集会所",
"Jusho": "福島県いわき市勿来町窪田道山154－9",
"Capacity": "－",
"la": "36.89711300000",
"ln": "140.75593500000"
},
"geometry": {
"type": "Point",
"coordinates": [
140.755935,
36.897113
]
}
},
{
"type": "Feature",
"properties": {
"Name": "内ノ草集会所",
"Jusho": "福島県いわき市好間町上好間字内ノ草74－",
"Capacity": "－",
"la": "37.06116412740",
"ln": "140.83618595900"
},
"geometry": {
"type": "Point",
"coordinates": [
140.836185959,
37.0611641274
]
}
},
{
"type": "Feature",
"properties": {
"Name": "内郷コミュニティセンター",
"Jusho": "福島県いわき市内郷綴町大木下28－",
"Capacity": "－",
"la": "37.03650600000",
"ln": "140.85972400000"
},
"geometry": {
"type": "Point",
"coordinates": [
140.859724,
37.036506
]
}
},
{
"type": "Feature",
"properties": {
"Name": "内郷公民館",
"Jusho": "福島県いわき市内郷綴町榎下40－",
"Capacity": "－",
"la": "37.03638400000",
"ln": "140.85770200000"
},
"geometry": {
"type": "Point",
"coordinates": [
140.857702,
37.036384
]
}
},
{
"type": "Feature",
"properties": {
"Name": "内町幼稚園園庭",
"Jusho": "福島県いわき市内郷内町前田地内",
"Capacity": "－",
"la": "37.03526900000",
"ln": "140.84817500000"
},
"geometry": {
"type": "Point",
"coordinates": [
140.848175,
37.035269
]
}
},
{
"type": "Feature",
"properties": {
"Name": "南の森スポーツパーク",
"Jusho": "福島県いわき市錦町細谷102-58",
"Capacity": "－",
"la": "36.91317259350",
"ln": "140.76552363400"
},
"geometry": {
"type": "Point",
"coordinates": [
140.765523634,
36.9131725935
]
}
},
{
"type": "Feature",
"properties": {
"Name": "二丁目集会所",
"Jusho": "福島県いわき市内郷高坂町二丁目地内",
"Capacity": "－",
"la": "37.04658010880",
"ln": "140.84529310000"
},
"geometry": {
"type": "Point",
"coordinates": [
140.8452931,
37.0465801088
]
}
},
{
"type": "Feature",
"properties": {
"Name": "日の出児童遊園",
"Jusho": "福島県いわき市内郷高坂町一丁目20－",
"Capacity": "－",
"la": "37.04886024160",
"ln": "140.85752639000"
},
"geometry": {
"type": "Point",
"coordinates": [
140.85752639,
37.0488602416
]
}
},
{
"type": "Feature",
"properties": {
"Name": "日本アルファ電気㈱広場",
"Jusho": "福島県いわき市山田町毛内地内",
"Capacity": "－",
"la": "36.95254443470",
"ln": "140.76477557400"
},
"geometry": {
"type": "Point",
"coordinates": [
140.764775574,
36.9525444347
]
}
},
{
"type": "Feature",
"properties": {
"Name": "入遠野公民館",
"Jusho": "福島県いわき市遠野町入遠野字前田38－",
"Capacity": "－",
"la": "37.03507000000",
"ln": "140.70854900000"
},
"geometry": {
"type": "Point",
"coordinates": [
140.708549,
37.03507
]
}
},
{
"type": "Feature",
"properties": {
"Name": "入定構造改善センター",
"Jusho": "福島県いわき市遠野町入遠野字久保目143",
"Capacity": "－",
"la": "37.06415331840",
"ln": "140.68570168100"
},
"geometry": {
"type": "Point",
"coordinates": [
140.685701681,
37.0641533184
]
}
},
{
"type": "Feature",
"properties": {
"Name": "白水阿弥陀堂境域案内広場",
"Jusho": "福島県いわき市内郷白水町大門地内",
"Capacity": "－",
"la": "37.03502057420",
"ln": "140.83764786500"
},
"geometry": {
"type": "Point",
"coordinates": [
140.837647865,
37.0350205742
]
}
},
{
"type": "Feature",
"properties": {
"Name": "白米集会所",
"Jusho": "福島県いわき市勿来町白米林ノ中62－",
"Capacity": "－",
"la": "36.89247200000",
"ln": "140.73987900000"
},
"geometry": {
"type": "Point",
"coordinates": [
140.739879,
36.892472
]
}
},
{
"type": "Feature",
"properties": {
"Name": "八幡神社境内",
"Jusho": "福島県いわき市川部町寺田地内",
"Capacity": "－",
"la": "36.91382605620",
"ln": "140.73118390100"
},
"geometry": {
"type": "Point",
"coordinates": [
140.731183901,
36.9138260562
]
}
},
{
"type": "Feature",
"properties": {
"Name": "飯野公民館",
"Jusho": "福島県いわき市平下荒川字中剃47－",
"Capacity": "－",
"la": "37.04031900000",
"ln": "140.90362400000"
},
"geometry": {
"type": "Point",
"coordinates": [
140.903624,
37.040319
]
}
},
{
"type": "Feature",
"properties": {
"Name": "磐崎公民館",
"Jusho": "福島県いわき市常磐西郷町大夫32－",
"Capacity": "－",
"la": "36.98652200000",
"ln": "140.85359300000"
},
"geometry": {
"type": "Point",
"coordinates": [
140.853593,
36.986522
]
}
},
{
"type": "Feature",
"properties": {
"Name": "福岡多目的集会所",
"Jusho": "福島県いわき市小川町福岡字山根47",
"Capacity": "－",
"la": "37.14541300000",
"ln": "140.84860900000"
},
"geometry": {
"type": "Point",
"coordinates": [
140.848609,
37.145413
]
}
},
{
"type": "Feature",
"properties": {
"Name": "福島県いわき海浜自然の家体育館",
"Jusho": "福島県いわき市久之浜町田之綱字向山53",
"Capacity": "－",
"la": "37.12165100000",
"ln": "140.98690200000"
},
"geometry": {
"type": "Point",
"coordinates": [
140.986902,
37.121651
]
}
},
{
"type": "Feature",
"properties": {
"Name": "平窪公民館",
"Jusho": "福島県いわき市平中平窪細田町1－",
"Capacity": "－",
"la": "37.08542000000",
"ln": "140.87679000000"
},
"geometry": {
"type": "Point",
"coordinates": [
140.87679,
37.08542
]
}
},
{
"type": "Feature",
"properties": {
"Name": "平市民運動場",
"Jusho": "福島県いわき市平字正内町22番地",
"Capacity": "－",
"la": "37.05459900000",
"ln": "140.89922900000"
},
"geometry": {
"type": "Point",
"coordinates": [
140.899229,
37.054599
]
}
},
{
"type": "Feature",
"properties": {
"Name": "平体育館",
"Jusho": "福島県いわき市平字正内町6－",
"Capacity": "－",
"la": "37.05485800000",
"ln": "140.89995200000"
},
"geometry": {
"type": "Point",
"coordinates": [
140.899952,
37.054858
]
}
},
{
"type": "Feature",
"properties": {
"Name": "米野集会所",
"Jusho": "福島県いわき市小名浜字古湊196-33",
"Capacity": "－",
"la": "36.94638100000",
"ln": "140.91148700000"
},
"geometry": {
"type": "Point",
"coordinates": [
140.911487,
36.946381
]
}
},
{
"type": "Feature",
"properties": {
"Name": "片石田構造生活改善センター",
"Jusho": "福島県いわき市小川町上小川字片石田169",
"Capacity": "－",
"la": "37.14092321340",
"ln": "140.84315811600"
},
"geometry": {
"type": "Point",
"coordinates": [
140.843158116,
37.1409232134
]
}
},
{
"type": "Feature",
"properties": {
"Name": "宝徳院境内",
"Jusho": "福島県いわき市後田町石田地内",
"Capacity": "－",
"la": "36.92386280190",
"ln": "140.79090599100"
},
"geometry": {
"type": "Point",
"coordinates": [
140.790905991,
36.9238628019
]
}
},
{
"type": "Feature",
"properties": {
"Name": "北団地児童遊園地",
"Jusho": "福島県いわき市常磐上湯長谷町湯台堂地内",
"Capacity": "－",
"la": "37.00929778060",
"ln": "140.83617339700"
},
"geometry": {
"type": "Point",
"coordinates": [
140.836173397,
37.0092977806
]
}
},
{
"type": "Feature",
"properties": {
"Name": "北二区集会所",
"Jusho": "福島県いわき市好間町北好間字籬1",
"Capacity": "－",
"la": "37.07133408580",
"ln": "140.82723905100"
},
"geometry": {
"type": "Point",
"coordinates": [
140.827239051,
37.0713340858
]
}
},
{
"type": "Feature",
"properties": {
"Name": "本郷公民館",
"Jusho": "福島県いわき市小川町上小川字表7",
"Capacity": "－",
"la": "37.13355942280",
"ln": "140.85754153600"
},
"geometry": {
"type": "Point",
"coordinates": [
140.857541536,
37.1335594228
]
}
},
{
"type": "Feature",
"properties": {
"Name": "末続児童遊園地",
"Jusho": "福島県いわき市久之浜町末続字鍋田地内",
"Capacity": "－",
"la": "37.17762304250",
"ln": "140.99242181000"
},
"geometry": {
"type": "Point",
"coordinates": [
140.99242181,
37.1776230425
]
}
},
{
"type": "Feature",
"properties": {
"Name": "末続集会所",
"Jusho": "福島県いわき市久之浜町末続字鍋田49",
"Capacity": "－",
"la": "37.17868800000",
"ln": "140.99144600000"
},
"geometry": {
"type": "Point",
"coordinates": [
140.991446,
37.178688
]
}
},
{
"type": "Feature",
"properties": {
"Name": "勿来勤労青少年ホーム",
"Jusho": "福島県いわき市金山町朝日台1",
"Capacity": "－",
"la": "36.92713449970",
"ln": "140.82090142000"
},
"geometry": {
"type": "Point",
"coordinates": [
140.82090142,
36.9271344997
]
}
},
{
"type": "Feature",
"properties": {
"Name": "勿来公民館",
"Jusho": "福島県いわき市勿来町窪田小島11－",
"Capacity": "－",
"la": "36.88944000000",
"ln": "140.76161300000"
},
"geometry": {
"type": "Point",
"coordinates": [
140.761613,
36.88944
]
}
},
{
"type": "Feature",
"properties": {
"Name": "勿来体育館",
"Jusho": "福島県いわき市錦町中迎一丁目12－",
"Capacity": "－",
"la": "36.90623500000",
"ln": "140.79350100000"
},
"geometry": {
"type": "Point",
"coordinates": [
140.793501,
36.906235
]
}
},
{
"type": "Feature",
"properties": {
"Name": "野田集会所",
"Jusho": "福島県いわき市小名浜野田字峯岸15－",
"Capacity": "－",
"la": "36.98264100000",
"ln": "140.87893300000"
},
"geometry": {
"type": "Point",
"coordinates": [
140.878933,
36.982641
]
}
},
{
"type": "Feature",
"properties": {
"Name": "野々志道公民館",
"Jusho": "福島県いわき市小川町上小川字根本57",
"Capacity": "－",
"la": "37.16149352920",
"ln": "140.85890036200"
},
"geometry": {
"type": "Point",
"coordinates": [
140.858900362,
37.1614935292
]
}
},
{
"type": "Feature",
"properties": {
"Name": "葉の木立公民館",
"Jusho": "福島県いわき市小川町西小川字葉ノ木立1",
"Capacity": "－",
"la": "37.10848483920",
"ln": "140.83798946400"
},
"geometry": {
"type": "Point",
"coordinates": [
140.837989464,
37.1084848392
]
}
},
{
"type": "Feature",
"properties": {
"Name": "梨花の里保育園",
"Jusho": "福島県いわき市好間町上好間字田代67-8",
"Capacity": "－",
"la": "37.05229400000",
"ln": "140.84117500000"
},
"geometry": {
"type": "Point",
"coordinates": [
140.841175,
37.052294
]
}
},
{
"type": "Feature",
"properties": {
"Name": "おもてごう保育園",
"Jusho": "福島県白河市表郷番沢字成金142",
"Capacity": "－",
"la": "37.06439000000",
"ln": "140.27639200000"
},
"geometry": {
"type": "Point",
"coordinates": [
140.276392,
37.06439
]
}
},
{
"type": "Feature",
"properties": {
"Name": "きつねうち温泉",
"Jusho": "福島県白河市東釜子字狐内47",
"Capacity": "－",
"la": "37.10488852700",
"ln": "140.36451329000"
},
"geometry": {
"type": "Point",
"coordinates": [
140.36451329,
37.104888527
]
}
},
{
"type": "Feature",
"properties": {
"Name": "さくら保育園",
"Jusho": "福島県白河市会津町24-7",
"Capacity": "－",
"la": "37.13195000000",
"ln": "140.20604000000"
},
"geometry": {
"type": "Point",
"coordinates": [
140.20604,
37.13195
]
}
},
{
"type": "Feature",
"properties": {
"Name": "サンフレッシュ白河",
"Jusho": "福島県白河市久田野城内31",
"Capacity": "－",
"la": "37.13375700000",
"ln": "140.25857700000"
},
"geometry": {
"type": "Point",
"coordinates": [
140.258577,
37.133757
]
}
},
{
"type": "Feature",
"properties": {
"Name": "ひまわり保育園",
"Jusho": "福島県白河市栄町55",
"Capacity": "－",
"la": "37.11860400000",
"ln": "140.21289500000"
},
"geometry": {
"type": "Point",
"coordinates": [
140.212895,
37.118604
]
}
},
{
"type": "Feature",
"properties": {
"Name": "みのり保育園",
"Jusho": "福島県白河市新白河二丁目162",
"Capacity": "－",
"la": "37.12107600000",
"ln": "140.19567500000"
},
"geometry": {
"type": "Point",
"coordinates": [
140.195675,
37.121076
]
}
},