var st={
"type":"FeatureCollection",
"features":[
{
"type":"Feature",
"properties":{
"Name":"一宮小学校",
"Jusho":"徳島県徳島市一宮町東丁224番地",
"Capacity":"－",
"la":"34.03858917660",
"ln":"134.47137880000"
},
"geometry":{
"type":"Point",
"coordinates":[
134.4713788,
34.0385891766
]
}
},
{
"type":"Feature",
"properties":{
"Name":"応神小学校",
"Jusho":"徳島県徳島市応神町吉成字西吉成91番地の1",
"Capacity":"360",
"la":"34.11525000000",
"ln":"134.52718100000"
},
"geometry":{
"type":"Point",
"coordinates":[
134.527181,
34.11525
]
}
},
{
"type":"Feature",
"properties":{
"Name":"沖洲小学校",
"Jusho":"徳島県徳島市南沖洲二丁目2番4号",
"Capacity":"539",
"la":"34.06531200000",
"ln":"134.58723200000"
},
"geometry":{
"type":"Point",
"coordinates":[
134.587232,
34.065312
]
}
},
{
"type":"Feature",
"properties":{
"Name":"加茂名小学校",
"Jusho":"徳島県徳島市庄町5丁目19番地",
"Capacity":"－",
"la":"34.07367100000",
"ln":"134.50635100000"
},
"geometry":{
"type":"Point",
"coordinates":[
134.506351,
34.073671
]
}
},
{
"type":"Feature",
"properties":{
"Name":"加茂名南小学校",
"Jusho":"徳島県徳島市鮎喰町2丁目11番地の88",
"Capacity":"－",
"la":"34.06922700000",
"ln":"134.49943500000"
},
"geometry":{
"type":"Point",
"coordinates":[
134.499435,
34.069227
]
}
},
{
"type":"Feature",
"properties":{
"Name":"宮井小学校",
"Jusho":"徳島県徳島市多家良町小路地45番地",
"Capacity":"－",
"la":"33.98990400000",
"ln":"134.53326600000"
},
"geometry":{
"type":"Point",
"coordinates":[
134.533266,
33.989904
]
}
},
{
"type":"Feature",
"properties":{
"Name":"宮井小学校八多分校",
"Jusho":"徳島県徳島市八多町町田38番地",
"Capacity":"－",
"la":"33.99365300000",
"ln":"134.51623900000"
},
"geometry":{
"type":"Point",
"coordinates":[
134.516239,
33.993653
]
}
},
{
"type":"Feature",
"properties":{
"Name":"国府小学校",
"Jusho":"徳島県徳島市国府町中61番地の1",
"Capacity":"－",
"la":"34.06758800000",
"ln":"134.48340800000"
},
"geometry":{
"type":"Point",
"coordinates":[
134.483408,
34.067588
]
}
},
{
"type":"Feature",
"properties":{
"Name":"佐古小学校",
"Jusho":"徳島県徳島市南佐古四番町1番32号",
"Capacity":"389",
"la":"34.07681000000",
"ln":"134.53115300000"
},
"geometry":{
"type":"Point",
"coordinates":[
134.531153,
34.07681
]
}
},
{
"type":"Feature",
"properties":{
"Name":"渋野小学校",
"Jusho":"徳島県徳島市渋野町西池35番地の1",
"Capacity":"－",
"la":"34.00470800000",
"ln":"134.53648700000"
},
"geometry":{
"type":"Point",
"coordinates":[
134.536487,
34.004708
]
}
},
{
"type":"Feature",
"properties":{
"Name":"助任小学校",
"Jusho":"徳島県徳島市下助任町1丁目1番地",
"Capacity":"409",
"la":"34.08058800000",
"ln":"134.55679000000"
},
"geometry":{
"type":"Point",
"coordinates":[
134.55679,
34.080588
]
}
},
{
"type":"Feature",
"properties":{
"Name":"昭和小学校",
"Jusho":"徳島県徳島市中昭和町5丁目60番地",
"Capacity":"1119",
"la":"34.05909000000",
"ln":"134.56376200000"
},
"geometry":{
"type":"Point",
"coordinates":[
134.563762,
34.05909
]
}
},
{
"type":"Feature",
"properties":{
"Name":"上八万小学校",
"Jusho":"徳島県徳島市上八万町樋口52番地",
"Capacity":"－",
"la":"34.03656400000",
"ln":"134.50804500000"
},
"geometry":{
"type":"Point",
"coordinates":[
134.508045,
34.036564
]
}
},
{
"type":"Feature",
"properties":{
"Name":"城東小学校",
"Jusho":"徳島県徳島市住吉三丁目2番5号",
"Capacity":"1354",
"la":"34.07731000000",
"ln":"134.57059400000"
},
"geometry":{
"type":"Point",
"coordinates":[
134.570594,
34.07731
]
}
},
{
"type":"Feature",
"properties":{
"Name":"新町小学校",
"Jusho":"徳島県徳島市東山手町2丁目25番地",
"Capacity":"297",
"la":"34.06820000000",
"ln":"134.54570800000"
},
"geometry":{
"type":"Point",
"coordinates":[
134.545708,
34.0682
]
}
},
{
"type":"Feature",
"properties":{
"Name":"千松小学校",
"Jusho":"徳島県徳島市南田宮四丁目5番5号",
"Capacity":"－",
"la":"34.08544800000",
"ln":"134.53351400000"
},
"geometry":{
"type":"Point",
"coordinates":[
134.533514,
34.085448
]
}
},
{
"type":"Feature",
"properties":{
"Name":"川内南小学校",
"Jusho":"徳島県徳島市川内町宮島本浦5番地の2",
"Capacity":"374",
"la":"34.09503100000",
"ln":"134.58370400000"
},
"geometry":{
"type":"Point",
"coordinates":[
134.583704,
34.095031
]
}
},
{
"type":"Feature",
"properties":{
"Name":"川内北小学校",
"Jusho":"徳島県徳島市川内町大松133番地",
"Capacity":"310",
"la":"34.11458400000",
"ln":"134.57398200000"
},
"geometry":{
"type":"Point",
"coordinates":[
134.573982,
34.114584
]
}
},
{
"type":"Feature",
"properties":{
"Name":"大松小学校",
"Jusho":"徳島県徳島市大松町上野神9番地",
"Capacity":"151",
"la":"34.02370500000",
"ln":"134.55365200000"
},
"geometry":{
"type":"Point",
"coordinates":[
134.553652,
34.023705
]
}
},
{
"type":"Feature",
"properties":{
"Name":"津田小学校",
"Jusho":"徳島県徳島市津田西町二丁目5番27号",
"Capacity":"10468",
"la":"34.04953600000",
"ln":"134.57459400000"
},
"geometry":{
"type":"Point",
"coordinates":[
134.574594,
34.049536
]
}
},
{
"type":"Feature",
"properties":{
"Name":"内町小学校",
"Jusho":"徳島県徳島市徳島町城内1番地の15",
"Capacity":"277",
"la":"34.07658800000",
"ln":"134.55090200000"
},
"geometry":{
"type":"Point",
"coordinates":[
134.550902,
34.076588
]
}
},
{
"type":"Feature",
"properties":{
"Name":"南井上小学校",
"Jusho":"徳島県徳島市国府町日開1007番地の2",
"Capacity":"－",
"la":"34.08619600000",
"ln":"134.47604800000"
},
"geometry":{
"type":"Point",
"coordinates":[
134.476048,
34.086196
]
}
},
{
"type":"Feature",
"properties":{
"Name":"入田小学校",
"Jusho":"徳島県徳島市入田町春日181番地の1",
"Capacity":"－",
"la":"34.04181300000",
"ln":"134.44207900000"
},
"geometry":{
"type":"Point",
"coordinates":[
134.442079,
34.041813
]
}
},
{
"type":"Feature",
"properties":{
"Name":"八万小学校",
"Jusho":"徳島県徳島市城南町四丁目1番52号",
"Capacity":"350",
"la":"34.05272900000",
"ln":"134.54118100000"
},
"geometry":{
"type":"Point",
"coordinates":[
134.541181,
34.052729
]
}
},
{
"type":"Feature",
"properties":{
"Name":"八万南小学校",
"Jusho":"徳島県徳島市八万町橋本111番地",
"Capacity":"150",
"la":"34.04284100000",
"ln":"134.53212600000"
},
"geometry":{
"type":"Point",
"coordinates":[
134.532126,
34.042841
]
}
},
{
"type":"Feature",
"properties":{
"Name":"飯谷小学校",
"Jusho":"徳島県徳島市飯谷町杉尾1番地の1",
"Capacity":"－",
"la":"33.96940600000",
"ln":"134.55612500000"
},
"geometry":{
"type":"Point",
"coordinates":[
134.556125,
33.969406
]
}
},
{
"type":"Feature",
"properties":{
"Name":"不動小学校",
"Jusho":"徳島県徳島市不動本町2丁目133番地",
"Capacity":"－",
"la":"34.09730607670",
"ln":"134.50628367700"
},
"geometry":{
"type":"Point",
"coordinates":[
134.506283677,
34.0973060767
]
}
},
{
"type":"Feature",
"properties":{
"Name":"富田小学校",
"Jusho":"徳島県徳島市中央通3丁目15番地",
"Capacity":"438",
"la":"34.06236700000",
"ln":"134.55281800000"
},
"geometry":{
"type":"Point",
"coordinates":[
134.552818,
34.062367
]
}
},
{
"type":"Feature",
"properties":{
"Name":"福島小学校",
"Jusho":"徳島県徳島市福島一丁目7番28号",
"Capacity":"1306",
"la":"34.06989500000",
"ln":"134.56651100000"
},
"geometry":{
"type":"Point",
"coordinates":[
134.566511,
34.069895
]
}
},
{
"type":"Feature",
"properties":{
"Name":"方上小学校",
"Jusho":"徳島県徳島市北山町下地1番地の3",
"Capacity":"250",
"la":"34.02503800000",
"ln":"134.53620900000"
},
"geometry":{
"type":"Point",
"coordinates":[
134.536209,
34.025038
]
}
},
{
"type":"Feature",
"properties":{
"Name":"北井上小学校",
"Jusho":"徳島県徳島市国府町西黒田字南傍示205番地の2",
"Capacity":"－",
"la":"34.09894400000",
"ln":"134.46610400000"
},
"geometry":{
"type":"Point",
"coordinates":[
134.466104,
34.098944
]
}
},
{
"type":"Feature",
"properties":{
"Name":"鳴門教育大学附属小学校",
"Jusho":"徳島県徳島市南前川町1丁目1番地",
"Capacity":"344",
"la":"34.07828200000",
"ln":"134.55537300000"
},
"geometry":{
"type":"Point",
"coordinates":[
134.555373,
34.078282
]
}
},
{
"type":"Feature",
"properties":{
"Name":"論田小学校",
"Jusho":"徳島県徳島市論田町本浦上9番地",
"Capacity":"367",
"la":"34.02981600000",
"ln":"134.56373400000"
},
"geometry":{
"type":"Point",
"coordinates":[
134.563734,
34.029816
]
}
},
{
"type":"Feature",
"properties":{
"Name":"桑島小学校",
"Jusho":"徳島県鳴門市撫養町大桑島字与三佐谷6",
"Capacity":"167",
"la":"34.18471600000",
"ln":"134.60683900000"
},
"geometry":{
"type":"Point",
"coordinates":[
134.606839,
34.184716
]
}
},
{
"type":"Feature",
"properties":{
"Name":"黒崎小学校",
"Jusho":"徳島県鳴門市撫養町字宮津88-1",
"Capacity":"166",
"la":"34.18746500000",
"ln":"134.59664500000"
},
"geometry":{
"type":"Point",
"coordinates":[
134.596645,
34.187465
]
}
},
{
"type":"Feature",
"properties":{
"Name":"瀬戸小学校",
"Jusho":"徳島県鳴門市瀬戸町堂浦字地廻り参220-1",
"Capacity":"149",
"la":"34.22501600000",
"ln":"134.58881300000"
},
"geometry":{
"type":"Point",
"coordinates":[
134.588813,
34.225016
]
}
},
{
"type":"Feature",
"properties":{
"Name":"川崎小学校",
"Jusho":"徳島県鳴門市大麻町川崎394",
"Capacity":"76",
"la":"34.14232363080",
"ln":"134.52109503200"
},
"geometry":{
"type":"Point",
"coordinates":[
134.521095032,
34.1423236308
]
}
},
{
"type":"Feature",
"properties":{
"Name":"大津西小学校",
"Jusho":"徳島県鳴門市大津町大代1208",
"Capacity":"203",
"la":"34.16663267090",
"ln":"134.56739900000"
},
"geometry":{
"type":"Point",
"coordinates":[
134.567399,
34.1666326709
]
}
},
{
"type":"Feature",
"properties":{
"Name":"第一小学校",
"Jusho":"徳島県鳴門市大津町木津野字内田15",
"Capacity":"214",
"la":"34.16863400000",
"ln":"134.59350700000"
},
"geometry":{
"type":"Point",
"coordinates":[
134.593507,
34.168634
]
}
},
{
"type":"Feature",
"properties":{
"Name":"島田小学校",
"Jusho":"徳島県鳴門市瀬戸町中島田字北田36",
"Capacity":"110",
"la":"34.23818100000",
"ln":"134.59672800000"
},
"geometry":{
"type":"Point",
"coordinates":[
134.596728,
34.238181
]
}
},
{
"type":"Feature",
"properties":{
"Name":"板東小学校",
"Jusho":"徳島県鳴門市大麻町板東字宝蔵60",
"Capacity":"163",
"la":"34.15621800000",
"ln":"134.50457200000"
},
"geometry":{
"type":"Point",
"coordinates":[
134.504572,
34.156218
]
}
},
{
"type":"Feature",
"properties":{
"Name":"撫養小学校",
"Jusho":"徳島県鳴門市撫養町斎田字岩崎72",
"Capacity":"209",
"la":"34.17682800000",
"ln":"134.60183900000"
},
"geometry":{
"type":"Point",
"coordinates":[
134.601839,
34.176828
]
}
},
{
"type":"Feature",
"properties":{
"Name":"北灘西小学校",
"Jusho":"徳島県鳴門市北灘町折野字屋敷66",
"Capacity":"119",
"la":"34.21448900000",
"ln":"134.48279500000"
},
"geometry":{
"type":"Point",
"coordinates":[
134.482795,
34.214489
]
}
},
{
"type":"Feature",
"properties":{
"Name":"北灘東小学校",
"Jusho":"徳島県鳴門市北灘町粟田字西傍示228-5",
"Capacity":"130",
"la":"34.22430878570",
"ln":"134.54086307500"
},
"geometry":{
"type":"Point",
"coordinates":[
134.540863075,
34.2243087857
]
}
},
{
"type":"Feature",
"properties":{
"Name":"堀江南小学校",
"Jusho":"徳島県鳴門市大麻町西馬詰字橋ノ本58",
"Capacity":"117",
"la":"34.14502500000",
"ln":"134.54101200000"
},
"geometry":{
"type":"Point",
"coordinates":[
134.541012,
34.145025
]
}
},
{
"type":"Feature",
"properties":{
"Name":"堀江北小学校",
"Jusho":"徳島県鳴門市大麻町大谷字中筋41",
"Capacity":"140",
"la":"34.15991200000",
"ln":"134.54142900000"
},
"geometry":{
"type":"Point",
"coordinates":[
134.541429,
34.159912
]
}
},
{
"type":"Feature",
"properties":{
"Name":"明神小学校",
"Jusho":"徳島県鳴門市瀬戸町明神字越浦70",
"Capacity":"157",
"la":"34.20211902160",
"ln":"134.58032454300"
},
"geometry":{
"type":"Point",
"coordinates":[
134.580324543,
34.2021190216
]
}
},
{
"type":"Feature",
"properties":{
"Name":"鳴門西小学校",
"Jusho":"徳島県鳴門市鳴門町高島字北1-1",
"Capacity":"165",
"la":"34.20324654080",
"ln":"134.59675631100"
},
"geometry":{
"type":"Point",
"coordinates":[
134.596756311,
34.2032465408
]
}
},
{
"type":"Feature",
"properties":{
"Name":"鳴門東小学校",
"Jusho":"徳島県鳴門市鳴門町土佐泊浦字高砂65-3",
"Capacity":"127",
"la":"34.19568700000",
"ln":"134.62350300000"
},
"geometry":{
"type":"Point",
"coordinates":[
134.623503,
34.195687
]
}
},
{
"type":"Feature",
"properties":{
"Name":"里浦小学校",
"Jusho":"徳島県鳴門市里浦町里浦字西浜401",
"Capacity":"203",
"la":"34.16702400000",
"ln":"134.62683600000"
},
"geometry":{
"type":"Point",
"coordinates":[
134.626836,
34.167024
]
}
},
{
"type":"Feature",
"properties":{
"Name":"林崎小学校",
"Jusho":"徳島県鳴門市撫養町立岩字内田73-1",
"Capacity":"198",
"la":"34.17646700000",
"ln":"134.61661500000"
},
"geometry":{
"type":"Point",
"coordinates":[
134.616615,
34.176467
]
}
},
{
"type":"Feature",
"properties":{
"Name":"櫛渕小学校",
"Jusho":"徳島県小松島市櫛渕町字北佃45番地",
"Capacity":"－",
"la":"33.95389100000",
"ln":"134.58420200000"
},
"geometry":{
"type":"Point",
"coordinates":[
134.584202,
33.953891
]
}
},
{
"type":"Feature",
"properties":{
"Name":"坂野小学校",
"Jusho":"徳島県小松島市坂野町字根上り6番地の1",
"Capacity":"－",
"la":"33.98162100000",
"ln":"134.63307300000"
},
"geometry":{
"type":"Point",
"coordinates":[
134.633073,
33.981621
]
}
},
{
"type":"Feature",
"properties":{
"Name":"児安小学校",
"Jusho":"徳島県小松島市田浦町字近里27番地",
"Capacity":"－",
"la":"34.00193100000",
"ln":"134.56515100000"
},
"geometry":{
"type":"Point",
"coordinates":[
134.565151,
34.001931
]
}
},
{
"type":"Feature",
"properties":{
"Name":"芝田小学校",
"Jusho":"徳島県小松島市田野町字中須45番地",
"Capacity":"－",
"la":"33.98487700000",
"ln":"134.58392800000"
},
"geometry":{
"type":"Point",
"coordinates":[
134.583928,
33.984877
]
}
},
{
"type":"Feature",
"properties":{
"Name":"小松島小学校",
"Jusho":"徳島県小松島市神田瀬町2番63号",
"Capacity":"－",
"la":"34.01017900000",
"ln":"134.58076000000"
},
"geometry":{
"type":"Point",
"coordinates":[
134.58076,
34.010179
]
}
},
{
"type":"Feature",
"properties":{
"Name":"新開小学校",
"Jusho":"徳島県小松島市大林町字中津37番地",
"Capacity":"－",
"la":"33.97882300000",
"ln":"134.61775700000"
},
"geometry":{
"type":"Point",
"coordinates":[
134.617757,
33.978823
]
}
},
{
"type":"Feature",
"properties":{
"Name":"千代小学校",
"Jusho":"徳島県小松島市中田町字奥林29番地",
"Capacity":"－",
"la":"34.01481700000",
"ln":"134.57495500000"
},
"geometry":{
"type":"Point",
"coordinates":[
134.574955,
34.014817
]
}
},
{
"type":"Feature",
"properties":{
"Name":"南小松島小学校",
"Jusho":"徳島県小松島市小松島町字高須36番地",
"Capacity":"－",
"la":"34.00512400000",
"ln":"134.58501000000"
},
"geometry":{
"type":"Point",
"coordinates":[
134.58501,
34.005124
]
}
},
{
"type":"Feature",
"properties":{
"Name":"北小松島小学校",
"Jusho":"徳島県小松島市中田町字浜田33番地",
"Capacity":"－",
"la":"34.01567800000",
"ln":"134.58678700000"
},
"geometry":{
"type":"Point",
"coordinates":[
134.586787,
34.015678
]
}
},
{
"type":"Feature",
"properties":{
"Name":"立江小学校",
"Jusho":"徳島県小松島市立江町字松本34番地の3",
"Capacity":"－",
"la":"33.96874100000",
"ln":"134.60400800000"
},
"geometry":{
"type":"Point",
"coordinates":[
134.604008,
33.968741
]
}
},
{
"type":"Feature",
"properties":{
"Name":"和田島小学校",
"Jusho":"徳島県小松島市和田島町字山のはな8番地",
"Capacity":"－",
"la":"33.99612500000",
"ln":"134.64075300000"
},
"geometry":{
"type":"Point",
"coordinates":[
134.640753,
33.996125
]
}
},
{
"type":"Feature",
"properties":{
"Name":"伊島小学校",
"Jusho":"徳島県阿南市伊島町瀬戸3-2",
"Capacity":"710",
"la":"33.84462222140",
"ln":"134.80895197300"
},
"geometry":{
"type":"Point",
"coordinates":[
134.808951973,
33.8446222214
]
}
},
{
"type":"Feature",
"properties":{
"Name":"羽ノ浦小学校",
"Jusho":"徳島県阿南市羽ノ浦町中庄原婦知1-1",
"Capacity":"3010",
"la":"33.95815900000",
"ln":"134.62806000000"
},
"geometry":{
"type":"Point",
"coordinates":[
134.62806,
33.958159
]
}
},
{
"type":"Feature",
"properties":{
"Name":"横見小学校",
"Jusho":"徳島県阿南市横見町前長岡67-1",
"Capacity":"2800",
"la":"33.92871800000",
"ln":"134.65580700000"
},
"geometry":{
"type":"Point",
"coordinates":[
134.655807,
33.928718
]
}
},
{
"type":"Feature",
"properties":{
"Name":"加茂谷公民館大井分館（大井小学校）",
"Jusho":"徳島県阿南市大井町東平127-1",
"Capacity":"1120",
"la":"33.90945252070",
"ln":"134.51842544900"
},
"geometry":{
"type":"Point",
"coordinates":[
134.518425449,
33.9094525207
]
}
},
{
"type":"Feature",
"properties":{
"Name":"蒲生田小学校",
"Jusho":"徳島県阿南市椿町蒲生田2",
"Capacity":"530",
"la":"33.83859957270",
"ln":"134.74201552700"
},
"geometry":{
"type":"Point",
"coordinates":[
134.742015527,
33.8385995727
]
}
},
{
"type":"Feature",
"properties":{
"Name":"岩脇小学校",
"Jusho":"徳島県阿南市羽ノ浦町岩脇町筋63",
"Capacity":"175",
"la":"33.94221558420",
"ln":"134.61569315400"
},
"geometry":{
"type":"Point",
"coordinates":[
134.615693154,
33.9422155842
]
}
},
{
"type":"Feature",
"properties":{
"Name":"岩脇小学校",
"Jusho":"徳島県阿南市羽ノ浦町岩脇町筋87",
"Capacity":"1950",
"la":"33.94221568970",
"ln":"134.61569339200"
},
"geometry":{
"type":"Point",
"coordinates":[
134.615693392,
33.9422156897
]
}
},
{
"type":"Feature",
"properties":{
"Name":"吉井小学校",
"Jusho":"徳島県阿南市吉井町原18-2",
"Capacity":"1920",
"la":"33.92241300000",
"ln":"134.55915000000"
},
"geometry":{
"type":"Point",
"coordinates":[
134.55915,
33.922413
]
}
},
{
"type":"Feature",
"properties":{
"Name":"橘小学校",
"Jusho":"徳島県阿南市橘町大浦166-1",
"Capacity":"4645",
"la":"33.87100400000",
"ln":"134.63286600000"
},
"geometry":{
"type":"Point",
"coordinates":[
134.632866,
33.871004
]
}
},
{
"type":"Feature",
"properties":{
"Name":"桑野小学校",
"Jusho":"徳島県阿南市桑野町岡元40-1",
"Capacity":"2070",
"la":"33.87358700000",
"ln":"134.61186800000"
},
"geometry":{
"type":"Point",
"coordinates":[
134.611868,
33.873587
]
}
},
{
"type":"Feature",
"properties":{
"Name":"見能林小学校",
"Jusho":"徳島県阿南市見能林町西内35",
"Capacity":"3735",
"la":"33.90069500000",
"ln":"134.67077800000"
},
"geometry":{
"type":"Point",
"coordinates":[
134.670778,
33.900695
]
}
},
{
"type":"Feature",
"properties":{
"Name":"今津小学校",
"Jusho":"徳島県阿南市那賀川町敷地238",
"Capacity":"3780",
"la":"33.96352400000",
"ln":"134.64659600000"
},
"geometry":{
"type":"Point",
"coordinates":[
134.646596,
33.963524
]
}
},
{
"type":"Feature",
"properties":{
"Name":"山口小学校",
"Jusho":"徳島県阿南市山口町久延69-1",
"Capacity":"2180",
"la":"33.87286500000",
"ln":"134.58150900000"
},
"geometry":{
"type":"Point",
"coordinates":[
134.581509,
33.872865
]
}
},
{
"type":"Feature",
"properties":{
"Name":"新野小学校",
"Jusho":"徳島県阿南市新野町南宮ノ久保70-1",
"Capacity":"3755",
"la":"33.84717300000",
"ln":"134.58087100000"
},
"geometry":{
"type":"Point",
"coordinates":[
134.580871,
33.847173
]
}
},
{
"type":"Feature",
"properties":{
"Name":"新野西小学校",
"Jusho":"徳島県阿南市新野町友常1",
"Capacity":"1415",
"la":"33.83856300000",
"ln":"134.54162600000"
},
"geometry":{
"type":"Point",
"coordinates":[
134.541626,
33.838563
]
}
},
{
"type":"Feature",
"properties":{
"Name":"新野東小学校",
"Jusho":"徳島県阿南市新野町是国37-2",
"Capacity":"1755",
"la":"33.84495100000",
"ln":"134.60409100000"
},
"geometry":{
"type":"Point",
"coordinates":[
134.604091,
33.844951
]
}
},
{
"type":"Feature",
"properties":{
"Name":"大野小学校",
"Jusho":"徳島県阿南市下大野町三条5",
"Capacity":"2545",
"la":"33.93435700000",
"ln":"134.59559100000"
},
"geometry":{
"type":"Point",
"coordinates":[
134.595591,
33.934357
]
}
},
{
"type":"Feature",
"properties":{
"Name":"中野島小学校",
"Jusho":"徳島県阿南市上中町中原182-1",
"Capacity":"3315",
"la":"33.93271800000",
"ln":"134.62853200000"
},
"geometry":{
"type":"Point",
"coordinates":[
134.628532,
33.932718
]
}
},
{
"type":"Feature",
"properties":{
"Name":"長生小学校",
"Jusho":"徳島県阿南市長生町五反地25-2",
"Capacity":"2565",
"la":"33.90994400000",
"ln":"134.61675600000"
},
"geometry":{
"type":"Point",
"coordinates":[
134.616756,
33.909944
]
}
},
{
"type":"Feature",
"properties":{
"Name":"津乃峰小学校",
"Jusho":"徳島県阿南市津乃峰町戎山129-37",
"Capacity":"5210",
"la":"33.88430800000",
"ln":"134.65011400000"
},
"geometry":{
"type":"Point",
"coordinates":[
134.650114,
33.884308
]
}
},
{
"type":"Feature",
"properties":{
"Name":"椿小学校",
"Jusho":"徳島県阿南市椿町黒田47",
"Capacity":"1840",
"la":"33.82839800000",
"ln":"134.66644600000"
},
"geometry":{
"type":"Point",
"coordinates":[
134.666446,
33.828398
]
}
},
{
"type":"Feature",
"properties":{
"Name":"椿泊小学校",
"Jusho":"徳島県阿南市椿泊町東127",
"Capacity":"2080",
"la":"33.84456300000",
"ln":"134.71616400000"
},
"geometry":{
"type":"Point",
"coordinates":[
134.716164,
33.844563
]
}
},
{
"type":"Feature",
"properties":{
"Name":"富岡小学校",
"Jusho":"徳島県阿南市領家町浜田200",
"Capacity":"5415",
"la":"33.92380200000",
"ln":"134.66844500000"
},
"geometry":{
"type":"Point",
"coordinates":[
134.668445,
33.923802
]
}
},
{
"type":"Feature",
"properties":{
"Name":"福井公民館福井南分館（福井南小学校）",
"Jusho":"徳島県阿南市福井町日の地122-1",
"Capacity":"860",
"la":"33.79883800000",
"ln":"134.58974500000"
},
"geometry":{
"type":"Point",
"coordinates":[
134.589745,
33.798838
]
}
},
{
"type":"Feature",
"properties":{
"Name":"福井小学校",
"Jusho":"徳島県阿南市福井町大西192-1",
"Capacity":"2795",
"la":"33.83825800000",
"ln":"134.62172800000"
},
"geometry":{
"type":"Point",
"coordinates":[
134.621728,
33.838258
]
}
},
{
"type":"Feature",
"properties":{
"Name":"福井南小学校",
"Jusho":"徳島県阿南市福井町日の地122-1",
"Capacity":"162",
"la":"33.79883799910",
"ln":"134.58974500000"
},
"geometry":{
"type":"Point",
"coordinates":[
134.589745,
33.7988379991
]
}
},
{
"type":"Feature",
"properties":{
"Name":"平島小学校",
"Jusho":"徳島県阿南市那賀川町赤池131-2",
"Capacity":"3900",
"la":"33.94291100000",
"ln":"134.66246400000"
},
"geometry":{
"type":"Point",
"coordinates":[
134.662464,
33.942911
]
}
},
{
"type":"Feature",
"properties":{
"Name":"宝田小学校",
"Jusho":"徳島県阿南市宝田町久保田124",
"Capacity":"4215",
"la":"33.92060900000",
"ln":"134.63605900000"
},
"geometry":{
"type":"Point",
"coordinates":[
134.636059,
33.920609
]
}
},
{
"type":"Feature",
"properties":{
"Name":"鴨島小学校",
"Jusho":"徳島県吉野川市鴨島町鴨島564番地",
"Capacity":"－",
"la":"34.07336100000",
"ln":"134.35375400000"
},
"geometry":{
"type":"Point",
"coordinates":[
134.353754,
34.073361
]
}
},
{
"type":"Feature",
"properties":{
"Name":"牛島小学校",
"Jusho":"徳島県吉野川市鴨島町牛島865番地1",
"Capacity":"－",
"la":"34.07349100000",
"ln":"134.38588100000"
},
"geometry":{
"type":"Point",
"coordinates":[
134.385881,
34.073491
]
}
},
{
"type":"Feature",
"properties":{
"Name":"山瀬小学校",
"Jusho":"徳島県吉野川市諏訪266番地1",
"Capacity":"－",
"la":"34.06125100000",
"ln":"134.25015200000"
},
"geometry":{
"type":"Point",
"coordinates":[
134.250152,
34.061251
]
}
},
{
"type":"Feature",
"properties":{
"Name":"種野小学校",
"Jusho":"徳島県吉野川市字川俣47番地",
"Capacity":"－",
"la":"34.03143700000",
"ln":"134.25693800000"
},
"geometry":{
"type":"Point",
"coordinates":[
134.256938,
34.031437
]
}
},
{
"type":"Feature",
"properties":{
"Name":"上浦小学校",
"Jusho":"徳島県吉野川市上浦931番地",
"Capacity":"－",
"la":"34.06824000000",
"ln":"134.39667100000"
},
"geometry":{
"type":"Point",
"coordinates":[
134.396671,
34.06824
]
}
},
{
"type":"Feature",
"properties":{
"Name":"森山小学校",
"Jusho":"徳島県吉野川市山路1086番地",
"Capacity":"－",
"la":"34.06251200000",
"ln":"134.37040400000"
},
"geometry":{
"type":"Point",
"coordinates":[
134.370404,
34.062512
]
}
},
{
"type":"Feature",
"properties":{
"Name":"西麻植小学校",
"Jusho":"徳島県吉野川市西麻植字絵馬堂85番地2",
"Capacity":"－",
"la":"34.06832700000",
"ln":"134.33920500000"
},
"geometry":{
"type":"Point",
"coordinates":[
134.339205,
34.068327
]
}
},
{
"type":"Feature",
"properties":{
"Name":"川田小学校",
"Jusho":"徳島県吉野川市住吉189番地",
"Capacity":"－",
"la":"34.04727700000",
"ln":"134.23223400000"
},
"geometry":{
"type":"Point",
"coordinates":[
134.232234,
34.047277
]
}
},
{
"type":"Feature",
"properties":{
"Name":"川田西小学校",
"Jusho":"徳島県吉野川市川田429番地6",
"Capacity":"－",
"la":"34.06146700000",
"ln":"134.20884600000"
},
"geometry":{
"type":"Point",
"coordinates":[
134.208846,
34.061467
]
}
},
{
"type":"Feature",
"properties":{
"Name":"川田中小学校",
"Jusho":"徳島県吉野川市町53番地",
"Capacity":"－",
"la":"34.04580100000",
"ln":"134.22510600000"
},
"geometry":{
"type":"Point",
"coordinates":[
134.225106,
34.045801
]
}
},
{
"type":"Feature",
"properties":{
"Name":"知恵島小学校",
"Jusho":"徳島県吉野川市知恵島781番地",
"Capacity":"－",
"la":"34.08008700000",
"ln":"134.35009200000"
},
"geometry":{
"type":"Point",
"coordinates":[
134.350092,
34.080087
]
}
},
{
"type":"Feature",
"properties":{
"Name":"中枝小学校",
"Jusho":"徳島県吉野川市字平71番地2",
"Capacity":"－",
"la":"34.01802800000",
"ln":"134.26177100000"
},
"geometry":{
"type":"Point",
"coordinates":[
134.261771,
34.018028
]
}
},
{
"type":"Feature",
"properties":{
"Name":"東山小学校",
"Jusho":"徳島県吉野川市字古土地155番地2",
"Capacity":"－",
"la":"34.03068253530",
"ln":"134.29800521500"
},
"geometry":{
"type":"Point",
"coordinates":[
134.298005215,
34.0306825353
]
}
},
{
"type":"Feature",
"properties":{
"Name":"飯尾敷地小学校",
"Jusho":"徳島県吉野川市鴨島町飯尾7番地",
"Capacity":"－",
"la":"34.06207764820",
"ln":"134.35009069800"
},
"geometry":{
"type":"Point",
"coordinates":[
134.350090698,
34.0620776482
]
}
},
{
"type":"Feature",
"properties":{
"Name":"伊沢小学校",
"Jusho":"徳島県阿波市阿波町南柴生172",
"Capacity":"－",
"la":"34.08902600000",
"ln":"134.22930300000"
},
"geometry":{
"type":"Point",
"coordinates":[
134.229303,
34.089026
]
}
},
{
"type":"Feature",
"properties":{
"Name":"一条小学校",
"Jusho":"徳島県阿波市吉野町西条字岡ノ川原135",
"Capacity":"－",
"la":"34.10047200000",
"ln":"134.38650100000"
},
"geometry":{
"type":"Point",
"coordinates":[
134.386501,
34.100472
]
}
},
{
"type":"Feature",
"properties":{
"Name":"柿原小学校",
"Jusho":"徳島県阿波市吉野町柿原字ヒロナカ256",
"Capacity":"－",
"la":"34.09738900000",
"ln":"134.35289300000"
},
"geometry":{
"type":"Point",
"coordinates":[
134.352893,
34.097389
]
}
},
{
"type":"Feature",
"properties":{
"Name":"久勝小学校",
"Jusho":"徳島県阿波市阿波町森沢28",
"Capacity":"－",
"la":"34.08464000000",
"ln":"134.25131900000"
},
"geometry":{
"type":"Point",
"coordinates":[
134.251319,
34.08464
]
}
},
{
"type":"Feature",
"properties":{
"Name":"御所小学校",
"Jusho":"徳島県阿波市土成町宮川内字広坪89",
"Capacity":"－",
"la":"34.11955400000",
"ln":"134.36130900000"
},
"geometry":{
"type":"Point",
"coordinates":[
134.361309,
34.119554
]
}
},
{
"type":"Feature",
"properties":{
"Name":"市場小学校",
"Jusho":"徳島県阿波市市場町市場字上野段670",
"Capacity":"－",
"la":"34.08763800000",
"ln":"134.28740300000"
},
"geometry":{
"type":"Point",
"coordinates":[
134.287403,
34.087638
]
}
},
{
"type":"Feature",
"properties":{
"Name":"大影小学校",
"Jusho":"徳島県阿波市市場町大影字境目39-1",
"Capacity":"－",
"la":"34.17328621360",
"ln":"134.25445549200"
},
"geometry":{
"type":"Point",
"coordinates":[
134.254455492,
34.1732862136
]
}
},
{
"type":"Feature",
"properties":{
"Name":"大俣小学校",
"Jusho":"徳島県阿波市市場町上喜来字西原200",
"Capacity":"－",
"la":"34.10350000000",
"ln":"134.26276100000"
},
"geometry":{
"type":"Point",
"coordinates":[
134.262761,
34.1035
]
}
},
{
"type":"Feature",
"properties":{
"Name":"土成小学校",
"Jusho":"徳島県阿波市土成町成当1203",
"Capacity":"－",
"la":"34.10894700000",
"ln":"134.32480200000"
},
"geometry":{
"type":"Point",
"coordinates":[
134.324802,
34.108947
]
}
},
{
"type":"Feature",
"properties":{
"Name":"八幡小学校",
"Jusho":"徳島県阿波市市場町大野島字稲荷138-1",
"Capacity":"－",
"la":"34.09080600000",
"ln":"134.31159100000"
},
"geometry":{
"type":"Point",
"coordinates":[
134.311591,
34.090806
]
}
},
{
"type":"Feature",
"properties":{
"Name":"林小学校",
"Jusho":"徳島県阿波市阿波町東整理155",
"Capacity":"－",
"la":"34.07411200000",
"ln":"134.20165600000"
},
"geometry":{
"type":"Point",
"coordinates":[
134.201656,
34.074112
]
}
},
{
"type":"Feature",
"properties":{
"Name":"芋穴小学校",
"Jusho":"徳島県美馬市脇町字芋穴820-2",
"Capacity":"－",
"la":"34.09194613980",
"ln":"134.10468324800"
},
"geometry":{
"type":"Point",
"coordinates":[
134.104683248,
34.0919461398
]
}
},
{
"type":"Feature",
"properties":{
"Name":"岩倉小学校",
"Jusho":"徳島県美馬市脇町岩倉2879",
"Capacity":"－",
"la":"34.06216100000",
"ln":"134.11325200000"
},
"geometry":{
"type":"Point",
"coordinates":[
134.113252,
34.062161
]
}
},
{
"type":"Feature",
"properties":{
"Name":"喜来小学校",
"Jusho":"徳島県美馬市美馬町字天神63-1",
"Capacity":"－",
"la":"34.04888100000",
"ln":"134.05319800000"
},
"geometry":{
"type":"Point",
"coordinates":[
134.053198,
34.048881
]
}
},
{
"type":"Feature",
"properties":{
"Name":"宮内小学校",
"Jusho":"徳島県美馬市穴吹町口山字宮内52",
"Capacity":"－",
"la":"34.00895700000",
"ln":"134.14869700000"
},
"geometry":{
"type":"Point",
"coordinates":[
134.148697,
34.008957
]
}
},
{
"type":"Feature",
"properties":{
"Name":"郡里小学校",
"Jusho":"徳島県美馬市美馬町字助松158",
"Capacity":"－",
"la":"34.05660600000",
"ln":"134.06750300000"
},
"geometry":{
"type":"Point",
"coordinates":[
134.067503,
34.056606
]
}
},
{
"type":"Feature",
"properties":{
"Name":"穴吹小学校",
"Jusho":"徳島県美馬市穴吹町穴吹字柏40",
"Capacity":"－",
"la":"34.04645200000",
"ln":"134.16920200000"
},
"geometry":{
"type":"Point",
"coordinates":[
134.169202,
34.046452
]
}
},
{
"type":"Feature",
"properties":{
"Name":"江原東小学校",
"Jusho":"徳島県美馬市脇町字東俣名320",
"Capacity":"－",
"la":"34.13424700000",
"ln":"134.19336800000"
},
"geometry":{
"type":"Point",
"coordinates":[
134.193368,
34.134247
]
}
},
{
"type":"Feature",
"properties":{
"Name":"江原南小学校",
"Jusho":"徳島県美馬市脇町字拝原829",
"Capacity":"－",
"la":"34.07244700000",
"ln":"134.17213100000"
},
"geometry":{
"type":"Point",
"coordinates":[
134.172131,
34.072447
]
}
},
{
"type":"Feature",
"properties":{
"Name":"江原北小学校",
"Jusho":"徳島県美馬市脇町字西赤谷3744-2",
"Capacity":"－",
"la":"34.11137500000",
"ln":"134.17164200000"
},
"geometry":{
"type":"Point",
"coordinates":[
134.171642,
34.111375
]
}
},
{
"type":"Feature",
"properties":{
"Name":"三島小学校",
"Jusho":"徳島県美馬市穴吹町三島字三谷374",
"Capacity":"－",
"la":"34.05530400000",
"ln":"134.12897300000"
},
"geometry":{
"type":"Point",
"coordinates":[
134.128973,
34.055304
]
}
},
{
"type":"Feature",
"properties":{
"Name":"芝坂小学校",
"Jusho":"徳島県美馬市美馬町字南原26",
"Capacity":"－",
"la":"34.06441900000",
"ln":"134.08683800000"
},
"geometry":{
"type":"Point",
"coordinates":[
134.086838,
34.064419
]
}
},
{
"type":"Feature",
"properties":{
"Name":"重清西小学校",
"Jusho":"徳島県美馬市美馬町字八幡115",
"Capacity":"－",
"la":"34.04710200000",
"ln":"134.01745800000"
},
"geometry":{
"type":"Point",
"coordinates":[
134.017458,
34.047102
]
}
},
{
"type":"Feature",
"properties":{
"Name":"重清東小学校",
"Jusho":"徳島県美馬市美馬町字大泉51-1",
"Capacity":"－",
"la":"34.05165900000",
"ln":"134.04279800000"
},
"geometry":{
"type":"Point",
"coordinates":[
134.042798,
34.051659
]
}
},
{
"type":"Feature",
"properties":{
"Name":"重清北小学校",
"Jusho":"徳島県美馬市美馬町字狙ヶ内26-3",
"Capacity":"－",
"la":"34.08681100000",
"ln":"134.04211600000"
},
"geometry":{
"type":"Point",
"coordinates":[
134.042116,
34.086811
]
}
},
{
"type":"Feature",
"properties":{
"Name":"初草小学校",
"Jusho":"徳島県美馬市穴吹町口山字初草144",
"Capacity":"－",
"la":"34.03755500000",
"ln":"134.16183000000"
},
"geometry":{
"type":"Point",
"coordinates":[
134.16183,
34.037555
]
}
},
{
"type":"Feature",
"properties":{
"Name":"清水小学校",
"Jusho":"徳島県美馬市脇町字西俣名1069",
"Capacity":"－",
"la":"34.15676800000",
"ln":"134.15616400000"
},
"geometry":{
"type":"Point",
"coordinates":[
134.156164,
34.156768
]
}
},
{
"type":"Feature",
"properties":{
"Name":"切久保小学校",
"Jusho":"徳島県美馬市美馬町字入倉657",
"Capacity":"－",
"la":"34.09648900000",
"ln":"134.06701600000"
},
"geometry":{
"type":"Point",
"coordinates":[
134.067016,
34.096489
]
}
},
{
"type":"Feature",
"properties":{
"Name":"川原柴小学校",
"Jusho":"徳島県美馬市脇町字川原柴221",
"Capacity":"－",
"la":"34.10308874710",
"ln":"134.11575368400"
},
"geometry":{
"type":"Point",
"coordinates":[
134.115753684,
34.1030887471
]
}
},
{
"type":"Feature",
"properties":{
"Name":"大谷小学校",
"Jusho":"徳島県美馬市脇町字西大谷437",
"Capacity":"－",
"la":"34.10542900000",
"ln":"134.14322800000"
},
"geometry":{
"type":"Point",
"coordinates":[
134.143228,
34.105429
]
}
},
{
"type":"Feature",
"properties":{
"Name":"中野小学校",
"Jusho":"徳島県美馬市脇町字上中野263",
"Capacity":"－",
"la":"34.09736363010",
"ln":"134.07755285700"
},
"geometry":{
"type":"Point",
"coordinates":[
134.077552857,
34.0973636301
]
}
},
{
"type":"Feature",
"properties":{
"Name":"半平小学校",
"Jusho":"徳島県美馬市穴吹町古宮字大平351",
"Capacity":"－",
"la":"33.96600734510",
"ln":"134.15783182800"
},
"geometry":{
"type":"Point",
"coordinates":[
134.157831828,
33.9660073451
]
}
},
{
"type":"Feature",
"properties":{
"Name":"平帽子小学校",
"Jusho":"徳島県美馬市脇町字平帽子774-1",
"Capacity":"－",
"la":"34.10758541020",
"ln":"134.08773394500"
},
"geometry":{
"type":"Point",
"coordinates":[
134.087733945,
34.1075854102
]
}
},
{
"type":"Feature",
"properties":{
"Name":"脇町小学校",
"Jusho":"徳島県美馬市脇町大字猪尻西ノ久保116",
"Capacity":"－",
"la":"34.07084100000",
"ln":"134.15123500000"
},
"geometry":{
"type":"Point",
"coordinates":[
134.151235,
34.070841
]
}
},
{
"type":"Feature",
"properties":{
"Name":"渕名小学校",
"Jusho":"徳島県美馬市穴吹町口山字渕名485",
"Capacity":"－",
"la":"34.02479337330",
"ln":"134.13277273800"
},
"geometry":{
"type":"Point",
"coordinates":[
134.132772738,
34.0247933733
]
}
},
{
"type":"Feature",
"properties":{
"Name":"井内小学校体育館",
"Jusho":"徳島県三好市井川町井内西4896",
"Capacity":"600",
"la":"33.99866700000",
"ln":"133.87958200000"
},
"geometry":{
"type":"Point",
"coordinates":[
133.879582,
33.998667
]
}
},
{
"type":"Feature",
"properties":{
"Name":"王地小学校",
"Jusho":"徳島県三好市三野町加茂野宮1393",
"Capacity":"200",
"la":"34.05113700000",
"ln":"133.98977600000"
},
"geometry":{
"type":"Point",
"coordinates":[
133.989776,
34.051137
]
}
},
{
"type":"Feature",
"properties":{
"Name":"下名小学校",
"Jusho":"徳島県三好市山城町下名1001-1",
"Capacity":"－",
"la":"33.87038600000",
"ln":"133.77271000000"
},
"geometry":{
"type":"Point",
"coordinates":[
133.77271,
33.870386
]
}
},
{
"type":"Feature",
"properties":{
"Name":"吾橋小学校",
"Jusho":"徳島県三好市西祖谷山村下吾橋303番地2",
"Capacity":"400",
"la":"33.86669800000",
"ln":"133.78701600000"
},
"geometry":{
"type":"Point",
"coordinates":[
133.787016,
33.866698
]
}
},
{
"type":"Feature",
"properties":{
"Name":"佐野小学校",
"Jusho":"徳島県三好市池田町佐野字金氏947",
"Capacity":"300",
"la":"34.00196400000",
"ln":"133.70303800000"
},
"geometry":{
"type":"Point",
"coordinates":[
133.703038,
34.001964
]
}
},
{
"type":"Feature",
"properties":{
"Name":"三縄小学校",
"Jusho":"徳島県三好市池田町中西イバ508-1",
"Capacity":"500",
"la":"33.99601900000",
"ln":"133.79170200000"
},
"geometry":{
"type":"Point",
"coordinates":[
133.791702,
33.996019
]
}
},
{
"type":"Feature",
"properties":{
"Name":"山城小学校",
"Jusho":"徳島県三好市山城町大川持30-2",
"Capacity":"－",
"la":"33.96585800000",
"ln":"133.75420600000"
},
"geometry":{
"type":"Point",
"coordinates":[
133.754206,
33.965858
]
}
},
{
"type":"Feature",
"properties":{
"Name":"漆川小学校",
"Jusho":"徳島県三好市池田町漆川小林1983",
"Capacity":"300",
"la":"33.99223710110",
"ln":"133.82336395000"
},
"geometry":{
"type":"Point",
"coordinates":[
133.82336395,
33.9922371011
]
}
},
{
"type":"Feature",
"properties":{
"Name":"芝生小学校",
"Jusho":"徳島県三好市三野町芝生1230",
"Capacity":"300",
"la":"34.04154500000",
"ln":"133.96673000000"
},
"geometry":{
"type":"Point",
"coordinates":[
133.96673,
34.041545
]
}
},
{
"type":"Feature",
"properties":{
"Name":"芝生小学校太刀野分校",
"Jusho":"徳島県三好市三野町太刀野970",
"Capacity":"50",
"la":"34.04831500000",
"ln":"133.95325500000"
},
"geometry":{
"type":"Point",
"coordinates":[
133.953255,
34.048315
]
}
},
{
"type":"Feature",
"properties":{
"Name":"出合小学校",
"Jusho":"徳島県三好市池田町大利大西15番地",
"Capacity":"－",
"la":"33.96173033260",
"ln":"133.80063272600"
},
"geometry":{
"type":"Point",
"coordinates":[
133.800632726,
33.9617303326
]
}
},
{
"type":"Feature",
"properties":{
"Name":"上名小学校",
"Jusho":"徳島県三好市山城町上名236-3",
"Capacity":"－",
"la":"33.87533200000",
"ln":"133.72994100000"
},
"geometry":{
"type":"Point",
"coordinates":[
133.729941,
33.875332
]
}
},
{
"type":"Feature",
"properties":{
"Name":"菅生小学校",
"Jusho":"徳島県三好市東祖谷菅生162-1",
"Capacity":"221",
"la":"33.87360000000",
"ln":"133.98797200000"
},
"geometry":{
"type":"Point",
"coordinates":[
133.987972,
33.8736
]
}
},
{
"type":"Feature",
"properties":{
"Name":"政友小学校",
"Jusho":"徳島県三好市山城町政友46",
"Capacity":"－",
"la":"33.96954700000",
"ln":"133.73897300000"
},
"geometry":{
"type":"Point",
"coordinates":[
133.738973,
33.969547
]
}
},
{
"type":"Feature",
"properties":{
"Name":"西井川小学校体育館",
"Jusho":"徳島県三好市井川町西井川734-3",
"Capacity":"120",
"la":"34.03243100000",
"ln":"133.84628400000"
},
"geometry":{
"type":"Point",
"coordinates":[
133.846284,
34.032431
]
}
},
{
"type":"Feature",
"properties":{
"Name":"西宇小学校",
"Jusho":"徳島県三好市山城町西宇1226-3",
"Capacity":"－",
"la":"33.91365200000",
"ln":"133.75840400000"
},
"geometry":{
"type":"Point",
"coordinates":[
133.758404,
33.913652
]
}
},
{
"type":"Feature",
"properties":{
"Name":"西岡小学校",
"Jusho":"徳島県三好市西祖谷山村東西岡10番地",
"Capacity":"400",
"la":"33.88193000000",
"ln":"133.77837400000"
},
"geometry":{
"type":"Point",
"coordinates":[
133.778374,
33.88193
]
}
},
{
"type":"Feature",
"properties":{
"Name":"西山小学校",
"Jusho":"徳島県三好市池田町西山岡屋敷3563-1",
"Capacity":"200",
"la":"34.04406000000",
"ln":"133.80517600000"
},
"geometry":{
"type":"Point",
"coordinates":[
133.805176,
34.04406
]
}
},
{
"type":"Feature",
"properties":{
"Name":"川崎小学校",
"Jusho":"徳島県三好市池田町川崎浪会26-31",
"Capacity":"500",
"la":"33.96824500000",
"ln":"133.77451600000"
},
"geometry":{
"type":"Point",
"coordinates":[
133.774516,
33.968245
]
}
},
{
"type":"Feature",
"properties":{
"Name":"善徳小学校",
"Jusho":"徳島県三好市西祖谷山村善徳362番地",
"Capacity":"400",
"la":"33.88236500000",
"ln":"133.83881700000"
},
"geometry":{
"type":"Point",
"coordinates":[
133.838817,
33.882365
]
}
},
{
"type":"Feature",
"properties":{
"Name":"太刀野山小学校",
"Jusho":"徳島県三好市三野町太刀野山3796",
"Capacity":"200",
"la":"34.07161800000",
"ln":"133.93911200000"
},
"geometry":{
"type":"Point",
"coordinates":[
133.939112,
34.071618
]
}
},
{
"type":"Feature",
"properties":{
"Name":"大野小学校",
"Jusho":"徳島県三好市山城町大野519",
"Capacity":"－",
"la":"33.96551100000",
"ln":"133.71461100000"
},
"geometry":{
"type":"Point",
"coordinates":[
133.714611,
33.965511
]
}
},
{
"type":"Feature",
"properties":{
"Name":"大和小学校",
"Jusho":"徳島県三好市山城町大和川214番地1",
"Capacity":"50",
"la":"33.99068100000",
"ln":"133.76553300000"
},
"geometry":{
"type":"Point",
"coordinates":[
133.765533,
33.990681
]
}
},
{
"type":"Feature",
"properties":{
"Name":"池田小学校",
"Jusho":"徳島県三好市池田町ウヱノ2880-2910",
"Capacity":"1500",
"la":"34.03130282300",
"ln":"133.81025003400"
},
"geometry":{
"type":"Point",
"coordinates":[
133.810250034,
34.031302823
]
}
},
{
"type":"Feature",
"properties":{
"Name":"辻小学校体育館",
"Jusho":"徳島県三好市井川町辻53-1",
"Capacity":"180",
"la":"34.02826500000",
"ln":"133.87845800000"
},
"geometry":{
"type":"Point",
"coordinates":[
133.878458,
34.028265
]
}
},
{
"type":"Feature",
"properties":{
"Name":"東谷小学校",
"Jusho":"徳島県三好市三野町太刀野山558",
"Capacity":"50",
"la":"34.06479700000",
"ln":"133.97056000000"
},
"geometry":{
"type":"Point",
"coordinates":[
133.97056,
34.064797
]
}
},
{
"type":"Feature",
"properties":{
"Name":"栃の瀬小学校",
"Jusho":"徳島県三好市東祖谷新居屋73",
"Capacity":"260",
"la":"33.85515500000",
"ln":"133.89310700000"
},
"geometry":{
"type":"Point",
"coordinates":[
133.893107,
33.855155
]
}
},
{
"type":"Feature",
"properties":{
"Name":"馬場小学校",
"Jusho":"徳島県三好市池田町白地ウマバ429-1",
"Capacity":"200",
"la":"34.03561107840",
"ln":"133.78263982700"
},
"geometry":{
"type":"Point",
"coordinates":[
133.782639827,
34.0356110784
]
}
},
{
"type":"Feature",
"properties":{
"Name":"馬路小学校",
"Jusho":"徳島県三好市池田町馬路字立石33-1",
"Capacity":"300",
"la":"34.00968800000",
"ln":"133.73550600000"
},
"geometry":{
"type":"Point",
"coordinates":[
133.735506,
34.009688
]
}
},
{
"type":"Feature",
"properties":{
"Name":"白地小学校",
"Jusho":"徳島県三好市池田町白地本名57",
"Capacity":"1000",
"la":"34.01702300000",
"ln":"133.78252200000"
},
"geometry":{
"type":"Point",
"coordinates":[
133.782522,
34.017023
]
}
},
{
"type":"Feature",
"properties":{
"Name":"箸蔵小学校",
"Jusho":"徳島県三好市池田町州津井関1209",
"Capacity":"500",
"la":"34.03694400000",
"ln":"133.83676400000"
},
"geometry":{
"type":"Point",
"coordinates":[
133.836764,
34.036944
]
}
},
{
"type":"Feature",
"properties":{
"Name":"平野小学校",
"Jusho":"徳島県三好市山城町平野55",
"Capacity":"－",
"la":"33.94181600000",
"ln":"133.69459300000"
},
"geometry":{
"type":"Point",
"coordinates":[
133.694593,
33.941816
]
}
},
{
"type":"Feature",
"properties":{
"Name":"有瀬小学校",
"Jusho":"徳島県三好市西祖谷山村有瀬414番地1",
"Capacity":"300",
"la":"33.83927429200",
"ln":"133.79732014200"
},
"geometry":{
"type":"Point",
"coordinates":[
133.797320142,
33.839274292
]
}
},
{
"type":"Feature",
"properties":{
"Name":"落合小学校",
"Jusho":"徳島県三好市東祖谷落合403",
"Capacity":"23",
"la":"33.87828600000",
"ln":"133.93817200000"
},
"geometry":{
"type":"Point",
"coordinates":[
133.938172,
33.878286
]
}
},
{
"type":"Feature",
"properties":{
"Name":"和田小学校",
"Jusho":"徳島県三好市東祖谷和田1-1",
"Capacity":"193",
"la":"33.87290400000",
"ln":"133.86938000000"
},
"geometry":{
"type":"Point",
"coordinates":[
133.86938,
33.872904
]
}
},
{
"type":"Feature",
"properties":{
"Name":"檪生（いちう）小学校",
"Jusho":"徳島県三好市西祖谷山村一宇262-1",
"Capacity":"400",
"la":"33.89364800000",
"ln":"133.81533200000"
},
"geometry":{
"type":"Point",
"coordinates":[
133.815332,
33.893648
]
}
},
{
"type":"Feature",
"properties":{
"Name":"横瀬小学校",
"Jusho":"徳島県勝浦郡勝浦町",
"Capacity":"580",
"la":"33.93010700000",
"ln":"134.49378100000"
},
"geometry":{
"type":"Point",
"coordinates":[
134.493781,
33.930107
]
}
},
{
"type":"Feature",
"properties":{
"Name":"生比奈小学校",
"Jusho":"徳島県勝浦郡勝浦町",
"Capacity":"705",
"la":"33.94060900000",
"ln":"134.53508600000"
},
"geometry":{
"type":"Point",
"coordinates":[
134.535086,
33.940609
]
}
},
{
"type":"Feature",
"properties":{
"Name":"佐那河内小学校",
"Jusho":"徳島県名東郡佐那河内村下字中川原",
"Capacity":"－",
"la":"33.99245800000",
"ln":"134.45521600000"
},
"geometry":{
"type":"Point",
"coordinates":[
134.455216,
33.992458
]
}
},
{
"type":"Feature",
"properties":{
"Name":"浦庄小学校",
"Jusho":"徳島県名西郡石井町浦庄字下浦475-1",
"Capacity":"－",
"la":"34.06633700000",
"ln":"134.41641500000"
},
"geometry":{
"type":"Point",
"coordinates":[
134.416415,
34.066337
]
}
},
{
"type":"Feature",
"properties":{
"Name":"高原小学校",
"Jusho":"徳島県名西郡石井町高原字東高原250-1",
"Capacity":"－",
"la":"34.08294700000",
"ln":"134.42083100000"
},
"geometry":{
"type":"Point",
"coordinates":[
134.420831,
34.082947
]
}
},
{
"type":"Feature",
"properties":{
"Name":"高川原小学校",
"Jusho":"徳島県名西郡石井町高川原字高川原1167",
"Capacity":"－",
"la":"34.07711293690",
"ln":"134.44810543700"
},
"geometry":{
"type":"Point",
"coordinates":[
134.448105437,
34.0771129369
]
}
},
{
"type":"Feature",
"properties":{
"Name":"石井小学校",
"Jusho":"徳島県名西郡石井町石井字石井1184-1",
"Capacity":"－",
"la":"34.06572600000",
"ln":"134.44399500000"
},
"geometry":{
"type":"Point",
"coordinates":[
134.443995,
34.065726
]
}
},
{
"type":"Feature",
"properties":{
"Name":"藍畑小学校",
"Jusho":"徳島県名西郡石井町藍畑字東覚円670",
"Capacity":"－",
"la":"34.09739000000",
"ln":"134.44044000000"
},
"geometry":{
"type":"Point",
"coordinates":[
134.44044,
34.09739
]
}
},
{
"type":"Feature",
"properties":{
"Name":"河内小学校体育館",
"Jusho":"徳島県海部郡牟岐町大字河内字西川又290",
"Capacity":"－",
"la":"33.68630200000",
"ln":"134.42025500000"
},
"geometry":{
"type":"Point",
"coordinates":[
134.420255,
33.686302
]
}
},
{
"type":"Feature",
"properties":{
"Name":"出羽小学校",
"Jusho":"徳島県海部郡牟岐町牟岐浦字出羽島46-2",
"Capacity":"－",
"la":"33.63489400370",
"ln":"134.42301255300"
},
"geometry":{
"type":"Point",
"coordinates":[
134.423012553,
33.6348940037
]
}
},
{
"type":"Feature",
"properties":{
"Name":"牟岐小学校",
"Jusho":"徳島県海部郡牟岐町中村字本村14",
"Capacity":"－",
"la":"33.66833400000",
"ln":"134.41961100000"
},
"geometry":{
"type":"Point",
"coordinates":[
134.419611,
33.668334
]
}
},
{
"type":"Feature",
"properties":{
"Name":"海南小学校",
"Jusho":"徳島県海部郡海陽町",
"Capacity":"－",
"la":"33.60673100000",
"ln":"134.35456300000"
},
"geometry":{
"type":"Point",
"coordinates":[
134.354563,
33.606731
]
}
},
{
"type":"Feature",
"properties":{
"Name":"海部小学校",
"Jusho":"徳島県海部郡海陽町",
"Capacity":"－",
"la":"33.59417700000",
"ln":"134.35695100000"
},
"geometry":{
"type":"Point",
"coordinates":[
134.356951,
33.594177
]
}
},
{
"type":"Feature",
"properties":{
"Name":"宍喰小学校",
"Jusho":"徳島県海部郡海陽町",
"Capacity":"－",
"la":"33.56715200000",
"ln":"134.30176200000"
},
"geometry":{
"type":"Point",
"coordinates":[
134.301762,
33.567152
]
}
},
{
"type":"Feature",
"properties":{
"Name":"川上小学校",
"Jusho":"徳島県海部郡海陽町",
"Capacity":"－",
"la":"33.66197400000",
"ln":"134.31054000000"
},
"geometry":{
"type":"Point",
"coordinates":[
134.31054,
33.661974
]
}
},
{
"type":"Feature",
"properties":{
"Name":"浅川小学校",
"Jusho":"徳島県海部郡海陽町",
"Capacity":"－",
"la":"33.62559000000",
"ln":"134.35970100000"
},
"geometry":{
"type":"Point",
"coordinates":[
134.359701,
33.62559
]
}
},
{
"type":"Feature",
"properties":{
"Name":"喜来小学校",
"Jusho":"徳島県板野郡松茂町中喜来字前原西一番越14",
"Capacity":"－",
"la":"34.14235900000",
"ln":"134.57414800000"
},
"geometry":{
"type":"Point",
"coordinates":[
134.574148,
34.142359
]
}
},
{
"type":"Feature",
"properties":{
"Name":"松茂小学校",
"Jusho":"徳島県板野郡松茂町住吉字住吉開拓187",
"Capacity":"－",
"la":"34.13169300000",
"ln":"134.58995300000"
},
"geometry":{
"type":"Point",
"coordinates":[
134.589953,
34.131693
]
}
},
{
"type":"Feature",
"properties":{
"Name":"長原小学校",
"Jusho":"徳島県板野郡松茂町長原530",
"Capacity":"－",
"la":"34.11766800000",
"ln":"134.60261800000"
},
"geometry":{
"type":"Point",
"coordinates":[
134.602618,
34.117668
]
}
},
{
"type":"Feature",
"properties":{
"Name":"北島小学校",
"Jusho":"徳島県板野郡北島町",
"Capacity":"－",
"la":"34.12483200000",
"ln":"134.54992800000"
},
"geometry":{
"type":"Point",
"coordinates":[
134.549928,
34.124832
]
}
},
{
"type":"Feature",
"properties":{
"Name":"北島南小学校",
"Jusho":"徳島県板野郡北島町",
"Capacity":"－",
"la":"34.11883300000",
"ln":"134.54376200000"
},
"geometry":{
"type":"Point",
"coordinates":[
134.543762,
34.118833
]
}
},
{
"type":"Feature",
"properties":{
"Name":"北島北小学校",
"Jusho":"徳島県板野郡北島町",
"Capacity":"－",
"la":"34.13677600000",
"ln":"134.55281700000"
},
"geometry":{
"type":"Point",
"coordinates":[
134.552817,
34.136776
]
}
},
{
"type":"Feature",
"properties":{
"Name":"藍住西小学校",
"Jusho":"徳島県板野郡藍住町富吉字豊吉55-1",
"Capacity":"－",
"la":"34.13483100000",
"ln":"134.48471300000"
},
"geometry":{
"type":"Point",
"coordinates":[
134.484713,
34.134831
]
}
},
{
"type":"Feature",
"properties":{
"Name":"藍住東小学校",
"Jusho":"徳島県板野郡藍住町勝瑞字成長155-1",
"Capacity":"－",
"la":"34.12752700000",
"ln":"134.51726500000"
},
"geometry":{
"type":"Point",
"coordinates":[
134.517265,
34.127527
]
}
},
{
"type":"Feature",
"properties":{
"Name":"藍住南小学校",
"Jusho":"徳島県板野郡藍住町奥野字和田95",
"Capacity":"－",
"la":"34.12166600000",
"ln":"134.49162900000"
},
"geometry":{
"type":"Point",
"coordinates":[
134.491629,
34.121666
]
}
},
{
"type":"Feature",
"properties":{
"Name":"藍住北小学校",
"Jusho":"徳島県板野郡藍住町住吉字乾1",
"Capacity":"－",
"la":"34.13263700000",
"ln":"134.50568300000"
},
"geometry":{
"type":"Point",
"coordinates":[
134.505683,
34.132637
]
}
},
{
"type":"Feature",
"properties":{
"Name":"西小学校グランド",
"Jusho":"徳島県板野郡板野町",
"Capacity":"－",
"la":"34.13618704920",
"ln":"134.43823787000"
},
"geometry":{
"type":"Point",
"coordinates":[
134.43823787,
34.1361870492
]
}
},
{
"type":"Feature",
"properties":{
"Name":"東小学校グランド",
"Jusho":"徳島県板野郡板野町",
"Capacity":"－",
"la":"34.14740904950",
"ln":"134.46393700000"
},
"geometry":{
"type":"Point",
"coordinates":[
134.463937,
34.1474090495
]
}
},
{
"type":"Feature",
"properties":{
"Name":"南小学校グランド",
"Jusho":"徳島県板野郡板野町",
"Capacity":"－",
"la":"34.12394051190",
"ln":"134.45663120200"
},
"geometry":{
"type":"Point",
"coordinates":[
134.456631202,
34.1239405119
]
}
},
{
"type":"Feature",
"properties":{
"Name":"板野町南小学校体育館",
"Jusho":"徳島県板野郡板野町下庄字真弓38-1",
"Capacity":"100",
"la":"34.12394084970",
"ln":"134.45662609100"
},
"geometry":{
"type":"Point",
"coordinates":[
134.456626091,
34.1239408497
]
}
},
{
"type":"Feature",
"properties":{
"Name":"板野東小学校体育館",
"Jusho":"徳島県板野郡板野町吹田字町東2",
"Capacity":"200",
"la":"34.14741200000",
"ln":"134.46393700000"
},
"geometry":{
"type":"Point",
"coordinates":[
134.463937,
34.147412
]
}
},
{
"type":"Feature",
"properties":{
"Name":"板野東小学校大坂分校体育館",
"Jusho":"徳島県板野郡板野町大坂字宮東20",
"Capacity":"120",
"la":"34.17793700000",
"ln":"134.44804900000"
},
"geometry":{
"type":"Point",
"coordinates":[
134.448049,
34.177937
]
}
},
{
"type":"Feature",
"properties":{
"Name":"高志小学校",
"Jusho":"徳島県板野郡上板町高瀬字天目一1108",
"Capacity":"－",
"la":"34.10352300000",
"ln":"134.41917800000"
},
"geometry":{
"type":"Point",
"coordinates":[
134.419178,
34.103523
]
}
},
{
"type":"Feature",
"properties":{
"Name":"松島小学校",
"Jusho":"徳島県板野郡上板町鍛冶屋原字北原20",
"Capacity":"－",
"la":"34.12118500000",
"ln":"134.39872100000"
},
"geometry":{
"type":"Point",
"coordinates":[
134.398721,
34.121185
]
}
},
{
"type":"Feature",
"properties":{
"Name":"神宅小学校",
"Jusho":"徳島県板野郡上板町神宅字喜来135",
"Capacity":"－",
"la":"34.13438500000",
"ln":"134.41483100000"
},
"geometry":{
"type":"Point",
"coordinates":[
134.414831,
34.134385
]
}
},
{
"type":"Feature",
"properties":{
"Name":"東光小学校",
"Jusho":"徳島県板野郡上板町西分字東光8",
"Capacity":"－",
"la":"34.11752600000",
"ln":"134.42885700000"
},
"geometry":{
"type":"Point",
"coordinates":[
134.428857,
34.117526
]
}
},
{
"type":"Feature",
"properties":{
"Name":"加茂小学校",
"Jusho":"徳島県三好郡東みよし町加茂2688番地",
"Capacity":"－",
"la":"34.03655700000",
"ln":"133.92334900000"
},
"geometry":{
"type":"Point",
"coordinates":[
133.923349,
34.036557
]
}
},
{
"type":"Feature",
"properties":{
"Name":"加茂小学校グラウンド",
"Jusho":"徳島県三好郡東みよし町加茂2711番地",
"Capacity":"－",
"la":"34.03655669660",
"ln":"133.92334979600"
},
"geometry":{
"type":"Point",
"coordinates":[
133.923349796,
34.0365566966
]
}
},
{
"type":"Feature",
"properties":{
"Name":"絵堂小学校",
"Jusho":"徳島県三好郡東みよし町西庄字絵堂64番地",
"Capacity":"－",
"la":"34.01158800000",
"ln":"133.93326600000"
},
"geometry":{
"type":"Point",
"coordinates":[
133.933266,
34.011588
]
}
},
{
"type":"Feature",
"properties":{
"Name":"黒長谷小学校",
"Jusho":"徳島県三好郡東みよし町毛田1332番地",
"Capacity":"－",
"la":"34.01792200000",
"ln":"133.97315400000"
},
"geometry":{
"type":"Point",
"coordinates":[
133.973154,
34.017922
]
}
},
{
"type":"Feature",
"properties":{
"Name":"三庄小学校",
"Jusho":"徳島県三好郡東みよし町中庄1125番地",
"Capacity":"－",
"la":"34.03839100000",
"ln":"133.94731900000"
},
"geometry":{
"type":"Point",
"coordinates":[
133.947319,
34.038391
]
}
},
{
"type":"Feature",
"properties":{
"Name":"西庄小学校",
"Jusho":"徳島県三好郡東みよし町西庄字平51番地",
"Capacity":"－",
"la":"34.00344498440",
"ln":"133.94093122600"
},
"geometry":{
"type":"Point",
"coordinates":[
133.940931226,
34.0034449844
]
}
},
{
"type":"Feature",
"properties":{
"Name":"増川小学校",
"Jusho":"徳島県三好郡東みよし町東山字増川267番地",
"Capacity":"－",
"la":"34.06738955940",
"ln":"133.84434114500"
},
"geometry":{
"type":"Point",
"coordinates":[
133.844341145,
34.0673895594
]
}
},
{
"type":"Feature",
"properties":{
"Name":"足代小学校",
"Jusho":"徳島県三好郡東みよし町足代2708番地",
"Capacity":"－",
"la":"34.04369500000",
"ln":"133.90243500000"
},
"geometry":{
"type":"Point",
"coordinates":[
133.902435,
34.043695
]
}
},
{
"type":"Feature",
"properties":{
"Name":"大藤小学校",
"Jusho":"徳島県三好郡東みよし町毛田2436番地の1",
"Capacity":"－",
"la":"33.98926279020",
"ln":"133.98532370700"
},
"geometry":{
"type":"Point",
"coordinates":[
133.985323707,
33.9892627902
]
}
},
{
"type":"Feature",
"properties":{
"Name":"昼間小学校",
"Jusho":"徳島県三好郡東みよし町昼間1637番地",
"Capacity":"－",
"la":"34.04166800000",
"ln":"133.87674300000"
},
"geometry":{
"type":"Point",
"coordinates":[
133.876743,
34.041668
]
}
},
{
"type":"Feature",
"properties":{
"Name":"東山小学校",
"Jusho":"徳島県三好郡東みよし町東山字中村90番地",
"Capacity":"－",
"la":"34.07499700000",
"ln":"133.87135400000"
},
"geometry":{
"type":"Point",
"coordinates":[
133.871354,
34.074997
]
}
},
{
"type":"Feature",
"properties":{
"Name":"毛田小学校",
"Jusho":"徳島県三好郡東みよし町毛田1332番地",
"Capacity":"－",
"la":"34.01816086640",
"ln":"133.97307972500"
},
"geometry":{
"type":"Point",
"coordinates":[
133.973079725,
34.0181608664
]
}
},
{
"type":"Feature",
"properties":{
"Name":"左右内小学校",
"Jusho":"徳島県名西郡神山町下分字鍋岩168番地",
"Capacity":"220",
"la":"33.98745114930",
"ln":"134.32552210700"
},
"geometry":{
"type":"Point",
"coordinates":[
134.325522107,
33.9874511493
]
}
},
{
"type":"Feature",
"properties":{
"Name":"上分小学校・体育館",
"Jusho":"徳島県名西郡神山町上分字川又西158番地",
"Capacity":"340",
"la":"33.96001682760",
"ln":"134.27799481000"
},
"geometry":{
"type":"Point",
"coordinates":[
134.27799481,
33.9600168276
]
}
},
{
"type":"Feature",
"properties":{
"Name":"下分小学校・体育館",
"Jusho":"徳島県名西郡神山町下分字西寺28番地",
"Capacity":"340",
"la":"33.96191743340",
"ln":"134.31281163300"
},
"geometry":{
"type":"Point",
"coordinates":[
134.312811633,
33.9619174334
]
}
},
{
"type":"Feature",
"properties":{
"Name":"神領小学校・体育館",
"Jusho":"徳島県名西郡神山町神領字大埜地411-1",
"Capacity":"350",
"la":"33.96923700000",
"ln":"134.35725400000"
},
"geometry":{
"type":"Point",
"coordinates":[
134.357254,
33.969237
]
}
},
{
"type":"Feature",
"properties":{
"Name":"鬼籠野小学校・体育館",
"Jusho":"徳島県名西郡神山町鬼籠野字川東119番地",
"Capacity":"360",
"la":"33.98874269510",
"ln":"134.39598548500"
},
"geometry":{
"type":"Point",
"coordinates":[
134.395985485,
33.9887426951
]
}
},
{
"type":"Feature",
"properties":{
"Name":"阿川小学校・体育館",
"Jusho":"徳島県名西郡神山町阿野字地ノ平132番地2",
"Capacity":"310",
"la":"34.00523975340",
"ln":"134.35653864700"
},
"geometry":{
"type":"Point",
"coordinates":[
134.356538647,
34.0052397534
]
}
},
{
"type":"Feature",
"properties":{
"Name":"広野小学校・体育館",
"Jusho":"徳島県名西郡神山町阿野字広野42番地",
"Capacity":"280",
"la":"34.02875592670",
"ln":"134.40349788400"
},
"geometry":{
"type":"Point",
"coordinates":[
134.403497884,
34.0287559267
]
}
},
{
"type":"Feature",
"properties":{
"Name":"貞光小学校・（体育館）",
"Jusho":"徳島県美馬郡つるぎ町野口87",
"Capacity":"500",
"la":"34.03716400000",
"ln":"134.05964300000"
},
"geometry":{
"type":"Point",
"coordinates":[
134.059643,
34.037164
]
}
},
{
"type":"Feature",
"properties":{
"Name":"太田小学校",
"Jusho":"徳島県美馬郡つるぎ町太田西107",
"Capacity":"150",
"la":"34.04449900000",
"ln":"134.08024700000"
},
"geometry":{
"type":"Point",
"coordinates":[
134.080247,
34.044499
]
}
},
{
"type":"Feature",
"properties":{
"Name":"柴内小学校",
"Jusho":"徳島県美馬郡つるぎ町柴内328-1",
"Capacity":"30",
"la":"34.03178754790",
"ln":"134.09115230800"
},
"geometry":{
"type":"Point",
"coordinates":[
134.091152308,
34.0317875479
]
}
},
{
"type":"Feature",
"properties":{
"Name":"平野小学校",
"Jusho":"徳島県美馬郡つるぎ町平野197-1",
"Capacity":"150",
"la":"34.01104900000",
"ln":"134.09236745600"
},
"geometry":{
"type":"Point",
"coordinates":[
134.092367456,
34.011049
]
}
},
{
"type":"Feature",
"properties":{
"Name":"皆瀬小学校",
"Jusho":"徳島県美馬郡つるぎ町皆瀬川向1",
"Capacity":"150",
"la":"34.01815600000",
"ln":"134.06896800000"
},
"geometry":{
"type":"Point",
"coordinates":[
134.068968,
34.018156
]
}
},
{
"type":"Feature",
"properties":{
"Name":"端山小学校",
"Jusho":"徳島県美馬郡つるぎ町宮平39",
"Capacity":"200",
"la":"33.99522090480",
"ln":"134.08855208700"
},
"geometry":{
"type":"Point",
"coordinates":[
134.088552087,
33.9952209048
]
}
},
{
"type":"Feature",
"properties":{
"Name":"半田小学校体育館",
"Jusho":"徳島県美馬郡つるぎ町田井289",
"Capacity":"100",
"la":"34.03208600000",
"ln":"134.03000600000"
},
"geometry":{
"type":"Point",
"coordinates":[
134.030006,
34.032086
]
}
},
{
"type":"Feature",
"properties":{
"Name":"日浦小学校",
"Jusho":"徳島県美馬郡つるぎ町蔭名1292",
"Capacity":"200",
"la":"34.02533810630",
"ln":"134.02328627500"
},
"geometry":{
"type":"Point",
"coordinates":[
134.023286275,
34.0253381063
]
}
},
{
"type":"Feature",
"properties":{
"Name":"高清小学校",
"Jusho":"徳島県美馬郡つるぎ町高清1398",
"Capacity":"200",
"la":"34.00150606560",
"ln":"134.03895430600"
},
"geometry":{
"type":"Point",
"coordinates":[
134.038954306,
34.0015060656
]
}
},
{
"type":"Feature",
"properties":{
"Name":"八千代小学校",
"Jusho":"徳島県美馬郡つるぎ町下喜来1",
"Capacity":"200",
"la":"33.99545800000",
"ln":"134.02502500000"
},
"geometry":{
"type":"Point",
"coordinates":[
134.025025,
33.995458
]
}
},
{
"type":"Feature",
"properties":{
"Name":"紙屋小学校体育館",
"Jusho":"徳島県美馬郡つるぎ町紙屋256",
"Capacity":"100",
"la":"33.97830556760",
"ln":"134.00936228000"
},
"geometry":{
"type":"Point",
"coordinates":[
134.00936228,
33.9783055676
]
}
},
{
"type":"Feature",
"properties":{
"Name":"坂根小学校",
"Jusho":"徳島県美馬郡つるぎ町坂根346",
"Capacity":"200",
"la":"33.98946800000",
"ln":"134.03698700000"
},
"geometry":{
"type":"Point",
"coordinates":[
134.036987,
33.989468
]
}
},
{
"type":"Feature",
"properties":{
"Name":"古見小学校",
"Jusho":"徳島県美馬郡つるぎ町太刀之本5-4",
"Capacity":"200",
"la":"33.95132200000",
"ln":"134.06218100000"
},
"geometry":{
"type":"Point",
"coordinates":[
134.062181,
33.951322
]
}
},
{
"type":"Feature",
"properties":{
"Name":"応能小学校",
"Jusho":"徳島県美馬郡つるぎ町伊良原7591",
"Capacity":"100",
"la":"33.93515183750",
"ln":"134.06243080700"
},
"geometry":{
"type":"Point",
"coordinates":[
134.062430807,
33.9351518375
]
}
},
{
"type":"Feature",
"properties":{
"Name":"錦谷小学校",
"Jusho":"徳島県美馬郡つるぎ町川又955-1",
"Capacity":"200",
"la":"33.90531827740",
"ln":"134.07902900000"
},
"geometry":{
"type":"Point",
"coordinates":[
134.079029,
33.9053182774
]
}
},
{
"type":"Feature",
"properties":{
"Name":"明谷小学校",
"Jusho":"徳島県美馬郡つるぎ町大屋内4304",
"Capacity":"150",
"la":"33.91744613790",
"ln":"134.04092708900"
},
"geometry":{
"type":"Point",
"coordinates":[
134.040927089,
33.9174461379
]
}
},
{
"type":"Feature",
"properties":{
"Name":"鷲敷小学校",
"Jusho":"徳島県那賀郡那賀町和食字町117番地1",
"Capacity":"150",
"la":"33.85953200000",
"ln":"134.49999000000"
},
"geometry":{
"type":"Point",
"coordinates":[
134.49999,
33.859532
]
}
},
{
"type":"Feature",
"properties":{
"Name":"相生小学校",
"Jusho":"徳島県那賀郡那賀町延野字大原80番地",
"Capacity":"300",
"la":"33.82139700000",
"ln":"134.48377100000"
},
"geometry":{
"type":"Point",
"coordinates":[
134.483771,
33.821397
]
}
},
{
"type":"Feature",
"properties":{
"Name":"桜谷小学校",
"Jusho":"徳島県那賀郡那賀町水崎字水崎原27番地",
"Capacity":"200",
"la":"33.79851200000",
"ln":"134.38067400000"
},
"geometry":{
"type":"Point",
"coordinates":[
134.380674,
33.798512
]
}
},
{
"type":"Feature",
"properties":{
"Name":"平谷小学校",
"Jusho":"徳島県那賀郡那賀町平谷字北浦9番地",
"Capacity":"200",
"la":"33.79506700000",
"ln":"134.30148700000"
},
"geometry":{
"type":"Point",
"coordinates":[
134.301487,
33.795067
]
}
},
{
"type":"Feature",
"properties":{
"Name":"木沢小学校",
"Jusho":"徳島県那賀郡那賀町坂州字向エ169番地1",
"Capacity":"150",
"la":"33.82856400000",
"ln":"134.29976400000"
},
"geometry":{
"type":"Point",
"coordinates":[
134.299764,
33.828564
]
}
},
{
"type":"Feature",
"properties":{
"Name":"北川小学校",
"Jusho":"徳島県那賀郡那賀町木頭折宇字六地蔵89番地",
"Capacity":"150",
"la":"33.77487300000",
"ln":"134.11393500000"
},
"geometry":{
"type":"Point",
"coordinates":[
134.113935,
33.774873
]
}
},
{
"type":"Feature",
"properties":{
"Name":"入田中学校",
"Jusho":"徳島県徳島市入田町春日181番地の1",
"Capacity":"－",
"la":"34.04136494210",
"ln":"134.44182349500"
},
"geometry":{
"type":"Point",
"coordinates":[
134.441823495,
34.0413649421
]
}
},
{
"type":"Feature",
"properties":{
"Name":"応神中学校",
"Jusho":"徳島県徳島市応神町吉成字長田130番地の1",
"Capacity":"368",
"la":"34.11269500000",
"ln":"134.53015300000"
},
"geometry":{
"type":"Point",
"coordinates":[
134.530153,
34.112695
]
}
},
{
"type":"Feature",
"properties":{
"Name":"加茂名中学校",
"Jusho":"徳島県徳島市庄町1丁目76番地の1",
"Capacity":"－",
"la":"34.07336600000",
"ln":"134.51204400000"
},
"geometry":{
"type":"Point",
"coordinates":[
134.512044,
34.073366
]
}
},
{
"type":"Feature",
"properties":{
"Name":"国府中学校",
"Jusho":"徳島県徳島市国府町府中68番地の1",
"Capacity":"－",
"la":"34.07139300000",
"ln":"134.48363100000"
},
"geometry":{
"type":"Point",
"coordinates":[
134.483631,
34.071393
]
}
},
{
"type":"Feature",
"properties":{
"Name":"上八万中学校",
"Jusho":"徳島県徳島市下町本丁131番地",
"Capacity":"－",
"la":"34.03692500000",
"ln":"134.48313100000"
},
"geometry":{
"type":"Point",
"coordinates":[
134.483131,
34.036925
]
}
},
{
"type":"Feature",
"properties":{
"Name":"城ノ内中学校・高校",
"Jusho":"徳島県徳島市北田宮一丁目9番30号",
"Capacity":"－",
"la":"34.09119900000",
"ln":"134.54675400000"
},
"geometry":{
"type":"Point",
"coordinates":[
134.546754,
34.091199
]
}
},
{
"type":"Feature",
"properties":{
"Name":"城西中学校",
"Jusho":"徳島県徳島市南矢三町二丁目7番77号",
"Capacity":"－",
"la":"34.08161500000",
"ln":"134.52695900000"
},
"geometry":{
"type":"Point",
"coordinates":[
134.526959,
34.081615
]
}
},
{
"type":"Feature",
"properties":{
"Name":"城東中学校",
"Jusho":"徳島県徳島市安宅三丁目2番76号",
"Capacity":"4325",
"la":"34.06972800000",
"ln":"134.57784400000"
},
"geometry":{
"type":"Point",
"coordinates":[
134.577844,
34.069728
]
}
},
{
"type":"Feature",
"properties":{
"Name":"川内中学校",
"Jusho":"徳島県徳島市川内町竹須賀151番地",
"Capacity":"360",
"la":"34.10783500000",
"ln":"134.57462100000"
},
"geometry":{
"type":"Point",
"coordinates":[
134.574621,
34.107835
]
}
},
{
"type":"Feature",
"properties":{
"Name":"津田中学校",
"Jusho":"徳島県徳島市津田西町二丁目2番14号",
"Capacity":"－",
"la":"34.04850800000",
"ln":"134.57551100000"
},
"geometry":{
"type":"Point",
"coordinates":[
134.575511,
34.048508
]
}
},
{
"type":"Feature",
"properties":{
"Name":"徳島中学校",
"Jusho":"徳島県徳島市中前川町3丁目16番地",
"Capacity":"431",
"la":"34.08047700000",
"ln":"134.55242900000"
},
"geometry":{
"type":"Point",
"coordinates":[
134.552429,
34.080477
]
}
},
{
"type":"Feature",
"properties":{
"Name":"南部中学校",
"Jusho":"徳島県徳島市勝占町外敷地62番地",
"Capacity":"400",
"la":"34.01704000000",
"ln":"134.55637400000"
},
"geometry":{
"type":"Point",
"coordinates":[
134.556374,
34.01704
]
}
},
{
"type":"Feature",
"properties":{
"Name":"八万中学校",
"Jusho":"徳島県徳島市城南町三丁目4番22号",
"Capacity":"550",
"la":"34.05367400000",
"ln":"134.53887500000"
},
"geometry":{
"type":"Point",
"coordinates":[
134.538875,
34.053674
]
}
},
{
"type":"Feature",
"properties":{
"Name":"不動中学校",
"Jusho":"徳島県徳島市不動本町2丁目124番地",
"Capacity":"－",
"la":"34.09735360090",
"ln":"134.50774495000"
},
"geometry":{
"type":"Point",
"coordinates":[
134.50774495,
34.0973536009
]
}
},
{
"type":"Feature",
"properties":{
"Name":"富田中学校",
"Jusho":"徳島県徳島市中昭和町3丁目77番地",
"Capacity":"13724",
"la":"34.05961800000",
"ln":"134.55879000000"
},
"geometry":{
"type":"Point",
"coordinates":[
134.55879,
34.059618
]
}
},
{
"type":"Feature",
"properties":{
"Name":"北井上中学校",
"Jusho":"徳島県徳島市国府町西黒田字南傍示202番地",
"Capacity":"－",
"la":"34.09763900000",
"ln":"134.46596500000"
},
"geometry":{
"type":"Point",
"coordinates":[
134.465965,
34.097639
]
}
},
{
"type":"Feature",
"properties":{
"Name":"鳴門教育大学附属中学校",
"Jusho":"徳島県徳島市中吉野町1丁目31番地",
"Capacity":"370",
"la":"34.08430900000",
"ln":"134.55715100000"
},
"geometry":{
"type":"Point",
"coordinates":[
134.557151,
34.084309
]
}
},
{
"type":"Feature",
"properties":{
"Name":"瀬戸中学校",
"Jusho":"徳島県鳴門市瀬戸町堂浦字地廻り壱96-4",
"Capacity":"310",
"la":"34.21504500000",
"ln":"134.58492400000"
},
"geometry":{
"type":"Point",
"coordinates":[
134.584924,
34.215045
]
}
},
{
"type":"Feature",
"properties":{
"Name":"大麻中学校",
"Jusho":"徳島県鳴門市大麻町池谷字長田105",
"Capacity":"342",
"la":"34.15752400000",
"ln":"134.52893000000"
},
"geometry":{
"type":"Point",
"coordinates":[
134.52893,
34.157524
]
}
},
{
"type":"Feature",
"properties":{
"Name":"第一中学校",
"Jusho":"徳島県鳴門市撫養町南浜字浜田37-1",
"Capacity":"429",
"la":"34.17238400000",
"ln":"134.60547800000"
},
"geometry":{
"type":"Point",
"coordinates":[
134.605478,
34.172384
]
}
},
{
"type":"Feature",
"properties":{
"Name":"第二中学校",
"Jusho":"徳島県鳴門市撫養町立岩字原田150",
"Capacity":"295",
"la":"34.17655100000",
"ln":"134.62180900000"
},
"geometry":{
"type":"Point",
"coordinates":[
134.621809,
34.176551
]
}
},
{
"type":"Feature",
"properties":{
"Name":"北灘中学校",
"Jusho":"徳島県鳴門市北灘町大浦字東浦75",
"Capacity":"126",
"la":"34.22379400000",
"ln":"134.52570700000"
},
"geometry":{
"type":"Point",
"coordinates":[
134.525707,
34.223794
]
}
},
{
"type":"Feature",
"properties":{
"Name":"鳴門中学校",
"Jusho":"徳島県鳴門市鳴門町三ツ石字芙蓉山下251",
"Capacity":"273",
"la":"34.20249100000",
"ln":"134.61033800000"
},
"geometry":{
"type":"Point",
"coordinates":[
134.610338,
34.202491
]
}
},
{
"type":"Feature",
"properties":{
"Name":"坂野中学校",
"Jusho":"徳島県小松島市坂野町字根上り37番地",
"Capacity":"－",
"la":"33.98218500000",
"ln":"134.63180400000"
},
"geometry":{
"type":"Point",
"coordinates":[
134.631804,
33.982185
]
}
},
{
"type":"Feature",
"properties":{
"Name":"小松島中学校",
"Jusho":"徳島県小松島市日開野町字弥三次3番地の1",
"Capacity":"－",
"la":"34.00266800000",
"ln":"134.57712300000"
},
"geometry":{
"type":"Point",
"coordinates":[
134.577123,
34.002668
]
}
},
{
"type":"Feature",
"properties":{
"Name":"立江中学校",
"Jusho":"徳島県小松島市立江町字鍋寺36番地",
"Capacity":"－",
"la":"33.96310300000",
"ln":"134.59900800000"
},
"geometry":{
"type":"Point",
"coordinates":[
134.599008,
33.963103
]
}
},
{
"type":"Feature",
"properties":{
"Name":"阿南第一中学校",
"Jusho":"徳島県阿南市長生町西方589-1",
"Capacity":"10650",
"la":"33.92680300000",
"ln":"134.62522700000"
},
"geometry":{
"type":"Point",
"coordinates":[
134.625227,
33.926803
]
}
},
{
"type":"Feature",
"properties":{
"Name":"阿南第二中学校",
"Jusho":"徳島県阿南市内原町竹の内143-1",
"Capacity":"9245",
"la":"33.87678100000",
"ln":"134.62825500000"
},
"geometry":{
"type":"Point",
"coordinates":[
134.628255,
33.876781
]
}
},
{
"type":"Feature",
"properties":{
"Name":"阿南中学校",
"Jusho":"徳島県阿南市見能林町南勘高1",
"Capacity":"11880",
"la":"33.90544400000",
"ln":"134.66433400000"
},
"geometry":{
"type":"Point",
"coordinates":[
134.664334,
33.905444
]
}
},
{
"type":"Feature",
"properties":{
"Name":"伊島中学校",
"Jusho":"徳島県阿南市伊島町瀬戸3",
"Capacity":"1005",
"la":"33.84456300000",
"ln":"134.80915400000"
},
"geometry":{
"type":"Point",
"coordinates":[
134.809154,
33.844563
]
}
},
{
"type":"Feature",
"properties":{
"Name":"羽ノ浦中学校",
"Jusho":"徳島県阿南市羽ノ浦町宮倉沢田154",
"Capacity":"4940",
"la":"33.95367400000",
"ln":"134.61744900000"
},
"geometry":{
"type":"Point",
"coordinates":[
134.617449,
33.953674
]
}
},
{
"type":"Feature",
"properties":{
"Name":"加茂谷中学校",
"Jusho":"徳島県阿南市加茂町南不け1",
"Capacity":"5180",
"la":"33.91402500000",
"ln":"134.55017900000"
},
"geometry":{
"type":"Point",
"coordinates":[
134.550179,
33.914025
]
}
},
{
"type":"Feature",
"properties":{
"Name":"新野中学校",
"Jusho":"徳島県阿南市新野町馬見21",
"Capacity":"8375",
"la":"33.84442300000",
"ln":"134.57981600000"
},
"geometry":{
"type":"Point",
"coordinates":[
134.579816,
33.844423
]
}
},
{
"type":"Feature",
"properties":{
"Name":"椿町中学校",
"Jusho":"徳島県阿南市椿町宮ヶ谷23",
"Capacity":"3085",
"la":"33.83453600000",
"ln":"134.68175000000"
},
"geometry":{
"type":"Point",
"coordinates":[
134.68175,
33.834536
]
}
},
{
"type":"Feature",
"properties":{
"Name":"那賀川中学校",
"Jusho":"徳島県阿南市那賀川町苅屋370-1",
"Capacity":"8370",
"la":"33.94924700000",
"ln":"134.66236600000"
},
"geometry":{
"type":"Point",
"coordinates":[
134.662366,
33.949247
]
}
},
{
"type":"Feature",
"properties":{
"Name":"福井中学校",
"Jusho":"徳島県阿南市福井町大西141",
"Capacity":"3620",
"la":"33.83873000000",
"ln":"134.62333900000"
},
"geometry":{
"type":"Point",
"coordinates":[
134.623339,
33.83873
]
}
},
{
"type":"Feature",
"properties":{
"Name":"鴨島第一中学校",
"Jusho":"徳島県吉野川市鴨島町鴨島633番地2",
"Capacity":"－",
"la":"34.07466300000",
"ln":"134.34867700000"
},
"geometry":{
"type":"Point",
"coordinates":[
134.348677,
34.074663
]
}
},
{
"type":"Feature",
"properties":{
"Name":"鴨島東中学校",
"Jusho":"徳島県吉野川市鴨島町麻植塚215番地3",
"Capacity":"－",
"la":"34.07006300000",
"ln":"134.37494400000"
},
"geometry":{
"type":"Point",
"coordinates":[
134.374944,
34.070063
]
}
},
{
"type":"Feature",
"properties":{
"Name":"山川中学校",
"Jusho":"徳島県吉野川市前川261番地",
"Capacity":"－",
"la":"34.06181500000",
"ln":"134.23369800000"
},
"geometry":{
"type":"Point",
"coordinates":[
134.233698,
34.061815
]
}
},
{
"type":"Feature",
"properties":{
"Name":"美郷中学校",
"Jusho":"徳島県吉野川市字川俣51番地",
"Capacity":"－",
"la":"34.03113441560",
"ln":"134.25616365200"
},
"geometry":{
"type":"Point",
"coordinates":[
134.256163652,
34.0311344156
]
}
},
{
"type":"Feature",
"properties":{
"Name":"阿波中学校",
"Jusho":"徳島県阿波市阿波町東原230",
"Capacity":"－",
"la":"34.08577800000",
"ln":"134.23537600000"
},
"geometry":{
"type":"Point",
"coordinates":[
134.235376,
34.085778
]
}
},
{
"type":"Feature",
"properties":{
"Name":"吉野中学校",
"Jusho":"徳島県阿波市吉野町西条字大西4-1",
"Capacity":"－",
"la":"34.09877800000",
"ln":"134.36989100000"
},
"geometry":{
"type":"Point",
"coordinates":[
134.369891,
34.098778
]
}
},
{
"type":"Feature",
"properties":{
"Name":"市場中学校",
"Jusho":"徳島県阿波市市場町市場字上野段6-3",
"Capacity":"－",
"la":"34.09870500000",
"ln":"134.28725600000"
},
"geometry":{
"type":"Point",
"coordinates":[
134.287256,
34.098705
]
}
},
{
"type":"Feature",
"properties":{
"Name":"土成中学校",
"Jusho":"徳島県阿波市土成町吉田字一本松の二42",
"Capacity":"－",
"la":"34.11393800000",
"ln":"134.34843300000"
},
"geometry":{
"type":"Point",
"coordinates":[
134.348433,
34.113938
]
}
},
{
"type":"Feature",
"properties":{
"Name":"岩倉中学校",
"Jusho":"徳島県美馬市脇町別所3406",
"Capacity":"－",
"la":"34.06059900000",
"ln":"134.10734400000"
},
"geometry":{
"type":"Point",
"coordinates":[
134.107344,
34.060599
]
}
},
{
"type":"Feature",
"properties":{
"Name":"穴吹中学校",
"Jusho":"徳島県美馬市穴吹町穴吹字井口23",
"Capacity":"－",
"la":"34.04380500000",
"ln":"134.16759100000"
},
"geometry":{
"type":"Point",
"coordinates":[
134.167591,
34.043805
]
}
},
{
"type":"Feature",
"properties":{
"Name":"古宮中学校",
"Jusho":"徳島県美馬市穴吹町古宮字長尾557-2",
"Capacity":"－",
"la":"33.96393018750",
"ln":"134.13510127700"
},
"geometry":{
"type":"Point",
"coordinates":[
134.135101277,
33.9639301875
]
}
},
{
"type":"Feature",
"properties":{
"Name":"口山中学校",
"Jusho":"徳島県美馬市穴吹町口山字中野宮740",
"Capacity":"－",
"la":"34.01729879500",
"ln":"134.15316722700"
},
"geometry":{
"type":"Point",
"coordinates":[
134.153167227,
34.017298795
]
}
},
{
"type":"Feature",
"properties":{
"Name":"江原中学校",
"Jusho":"徳島県美馬市脇町字曽江名359-41",
"Capacity":"－",
"la":"34.08911200000",
"ln":"134.17203300000"
},
"geometry":{
"type":"Point",
"coordinates":[
134.172033,
34.089112
]
}
},
{
"type":"Feature",
"properties":{
"Name":"三島中学校",
"Jusho":"徳島県美馬市穴吹町三島字三谷356",
"Capacity":"－",
"la":"34.05539100000",
"ln":"134.12755700000"
},
"geometry":{
"type":"Point",
"coordinates":[
134.127557,
34.055391
]
}
},
{
"type":"Feature",
"properties":{
"Name":"美馬中学校",
"Jusho":"徳島県美馬市美馬町字谷ヨリ西68",
"Capacity":"－",
"la":"34.05209300000",
"ln":"134.04890100000"
},
"geometry":{
"type":"Point",
"coordinates":[
134.048901,
34.052093
]
}
},
{
"type":"Feature",
"properties":{
"Name":"木屋平中学校体育館",
"Jusho":"徳島県美馬市木屋平字川井167",
"Capacity":"－",
"la":"33.93419168310",
"ln":"134.21224255500"
},
"geometry":{
"type":"Point",
"coordinates":[
134.212242555,
33.9341916831
]
}
},
{
"type":"Feature",
"properties":{
"Name":"脇町中学校",
"Jusho":"徳島県美馬市脇町大字猪尻字西ノ久保78",
"Capacity":"－",
"la":"34.07001600000",
"ln":"134.15348100000"
},
"geometry":{
"type":"Point",
"coordinates":[
134.153481,
34.070016
]
}
},
{
"type":"Feature",
"properties":{
"Name":"井川中学校体育館",
"Jusho":"徳島県三好市井川町タクミ田110",
"Capacity":"280",
"la":"34.02908900000",
"ln":"133.86796100000"
},
"geometry":{
"type":"Point",
"coordinates":[
133.867961,
34.029089
]
}
},
{
"type":"Feature",
"properties":{
"Name":"三野中学校",
"Jusho":"徳島県三好市三野町芝生1232",
"Capacity":"500",
"la":"34.04085100000",
"ln":"133.96707200000"
},
"geometry":{
"type":"Point",
"coordinates":[
133.967072,
34.040851
]
}
},
{
"type":"Feature",
"properties":{
"Name":"西祖谷中学校",
"Jusho":"徳島県三好市西祖谷山村一宇251",
"Capacity":"500",
"la":"33.89607800000",
"ln":"133.81513700000"
},
"geometry":{
"type":"Point",
"coordinates":[
133.815137,
33.896078
]
}
},
{
"type":"Feature",
"properties":{
"Name":"池田中学校",
"Jusho":"徳島県三好市池田町ウヱノ2861-2869",
"Capacity":"1500",
"la":"34.03104336220",
"ln":"133.80766826400"
},
"geometry":{
"type":"Point",
"coordinates":[
133.807668264,
34.0310433622
]
}
},
{
"type":"Feature",
"properties":{
"Name":"東祖谷中学校",
"Jusho":"徳島県三好市東祖谷下瀬12-1",
"Capacity":"275",
"la":"33.87472700000",
"ln":"133.92142500000"
},
"geometry":{
"type":"Point",
"coordinates":[
133.921425,
33.874727
]
}
},
{
"type":"Feature",
"properties":{
"Name":"勝浦中学校",
"Jusho":"徳島県勝浦郡勝浦町",
"Capacity":"780",
"la":"33.93354900000",
"ln":"134.51093400000"
},
"geometry":{
"type":"Point",
"coordinates":[
134.510934,
33.933549
]
}
},
{
"type":"Feature",
"properties":{
"Name":"佐那河内中学校",
"Jusho":"徳島県名東郡佐那河内村下字西ノハナ",
"Capacity":"－",
"la":"33.99420800000",
"ln":"134.45824300000"
},
"geometry":{
"type":"Point",
"coordinates":[
134.458243,
33.994208
]
}
},
{
"type":"Feature",
"properties":{
"Name":"高浦中学校",
"Jusho":"徳島県名西郡石井町浦庄字国実100",
"Capacity":"－",
"la":"34.07675300000",
"ln":"134.42108100000"
},
"geometry":{
"type":"Point",
"coordinates":[
134.421081,
34.076753
]
}
},
{
"type":"Feature",
"properties":{
"Name":"石井中学校",
"Jusho":"徳島県名西郡石井町高川原字高川原125-1",
"Capacity":"－",
"la":"34.07444700000",
"ln":"134.43966200000"
},
"geometry":{
"type":"Point",
"coordinates":[
134.439662,
34.074447
]
}
},
{
"type":"Feature",
"properties":{
"Name":"牟岐中学校",
"Jusho":"徳島県海部郡牟岐町川長字市宇谷100",
"Capacity":"－",
"la":"33.67197200000",
"ln":"134.42641600000"
},
"geometry":{
"type":"Point",
"coordinates":[
134.426416,
33.671972
]
}
},
{
"type":"Feature",
"properties":{
"Name":"央喰中学校３階以上",
"Jusho":"徳島県海部郡海陽町",
"Capacity":"－",
"la":"33.57201199910",
"ln":"134.29812400000"
},
"geometry":{
"type":"Point",
"coordinates":[
134.298124,
33.5720119991
]
}
},
{
"type":"Feature",
"properties":{
"Name":"海南中学校",
"Jusho":"徳島県海部郡海陽町",
"Capacity":"－",
"la":"33.60623100000",
"ln":"134.36370100000"
},
"geometry":{
"type":"Point",
"coordinates":[
134.363701,
33.606231
]
}
},
{
"type":"Feature",
"properties":{
"Name":"海部中学校",
"Jusho":"徳島県海部郡海陽町",
"Capacity":"－",
"la":"33.59503800000",
"ln":"134.35722400000"
},
"geometry":{
"type":"Point",
"coordinates":[
134.357224,
33.595038
]
}
},
{
"type":"Feature",
"properties":{
"Name":"松茂中学校",
"Jusho":"徳島県板野郡松茂町笹木野字八山開拓186",
"Capacity":"－",
"la":"34.12924900000",
"ln":"134.58995300000"
},
"geometry":{
"type":"Point",
"coordinates":[
134.589953,
34.129249
]
}
},
{
"type":"Feature",
"properties":{
"Name":"北島中学校",
"Jusho":"徳島県板野郡北島町",
"Capacity":"－",
"la":"34.12409400000",
"ln":"134.54484900000"
},
"geometry":{
"type":"Point",
"coordinates":[
134.544849,
34.124094
]
}
},
{
"type":"Feature",
"properties":{
"Name":"藍住中学校",
"Jusho":"徳島県板野郡藍住町奥野字矢上前18-1",
"Capacity":"－",
"la":"34.12502600000",
"ln":"134.49621200000"
},
"geometry":{
"type":"Point",
"coordinates":[
134.496212,
34.125026
]
}
},
{
"type":"Feature",
"properties":{
"Name":"藍住東中学校",
"Jusho":"徳島県板野郡藍住町住吉字若宮49-1",
"Capacity":"－",
"la":"34.12855400000",
"ln":"134.51062700000"
},
"geometry":{
"type":"Point",
"coordinates":[
134.510627,
34.128554
]
}
},
{
"type":"Feature",
"properties":{
"Name":"板野中学校・武道館",
"Jusho":"徳島県板野郡板野町大寺字郡頭11",
"Capacity":"300",
"la":"34.13999600000",
"ln":"134.46132600000"
},
"geometry":{
"type":"Point",
"coordinates":[
134.461326,
34.139996
]
}
},
{
"type":"Feature",
"properties":{
"Name":"上板中学校",
"Jusho":"徳島県板野郡上板町神宅字西金屋44",
"Capacity":"－",
"la":"34.12516400000",
"ln":"134.41074800000"
},
"geometry":{
"type":"Point",
"coordinates":[
134.410748,
34.125164
]
}
},
{
"type":"Feature",
"properties":{
"Name":"三加茂中学校",
"Jusho":"徳島県三好郡東みよし町西庄字横手51番地",
"Capacity":"－",
"la":"34.04155200000",
"ln":"133.93832400000"
},
"geometry":{
"type":"Point",
"coordinates":[
133.938324,
34.041552
]
}
},
{
"type":"Feature",
"properties":{
"Name":"三好中学校",
"Jusho":"徳島県三好郡東みよし町昼間1893番地",
"Capacity":"－",
"la":"34.03866800000",
"ln":"133.87549300000"
},
"geometry":{
"type":"Point",
"coordinates":[
133.875493,
34.038668
]
}
},
{
"type":"Feature",
"properties":{
"Name":"上分中学校",
"Jusho":"徳島県名西郡神山町上分字川又南255番地",
"Capacity":"290",
"la":"33.95763299760",
"ln":"134.28395701500"
},
"geometry":{
"type":"Point",
"coordinates":[
134.283957015,
33.9576329976
]
}
},
{
"type":"Feature",
"properties":{
"Name":"神山中学校・体育館",
"Jusho":"徳島県名西郡神山町神領字西上角175-1",
"Capacity":"750",
"la":"33.97279200000",
"ln":"134.36280900000"
},
"geometry":{
"type":"Point",
"coordinates":[
134.362809,
33.972792
]
}
},
{
"type":"Feature",
"properties":{
"Name":"神山東中学校・体育館",
"Jusho":"徳島県名西郡神山町阿野字広野22",
"Capacity":"380",
"la":"34.03006400000",
"ln":"134.40383300000"
},
"geometry":{
"type":"Point",
"coordinates":[
134.403833,
34.030064
]
}
},
{
"type":"Feature",
"properties":{
"Name":"貞光中学校",
"Jusho":"徳島県美馬郡つるぎ町中須賀52",
"Capacity":"1000",
"la":"34.03781500000",
"ln":"134.06506200000"
},
"geometry":{
"type":"Point",
"coordinates":[
134.065062,
34.037815
]
}
},
{
"type":"Feature",
"properties":{
"Name":"八千代中学校",
"Jusho":"徳島県美馬郡つるぎ町日開野122",
"Capacity":"400",
"la":"33.99730087770",
"ln":"134.02853494200"
},
"geometry":{
"type":"Point",
"coordinates":[
134.028534942,
33.9973008777
]
}
},
{
"type":"Feature",
"properties":{
"Name":"一宇中学校体育館",
"Jusho":"徳島県美馬郡つるぎ町太刀之本1",
"Capacity":"300",
"la":"33.95162600000",
"ln":"134.06262000000"
},
"geometry":{
"type":"Point",
"coordinates":[
134.06262,
33.951626
]
}
},
{
"type":"Feature",
"properties":{
"Name":"鷲敷中学校",
"Jusho":"徳島県那賀郡那賀町和食郷字南川119番地",
"Capacity":"350",
"la":"33.85750400000",
"ln":"134.49465800000"
},
"geometry":{
"type":"Point",
"coordinates":[
134.494658,
33.857504
]
}
},
{
"type":"Feature",
"properties":{
"Name":"相生中学校",
"Jusho":"徳島県那賀郡那賀町延野字大原100番地",
"Capacity":"350",
"la":"33.82139700000",
"ln":"134.48235400000"
},
"geometry":{
"type":"Point",
"coordinates":[
134.482354,
33.821397
]
}
},
{
"type":"Feature",
"properties":{
"Name":"上那賀中学校",
"Jusho":"徳島県那賀郡那賀町小浜197番地",
"Capacity":"200",
"la":"33.80520500000",
"ln":"134.37287000000"
},
"geometry":{
"type":"Point",
"coordinates":[
134.37287,
33.805205
]
}
},
{
"type":"Feature",
"properties":{
"Name":"木頭小・中学校",
"Jusho":"徳島県那賀郡那賀町木頭和無田字ナカスジ1番地",
"Capacity":"－",
"la":"33.77222700000",
"ln":"134.19820800000"
},
"geometry":{
"type":"Point",
"coordinates":[
134.198208,
33.772227
]
}
}
]
};