var k={
"type":"FeatureCollection",
"features":[
{
"type":"Feature",
"properties":{
"Name":"安東公園",
"Jusho":"静岡県静岡市葵区",
"Capacity":"－",
"la":"34.98531497000",
"ln":"138.38679798000"
},
"geometry":{
"type":"Point",
"coordinates":[
138.38679798,
34.98531497
]
}
},
{
"type":"Feature",
"properties":{
"Name":"駒形第二公園",
"Jusho":"静岡県静岡市葵区",
"Capacity":"－",
"la":"34.96559131000",
"ln":"138.37659637000"
},
"geometry":{
"type":"Point",
"coordinates":[
138.37659637,
34.96559131
]
}
},
{
"type":"Feature",
"properties":{
"Name":"沓谷第一公園",
"Jusho":"静岡県静岡市葵区",
"Capacity":"－",
"la":"34.99413793000",
"ln":"138.40994836000"
},
"geometry":{
"type":"Point",
"coordinates":[
138.40994836,
34.99413793
]
}
},
{
"type":"Feature",
"properties":{
"Name":"沓谷東公園",
"Jusho":"静岡県静岡市葵区",
"Capacity":"－",
"la":"34.99643441000",
"ln":"138.41374442000"
},
"geometry":{
"type":"Point",
"coordinates":[
138.41374442,
34.99643441
]
}
},
{
"type":"Feature",
"properties":{
"Name":"建穂みどり公園",
"Jusho":"静岡県静岡市葵区",
"Capacity":"－",
"la":"34.98804839000",
"ln":"138.33751107000"
},
"geometry":{
"type":"Point",
"coordinates":[
138.33751107,
34.98804839
]
}
},
{
"type":"Feature",
"properties":{
"Name":"今宮公園",
"Jusho":"静岡県静岡市葵区",
"Capacity":"－",
"la":"35.04017052000",
"ln":"138.39441650000"
},
"geometry":{
"type":"Point",
"coordinates":[
138.3944165,
35.04017052
]
}
},
{
"type":"Feature",
"properties":{
"Name":"住吉公園",
"Jusho":"静岡県静岡市葵区",
"Capacity":"－",
"la":"34.97611607000",
"ln":"138.37325803000"
},
"geometry":{
"type":"Point",
"coordinates":[
138.37325803,
34.97611607
]
}
},
{
"type":"Feature",
"properties":{
"Name":"駿府公園",
"Jusho":"静岡県静岡市葵区駿府公園",
"Capacity":"－",
"la":"34.97922000000",
"ln":"138.38324000000"
},
"geometry":{
"type":"Point",
"coordinates":[
138.38324,
34.97922
]
}
},
{
"type":"Feature",
"properties":{
"Name":"城東公園",
"Jusho":"静岡県静岡市葵区",
"Capacity":"－",
"la":"34.98454675000",
"ln":"138.38901824000"
},
"geometry":{
"type":"Point",
"coordinates":[
138.38901824,
34.98454675
]
}
},
{
"type":"Feature",
"properties":{
"Name":"城北公園",
"Jusho":"静岡県静岡市葵区大岩本町",
"Capacity":"－",
"la":"34.98940678000",
"ln":"138.37855601000"
},
"geometry":{
"type":"Point",
"coordinates":[
138.37855601,
34.98940678
]
}
},
{
"type":"Feature",
"properties":{
"Name":"常磐公園",
"Jusho":"静岡県静岡市葵区",
"Capacity":"－",
"la":"34.97006015000",
"ln":"138.38037162000"
},
"geometry":{
"type":"Point",
"coordinates":[
138.38037162,
34.97006015
]
}
},
{
"type":"Feature",
"properties":{
"Name":"新通公園",
"Jusho":"静岡県静岡市葵区",
"Capacity":"－",
"la":"34.96894605000",
"ln":"138.37657022000"
},
"geometry":{
"type":"Point",
"coordinates":[
138.37657022,
34.96894605
]
}
},
{
"type":"Feature",
"properties":{
"Name":"新幕公園",
"Jusho":"静岡県静岡市葵区",
"Capacity":"－",
"la":"35.02802977000",
"ln":"138.42459093000"
},
"geometry":{
"type":"Point",
"coordinates":[
138.42459093,
35.02802977
]
}
},
{
"type":"Feature",
"properties":{
"Name":"瀬名川西公園",
"Jusho":"静岡県静岡市葵区",
"Capacity":"－",
"la":"35.00230366000",
"ln":"138.42372450000"
},
"geometry":{
"type":"Point",
"coordinates":[
138.4237245,
35.00230366
]
}
},
{
"type":"Feature",
"properties":{
"Name":"清水山公園",
"Jusho":"静岡県静岡市葵区",
"Capacity":"－",
"la":"34.98037722000",
"ln":"138.39551213000"
},
"geometry":{
"type":"Point",
"coordinates":[
138.39551213,
34.98037722
]
}
},
{
"type":"Feature",
"properties":{
"Name":"西草深公園",
"Jusho":"静岡県静岡市葵区",
"Capacity":"－",
"la":"34.98343382000",
"ln":"138.37692207000"
},
"geometry":{
"type":"Point",
"coordinates":[
138.37692207,
34.98343382
]
}
},
{
"type":"Feature",
"properties":{
"Name":"青木の杜公園",
"Jusho":"静岡県静岡市葵区",
"Capacity":"－",
"la":"34.98780674000",
"ln":"138.39030429000"
},
"geometry":{
"type":"Point",
"coordinates":[
138.39030429,
34.98780674
]
}
},
{
"type":"Feature",
"properties":{
"Name":"川合本田公園",
"Jusho":"静岡県静岡市葵区",
"Capacity":"－",
"la":"35.00131997000",
"ln":"138.41350892000"
},
"geometry":{
"type":"Point",
"coordinates":[
138.41350892,
35.00131997
]
}
},
{
"type":"Feature",
"properties":{
"Name":"鷹匠公園",
"Jusho":"静岡県静岡市葵区",
"Capacity":"－",
"la":"34.98000639000",
"ln":"138.39074106000"
},
"geometry":{
"type":"Point",
"coordinates":[
138.39074106,
34.98000639
]
}
},
{
"type":"Feature",
"properties":{
"Name":"伝馬公園",
"Jusho":"静岡県静岡市葵区",
"Capacity":"－",
"la":"34.97438144000",
"ln":"138.39021794000"
},
"geometry":{
"type":"Point",
"coordinates":[
138.39021794,
34.97438144
]
}
},
{
"type":"Feature",
"properties":{
"Name":"田町公園",
"Jusho":"静岡県静岡市葵区",
"Capacity":"－",
"la":"34.97085674000",
"ln":"138.36690057000"
},
"geometry":{
"type":"Point",
"coordinates":[
138.36690057,
34.97085674
]
}
},
{
"type":"Feature",
"properties":{
"Name":"南安倍公園",
"Jusho":"静岡県静岡市葵区",
"Capacity":"－",
"la":"34.95867608000",
"ln":"138.37522351000"
},
"geometry":{
"type":"Point",
"coordinates":[
138.37522351,
34.95867608
]
}
},
{
"type":"Feature",
"properties":{
"Name":"北才光寺公園",
"Jusho":"静岡県静岡市葵区",
"Capacity":"－",
"la":"35.04197585000",
"ln":"138.39993755000"
},
"geometry":{
"type":"Point",
"coordinates":[
138.39993755,
35.04197585
]
}
},
{
"type":"Feature",
"properties":{
"Name":"北大門公園",
"Jusho":"静岡県静岡市葵区",
"Capacity":"－",
"la":"35.03536825000",
"ln":"138.39771360000"
},
"geometry":{
"type":"Point",
"coordinates":[
138.3977136,
35.03536825
]
}
},
{
"type":"Feature",
"properties":{
"Name":"牧ヶ谷北公園",
"Jusho":"静岡県静岡市葵区",
"Capacity":"－",
"la":"34.97277236000",
"ln":"138.34736409000"
},
"geometry":{
"type":"Point",
"coordinates":[
138.34736409,
34.97277236
]
}
},
{
"type":"Feature",
"properties":{
"Name":"竜南雨坪公園",
"Jusho":"静岡県静岡市葵区",
"Capacity":"－",
"la":"35.00033704000",
"ln":"138.40139953000"
},
"geometry":{
"type":"Point",
"coordinates":[
138.40139953,
35.00033704
]
}
},
{
"type":"Feature",
"properties":{
"Name":"みずほなかよし公園",
"Jusho":"静岡県静岡市駿河区",
"Capacity":"－",
"la":"34.94182210000",
"ln":"138.36935438000"
},
"geometry":{
"type":"Point",
"coordinates":[
138.36935438,
34.9418221
]
}
},
{
"type":"Feature",
"properties":{
"Name":"みずほ公園",
"Jusho":"静岡県静岡市駿河区",
"Capacity":"－",
"la":"34.93870234000",
"ln":"138.36587805000"
},
"geometry":{
"type":"Point",
"coordinates":[
138.36587805,
34.93870234
]
}
},
{
"type":"Feature",
"properties":{
"Name":"下川原公園",
"Jusho":"静岡県静岡市駿河区",
"Capacity":"－",
"la":"34.93292546000",
"ln":"138.37716821000"
},
"geometry":{
"type":"Point",
"coordinates":[
138.37716821,
34.93292546
]
}
},
{
"type":"Feature",
"properties":{
"Name":"下川原東公園",
"Jusho":"静岡県静岡市駿河区",
"Capacity":"－",
"la":"34.93672528000",
"ln":"138.38241206000"
},
"geometry":{
"type":"Point",
"coordinates":[
138.38241206,
34.93672528
]
}
},
{
"type":"Feature",
"properties":{
"Name":"丸子尻高公園",
"Jusho":"静岡県静岡市駿河区",
"Capacity":"－",
"la":"34.94638954000",
"ln":"138.35279342000"
},
"geometry":{
"type":"Point",
"coordinates":[
138.35279342,
34.94638954
]
}
},
{
"type":"Feature",
"properties":{
"Name":"戸斗前公園",
"Jusho":"静岡県静岡市駿河区",
"Capacity":"－",
"la":"34.95112971000",
"ln":"138.34620285000"
},
"geometry":{
"type":"Point",
"coordinates":[
138.34620285,
34.95112971
]
}
},
{
"type":"Feature",
"properties":{
"Name":"広野公園",
"Jusho":"静岡県静岡市駿河区",
"Capacity":"－",
"la":"34.93256411000",
"ln":"138.36663971000"
},
"geometry":{
"type":"Point",
"coordinates":[
138.36663971,
34.93256411
]
}
},
{
"type":"Feature",
"properties":{
"Name":"高松公園",
"Jusho":"静岡県静岡市駿河区",
"Capacity":"－",
"la":"34.95360196000",
"ln":"138.41581773000"
},
"geometry":{
"type":"Point",
"coordinates":[
138.41581773,
34.95360196
]
}
},
{
"type":"Feature",
"properties":{
"Name":"高松神明原公園",
"Jusho":"静岡県静岡市駿河区",
"Capacity":"－",
"la":"34.95188032000",
"ln":"138.42170642000"
},
"geometry":{
"type":"Point",
"coordinates":[
138.42170642,
34.95188032
]
}
},
{
"type":"Feature",
"properties":{
"Name":"小鹿公園",
"Jusho":"静岡県静岡市駿河区",
"Capacity":"－",
"la":"34.97188131000",
"ln":"138.42724355000"
},
"geometry":{
"type":"Point",
"coordinates":[
138.42724355,
34.97188131
]
}
},
{
"type":"Feature",
"properties":{
"Name":"新川公園",
"Jusho":"静岡県静岡市駿河区",
"Capacity":"－",
"la":"34.96152696600",
"ln":"138.38691357500"
},
"geometry":{
"type":"Point",
"coordinates":[
138.386913575,
34.961526966
]
}
},
{
"type":"Feature",
"properties":{
"Name":"森下公園",
"Jusho":"静岡県静岡市駿河区",
"Capacity":"－",
"la":"34.97013638000",
"ln":"138.39371739000"
},
"geometry":{
"type":"Point",
"coordinates":[
138.39371739,
34.97013638
]
}
},
{
"type":"Feature",
"properties":{
"Name":"草薙総合運動公園",
"Jusho":"静岡県静岡市駿河区",
"Capacity":"－",
"la":"34.98951000000",
"ln":"138.43012400000"
},
"geometry":{
"type":"Point",
"coordinates":[
138.430124,
34.98951
]
}
},
{
"type":"Feature",
"properties":{
"Name":"池田公園",
"Jusho":"静岡県静岡市駿河区",
"Capacity":"－",
"la":"34.98095928000",
"ln":"138.42176708000"
},
"geometry":{
"type":"Point",
"coordinates":[
138.42176708,
34.98095928
]
}
},
{
"type":"Feature",
"properties":{
"Name":"池田島崎公園",
"Jusho":"静岡県静岡市駿河区",
"Capacity":"－",
"la":"34.97895256000",
"ln":"138.42490638000"
},
"geometry":{
"type":"Point",
"coordinates":[
138.42490638,
34.97895256
]
}
},
{
"type":"Feature",
"properties":{
"Name":"中吉田公園",
"Jusho":"静岡県静岡市駿河区",
"Capacity":"－",
"la":"34.99739468000",
"ln":"138.43709961000"
},
"geometry":{
"type":"Point",
"coordinates":[
138.43709961,
34.99739468
]
}
},
{
"type":"Feature",
"properties":{
"Name":"中原スポーツ公園広場安倍川（左岸）",
"Jusho":"静岡県静岡市駿河区緑が丘町",
"Capacity":"－",
"la":"34.95459082110",
"ln":"138.37858821300"
},
"geometry":{
"type":"Point",
"coordinates":[
138.378588213,
34.9545908211
]
}
},
{
"type":"Feature",
"properties":{
"Name":"中原桔梗公園",
"Jusho":"静岡県静岡市駿河区",
"Capacity":"－",
"la":"34.95471795000",
"ln":"138.38832534000"
},
"geometry":{
"type":"Point",
"coordinates":[
138.38832534,
34.95471795
]
}
},
{
"type":"Feature",
"properties":{
"Name":"登呂公園",
"Jusho":"静岡県静岡市駿河区",
"Capacity":"－",
"la":"34.95610076000",
"ln":"138.40807531000"
},
"geometry":{
"type":"Point",
"coordinates":[
138.40807531,
34.95610076
]
}
},
{
"type":"Feature",
"properties":{
"Name":"東新田公園",
"Jusho":"静岡県静岡市駿河区",
"Capacity":"－",
"la":"34.94403029000",
"ln":"138.37863948000"
},
"geometry":{
"type":"Point",
"coordinates":[
138.37863948,
34.94403029
]
}
},
{
"type":"Feature",
"properties":{
"Name":"南安倍スポーツ公園広場（左岸）",
"Jusho":"静岡県静岡市駿河区南安倍三丁目",
"Capacity":"－",
"la":"34.95754229370",
"ln":"138.37394220700"
},
"geometry":{
"type":"Point",
"coordinates":[
138.373942207,
34.9575422937
]
}
},
{
"type":"Feature",
"properties":{
"Name":"八幡山公園",
"Jusho":"静岡県静岡市駿河区",
"Capacity":"－",
"la":"34.97023803000",
"ln":"138.40144938000"
},
"geometry":{
"type":"Point",
"coordinates":[
138.40144938,
34.97023803
]
}
},
{
"type":"Feature",
"properties":{
"Name":"片山公園",
"Jusho":"静岡県静岡市駿河区",
"Capacity":"－",
"la":"34.96671730000",
"ln":"138.42901578000"
},
"geometry":{
"type":"Point",
"coordinates":[
138.42901578,
34.9667173
]
}
},
{
"type":"Feature",
"properties":{
"Name":"月見公園",
"Jusho":"静岡県静岡市清水区",
"Capacity":"－",
"la":"35.00342546910",
"ln":"138.48012577000"
},
"geometry":{
"type":"Point",
"coordinates":[
138.48012577,
35.0034254691
]
}
},
{
"type":"Feature",
"properties":{
"Name":"桜が丘公園",
"Jusho":"静岡県静岡市清水区桜が丘町300",
"Capacity":"－",
"la":"35.01125223310",
"ln":"138.47558286900"
},
"geometry":{
"type":"Point",
"coordinates":[
138.475582869,
35.0112522331
]
}
},
{
"type":"Feature",
"properties":{
"Name":"秋葉山公園",
"Jusho":"静岡県静岡市清水区江尻",
"Capacity":"－",
"la":"35.03600303000",
"ln":"138.48205616000"
},
"geometry":{
"type":"Point",
"coordinates":[
138.48205616,
35.03600303
]
}
},
{
"type":"Feature",
"properties":{
"Name":"清水清見潟公園スポーツセンター",
"Jusho":"静岡県静岡市清水区横砂408-38",
"Capacity":"266",
"la":"35.03785531310",
"ln":"138.50064621800"
},
"geometry":{
"type":"Point",
"coordinates":[
138.500646218,
35.0378553131
]
}
},
{
"type":"Feature",
"properties":{
"Name":"清水船越堤公園",
"Jusho":"静岡県静岡市清水区船越497",
"Capacity":"－",
"la":"34.99822722000",
"ln":"138.46624523000"
},
"geometry":{
"type":"Point",
"coordinates":[
138.46624523,
34.99822722
]
}
},
{
"type":"Feature",
"properties":{
"Name":"清水日本平運動公園",
"Jusho":"静岡県静岡市清水区清水",
"Capacity":"－",
"la":"34.98483819000",
"ln":"138.47971259000"
},
"geometry":{
"type":"Point",
"coordinates":[
138.47971259,
34.98483819
]
}
},
{
"type":"Feature",
"properties":{
"Name":"忠霊塔公園",
"Jusho":"静岡県静岡市清水区",
"Capacity":"－",
"la":"34.97790384000",
"ln":"138.49261591000"
},
"geometry":{
"type":"Point",
"coordinates":[
138.49261591,
34.97790384
]
}
},
{
"type":"Feature",
"properties":{
"Name":"高丘公園広域避難地",
"Jusho":"静岡県浜松市中区高丘東1丁目4番地",
"Capacity":"－",
"la":"34.75406000000",
"ln":"137.70827300000"
},
"geometry":{
"type":"Point",
"coordinates":[
137.708273,
34.75406
]
}
},
{
"type":"Feature",
"properties":{
"Name":"四ツ池公園広域避難地",
"Jusho":"静岡県浜松市中区上島6丁目19番1号",
"Capacity":"－",
"la":"34.74353458300",
"ln":"137.73475273700"
},
"geometry":{
"type":"Point",
"coordinates":[
137.734752737,
34.743534583
]
}
},
{
"type":"Feature",
"properties":{
"Name":"船越公園広域避難地",
"Jusho":"静岡県浜松市中区船越町428番地の3",
"Capacity":"－",
"la":"34.71930852560",
"ln":"137.74925308000"
},
"geometry":{
"type":"Point",
"coordinates":[
137.74925308,
34.7193085256
]
}
},
{
"type":"Feature",
"properties":{
"Name":"浜松城公園広域避難地",
"Jusho":"静岡県浜松市中区元城町103番地の2ほか",
"Capacity":"－",
"la":"34.71277726890",
"ln":"137.72461070800"
},
"geometry":{
"type":"Point",
"coordinates":[
137.724610708,
34.7127772689
]
}
},
{
"type":"Feature",
"properties":{
"Name":"和地山公園広域避難地",
"Jusho":"静岡県浜松市中区和地山2丁目10番",
"Capacity":"－",
"la":"34.72783904750",
"ln":"137.71771616300"
},
"geometry":{
"type":"Point",
"coordinates":[
137.717716163,
34.7278390475
]
}
},
{
"type":"Feature",
"properties":{
"Name":"安間川公園広域避難地",
"Jusho":"静岡県浜松市東区安新町181番地の2",
"Capacity":"－",
"la":"34.73082769250",
"ln":"137.78617131700"
},
"geometry":{
"type":"Point",
"coordinates":[
137.786171317,
34.7308276925
]
}
},
{
"type":"Feature",
"properties":{
"Name":"稲荷山公園",
"Jusho":"静岡県浜松市西区舞阪町舞阪5167",
"Capacity":"－",
"la":"34.68482798720",
"ln":"137.61826646300"
},
"geometry":{
"type":"Point",
"coordinates":[
137.618266463,
34.6848279872
]
}
},
{
"type":"Feature",
"properties":{
"Name":"西野島浦公園",
"Jusho":"静岡県浜松市西区舞阪町弁天島2658-103",
"Capacity":"－",
"la":"34.69197482000",
"ln":"137.60410546000"
},
"geometry":{
"type":"Point",
"coordinates":[
137.60410546,
34.69197482
]
}
},
{
"type":"Feature",
"properties":{
"Name":"表浜東公園",
"Jusho":"静岡県浜松市西区舞阪町舞阪2668-25",
"Capacity":"－",
"la":"34.67898490990",
"ln":"137.60662506200"
},
"geometry":{
"type":"Point",
"coordinates":[
137.606625062,
34.6789849099
]
}
},
{
"type":"Feature",
"properties":{
"Name":"可美公園広域避難地",
"Jusho":"静岡県浜松市南区増楽町920番地の2",
"Capacity":"－",
"la":"34.68670844050",
"ln":"137.69542367400"
},
"geometry":{
"type":"Point",
"coordinates":[
137.695423674,
34.6867084405
]
}
},
{
"type":"Feature",
"properties":{
"Name":"三島楊子公園広域避難地",
"Jusho":"静岡県浜松市南区三島町528番地",
"Capacity":"－",
"la":"34.69234879170",
"ln":"137.74278394600"
},
"geometry":{
"type":"Point",
"coordinates":[
137.742783946,
34.6923487917
]
}
},
{
"type":"Feature",
"properties":{
"Name":"飯田公園広域避難地",
"Jusho":"静岡県浜松市南区大塚町1876番地の1",
"Capacity":"－",
"la":"34.70028377030",
"ln":"137.78357613300"
},
"geometry":{
"type":"Point",
"coordinates":[
137.783576133,
34.7002837703
]
}
},
{
"type":"Feature",
"properties":{
"Name":"芳川公園広域避難地",
"Jusho":"静岡県浜松市南区芳川町3093番地の1",
"Capacity":"－",
"la":"34.69460945640",
"ln":"137.76384488700"
},
"geometry":{
"type":"Point",
"coordinates":[
137.763844887,
34.6946094564
]
}
},
{
"type":"Feature",
"properties":{
"Name":"船明ダム運動公園",
"Jusho":"静岡県浜松市天竜区船明2649",
"Capacity":"－",
"la":"34.88914982000",
"ln":"137.81447844000"
},
"geometry":{
"type":"Point",
"coordinates":[
137.81447844,
34.88914982
]
}
},
{
"type":"Feature",
"properties":{
"Name":"我入道公園",
"Jusho":"静岡県沼津市我入道林町地内",
"Capacity":"－",
"la":"35.07522982000",
"ln":"138.86147457000"
},
"geometry":{
"type":"Point",
"coordinates":[
138.86147457,
35.07522982
]
}
},
{
"type":"Feature",
"properties":{
"Name":"山王公園",
"Jusho":"静岡県沼津市平町7-24",
"Capacity":"－",
"la":"35.10105244000",
"ln":"138.86887021000"
},
"geometry":{
"type":"Point",
"coordinates":[
138.86887021,
35.10105244
]
}
},
{
"type":"Feature",
"properties":{
"Name":"駿河台公園",
"Jusho":"静岡県沼津市駿河台15",
"Capacity":"－",
"la":"35.12768999910",
"ln":"138.85973000000"
},
"geometry":{
"type":"Point",
"coordinates":[
138.85973,
35.1276899991
]
}
},
{
"type":"Feature",
"properties":{
"Name":"中央公園",
"Jusho":"静岡県沼津市大手町4丁目185-4",
"Capacity":"－",
"la":"35.09895093000",
"ln":"138.85953298000"
},
"geometry":{
"type":"Point",
"coordinates":[
138.85953298,
35.09895093
]
}
},
{
"type":"Feature",
"properties":{
"Name":"豊町公園",
"Jusho":"静岡県沼津市豊町7",
"Capacity":"－",
"la":"35.13008600000",
"ln":"138.86239824000"
},
"geometry":{
"type":"Point",
"coordinates":[
138.86239824,
35.130086
]
}
},
{
"type":"Feature",
"properties":{
"Name":"泉公園",
"Jusho":"静岡県熱海市泉68番地の1",
"Capacity":"－",
"la":"35.14240689910",
"ln":"139.07880392000"
},
"geometry":{
"type":"Point",
"coordinates":[
139.07880392,
35.1424068991
]
}
},
{
"type":"Feature",
"properties":{
"Name":"外神東公園",
"Jusho":"静岡県富士宮市",
"Capacity":"－",
"la":"35.26028406000",
"ln":"138.61085857000"
},
"geometry":{
"type":"Point",
"coordinates":[
138.61085857,
35.26028406
]
}
},
{
"type":"Feature",
"properties":{
"Name":"城山公園",
"Jusho":"静岡県富士宮市",
"Capacity":"－",
"la":"35.22963500000",
"ln":"138.61458800000"
},
"geometry":{
"type":"Point",
"coordinates":[
138.614588,
35.229635
]
}
},
{
"type":"Feature",
"properties":{
"Name":"神田川南公園",
"Jusho":"静岡県富士宮市",
"Capacity":"－",
"la":"35.22111171000",
"ln":"138.60697853000"
},
"geometry":{
"type":"Point",
"coordinates":[
138.60697853,
35.22111171
]
}
},
{
"type":"Feature",
"properties":{
"Name":"神田川北公園",
"Jusho":"静岡県富士宮市",
"Capacity":"－",
"la":"35.22345806000",
"ln":"138.60650727000"
},
"geometry":{
"type":"Point",
"coordinates":[
138.60650727,
35.22345806
]
}
},
{
"type":"Feature",
"properties":{
"Name":"白尾山公園",
"Jusho":"静岡県富士宮市",
"Capacity":"－",
"la":"35.21295711000",
"ln":"138.60112182200"
},
"geometry":{
"type":"Point",
"coordinates":[
138.601121822,
35.21295711
]
}
},
{
"type":"Feature",
"properties":{
"Name":"万野公園グラウンド",
"Jusho":"静岡県富士宮市",
"Capacity":"－",
"la":"35.25258024340",
"ln":"138.63317638600"
},
"geometry":{
"type":"Point",
"coordinates":[
138.633176386,
35.2525802434
]
}
},
{
"type":"Feature",
"properties":{
"Name":"淀川中公園",
"Jusho":"静岡県富士宮市",
"Capacity":"－",
"la":"35.23201460000",
"ln":"138.60193605000"
},
"geometry":{
"type":"Point",
"coordinates":[
138.60193605,
35.2320146
]
}
},
{
"type":"Feature",
"properties":{
"Name":"淀川北公園",
"Jusho":"静岡県富士宮市",
"Capacity":"－",
"la":"35.23365959000",
"ln":"138.60177896000"
},
"geometry":{
"type":"Point",
"coordinates":[
138.60177896,
35.23365959
]
}
},
{
"type":"Feature",
"properties":{
"Name":"横井運動場公園",
"Jusho":"静岡県島田市横井町地先",
"Capacity":"20500",
"la":"34.82505320000",
"ln":"138.17436982000"
},
"geometry":{
"type":"Point",
"coordinates":[
138.17436982,
34.8250532
]
}
},
{
"type":"Feature",
"properties":{
"Name":"岸スポーツ公園",
"Jusho":"静岡県島田市",
"Capacity":"4000",
"la":"34.84362081890",
"ln":"138.20953948500"
},
"geometry":{
"type":"Point",
"coordinates":[
138.209539485,
34.8436208189
]
}
},
{
"type":"Feature",
"properties":{
"Name":"菊神公園",
"Jusho":"静岡県島田市神谷城1457-2",
"Capacity":"4500",
"la":"34.80893227330",
"ln":"138.11438250400"
},
"geometry":{
"type":"Point",
"coordinates":[
138.114382504,
34.8089322733
]
}
},
{
"type":"Feature",
"properties":{
"Name":"元島田公園",
"Jusho":"静岡県島田市元島田9030-1",
"Capacity":"2000",
"la":"34.83939911000",
"ln":"138.18395211000"
},
"geometry":{
"type":"Point",
"coordinates":[
138.18395211,
34.83939911
]
}
},
{
"type":"Feature",
"properties":{
"Name":"夢づくり公園",
"Jusho":"静岡県島田市",
"Capacity":"1500",
"la":"34.84230108340",
"ln":"138.12545450700"
},
"geometry":{
"type":"Point",
"coordinates":[
138.125454507,
34.8423010834
]
}
},
{
"type":"Feature",
"properties":{
"Name":"扇町公園",
"Jusho":"静岡県島田市扇町7-1",
"Capacity":"1000",
"la":"34.83493275000",
"ln":"138.17343516000"
},
"geometry":{
"type":"Point",
"coordinates":[
138.17343516,
34.83493275
]
}
},
{
"type":"Feature",
"properties":{
"Name":"大井川公園",
"Jusho":"静岡県島田市稲荷町",
"Capacity":"4000",
"la":"34.83828399960",
"ln":"138.14721261700"
},
"geometry":{
"type":"Point",
"coordinates":[
138.147212617,
34.8382839996
]
}
},
{
"type":"Feature",
"properties":{
"Name":"中央小公園",
"Jusho":"静岡県島田市中央町",
"Capacity":"4500",
"la":"34.83745000000",
"ln":"138.17700000000"
},
"geometry":{
"type":"Point",
"coordinates":[
138.177,
34.83745
]
}
},
{
"type":"Feature",
"properties":{
"Name":"中溝公園",
"Jusho":"静岡県島田市中溝4-15-1",
"Capacity":"2000",
"la":"34.83609317000",
"ln":"138.17156583000"
},
"geometry":{
"type":"Point",
"coordinates":[
138.17156583,
34.83609317
]
}
},
{
"type":"Feature",
"properties":{
"Name":"雁公園",
"Jusho":"静岡県富士市",
"Capacity":"14500",
"la":"35.15874506000",
"ln":"138.63417717000"
},
"geometry":{
"type":"Point",
"coordinates":[
138.63417717,
35.15874506
]
}
},
{
"type":"Feature",
"properties":{
"Name":"原田公園",
"Jusho":"静岡県富士市",
"Capacity":"25000",
"la":"35.17088265910",
"ln":"138.70399147000"
},
"geometry":{
"type":"Point",
"coordinates":[
138.70399147,
35.1708826591
]
}
},
{
"type":"Feature",
"properties":{
"Name":"広見公園",
"Jusho":"静岡県富士市",
"Capacity":"68000",
"la":"35.18580125000",
"ln":"138.67815062000"
},
"geometry":{
"type":"Point",
"coordinates":[
138.67815062,
35.18580125
]
}
},
{
"type":"Feature",
"properties":{
"Name":"富士西公園",
"Jusho":"静岡県富士市",
"Capacity":"18000",
"la":"35.20111218000",
"ln":"138.64847385000"
},
"geometry":{
"type":"Point",
"coordinates":[
138.64847385,
35.20111218
]
}
},
{
"type":"Feature",
"properties":{
"Name":"寺島河川敷公園",
"Jusho":"静岡県藤枝市寺島850-1",
"Capacity":"6900",
"la":"34.88475653000",
"ln":"138.21493033000"
},
"geometry":{
"type":"Point",
"coordinates":[
138.21493033,
34.88475653
]
}
},
{
"type":"Feature",
"properties":{
"Name":"大谷川公園",
"Jusho":"静岡県藤枝市音羽町6-15",
"Capacity":"2400",
"la":"34.87732009000",
"ln":"138.23660448000"
},
"geometry":{
"type":"Point",
"coordinates":[
138.23660448,
34.87732009
]
}
},
{
"type":"Feature",
"properties":{
"Name":"中央公園",
"Jusho":"静岡県御殿場市萩原754-5",
"Capacity":"－",
"la":"35.30609000000",
"ln":"138.92722000000"
},
"geometry":{
"type":"Point",
"coordinates":[
138.92722,
35.30609
]
}
},
{
"type":"Feature",
"properties":{
"Name":"東田中富士見公園",
"Jusho":"静岡県御殿場市東田中1丁目19-23",
"Capacity":"－",
"la":"35.30463918000",
"ln":"138.94025625000"
},
"geometry":{
"type":"Point",
"coordinates":[
138.94025625,
35.30463918
]
}
},
{
"type":"Feature",
"properties":{
"Name":"馬車道公園",
"Jusho":"静岡県御殿場市二枚橋38-1",
"Capacity":"－",
"la":"35.30435445000",
"ln":"138.93505693000"
},
"geometry":{
"type":"Point",
"coordinates":[
138.93505693,
35.30435445
]
}
},
{
"type":"Feature",
"properties":{
"Name":"小笠山総合運動公園",
"Jusho":"静岡県袋井市愛野2300-1",
"Capacity":"4227",
"la":"34.74925343000",
"ln":"137.97843904000"
},
"geometry":{
"type":"Point",
"coordinates":[
137.97843904,
34.74925343
]
}
},
{
"type":"Feature",
"properties":{
"Name":"下田公園",
"Jusho":"静岡県下田市3丁目19-1",
"Capacity":"－",
"la":"34.66828311000",
"ln":"138.94526079000"
},
"geometry":{
"type":"Point",
"coordinates":[
138.94526079,
34.66828311
]
}
},
{
"type":"Feature",
"properties":{
"Name":"中村中央公園",
"Jusho":"静岡県下田市西中20",
"Capacity":"－",
"la":"34.68824000000",
"ln":"138.94267000000"
},
"geometry":{
"type":"Point",
"coordinates":[
138.94267,
34.68824
]
}
},
{
"type":"Feature",
"properties":{
"Name":"中村東公園",
"Jusho":"静岡県下田市東中14",
"Capacity":"－",
"la":"34.68800000000",
"ln":"138.94644000000"
},
"geometry":{
"type":"Point",
"coordinates":[
138.94644,
34.688
]
}
},
{
"type":"Feature",
"properties":{
"Name":"敷根公園",
"Jusho":"静岡県下田市敷根780",
"Capacity":"－",
"la":"34.68185273000",
"ln":"138.93196206000"
},
"geometry":{
"type":"Point",
"coordinates":[
138.93196206,
34.68185273
]
}
},
{
"type":"Feature",
"properties":{
"Name":"地頭方公園",
"Jusho":"静岡県牧之原市地頭方1丁目42",
"Capacity":"－",
"la":"34.63535364000",
"ln":"138.19164023000"
},
"geometry":{
"type":"Point",
"coordinates":[
138.19164023,
34.63535364
]
}
},
{
"type":"Feature",
"properties":{
"Name":"片瀬中之瀬公園",
"Jusho":"静岡県賀茂郡東伊豆町片瀬584-1",
"Capacity":"－",
"la":"34.80468822910",
"ln":"139.06082917000"
},
"geometry":{
"type":"Point",
"coordinates":[
139.06082917,
34.8046882291
]
}
},
{
"type":"Feature",
"properties":{
"Name":"農村公園",
"Jusho":"静岡県賀茂郡松崎町",
"Capacity":"－",
"la":"34.75459976390",
"ln":"138.86013114400"
},
"geometry":{
"type":"Point",
"coordinates":[
138.860131144,
34.7545997639
]
}
},
{
"type":"Feature",
"properties":{
"Name":"総合運動公園",
"Jusho":"静岡県駿東郡清水町伏見52-17",
"Capacity":"5900",
"la":"35.11087800000",
"ln":"138.90170000000"
},
"geometry":{
"type":"Point",
"coordinates":[
138.9017,
35.110878
]
}
},
{
"type":"Feature",
"properties":{
"Name":"金時公園",
"Jusho":"静岡県駿東郡小山町中島225-1",
"Capacity":"60",
"la":"35.36914717390",
"ln":"138.98602304200"
},
"geometry":{
"type":"Point",
"coordinates":[
138.986023042,
35.3691471739
]
}
},
{
"type":"Feature",
"properties":{
"Name":"八千代公園（池新田）",
"Jusho":"静岡県御前崎市池新田5623",
"Capacity":"－",
"la":"34.636655",
"ln":"138.127432"
},
"geometry":{
"type":"Point",
"coordinates":[
138.127432,
34.636655
]
}
},
{
"type":"Feature",
"properties":{
"Name":"御前崎公園広場（御前崎）",
"Jusho":"静岡県御前崎市御前崎2905-1",
"Capacity":"－",
"la":"34.602958",
"ln":"138.214652"
},
"geometry":{
"type":"Point",
"coordinates":[
138.214652,
34.602958
]
}
}
]
};