var o={
"type": "FeatureCollection",
"features": [
{
"type": "Feature",
"properties": {
"Name": "リンク西奈（西奈生涯学習センター）",
"Jusho": "静岡県静岡市葵区瀬名2-32-43",
"Capacity": "200",
"la": "35.01756599910",
"ln": "138.42281300000"
},
"geometry": {
"type": "Point",
"coordinates": [
138.422813,
35.0175659991
]
}
},
{
"type": "Feature",
"properties": {
"Name": "安東幼稚園",
"Jusho": "静岡県静岡市葵区安東3-11-17",
"Capacity": "200",
"la": "34.99157100000",
"ln": "138.38405000000"
},
"geometry": {
"type": "Point",
"coordinates": [
138.38405,
34.991571
]
}
},
{
"type": "Feature",
"properties": {
"Name": "安倍口スポーツ広場",
"Jusho": "静岡県静岡市葵区安倍口地先安倍川河川敷",
"Capacity": "－",
"la": "35.02002345720",
"ln": "138.36595429900"
},
"geometry": {
"type": "Point",
"coordinates": [
138.365954299,
35.0200234572
]
}
},
{
"type": "Feature",
"properties": {
"Name": "安倍口保育園",
"Jusho": "静岡県静岡市葵区安倍口団地3-1",
"Capacity": "200",
"la": "35.02037300000",
"ln": "138.36458000000"
},
"geometry": {
"type": "Point",
"coordinates": [
138.36458,
35.020373
]
}
},
{
"type": "Feature",
"properties": {
"Name": "井川幼稚園",
"Jusho": "静岡県静岡市葵区井川548-1",
"Capacity": "66",
"la": "35.22131600000",
"ln": "138.23864200000"
},
"geometry": {
"type": "Point",
"coordinates": [
138.238642,
35.221316
]
}
},
{
"type": "Feature",
"properties": {
"Name": "横山スポーツ広場",
"Jusho": "静岡県静岡市葵区横山地先安倍川河川敷",
"Capacity": "－",
"la": "35.13220314990",
"ln": "138.36803513600"
},
"geometry": {
"type": "Point",
"coordinates": [
138.368035136,
35.1322031499
]
}
},
{
"type": "Feature",
"properties": {
"Name": "下スポーツ広場",
"Jusho": "静岡県静岡市葵区下地先安倍川河川敷",
"Capacity": "－",
"la": "35.03500860210",
"ln": "138.37556915600"
},
"geometry": {
"type": "Point",
"coordinates": [
138.375569156,
35.0350086021
]
}
},
{
"type": "Feature",
"properties": {
"Name": "科学技術高校",
"Jusho": "静岡県静岡市葵区長沼500-1",
"Capacity": "1042",
"la": "34.98851700000",
"ln": "138.41050100000"
},
"geometry": {
"type": "Point",
"coordinates": [
138.410501,
34.988517
]
}
},
{
"type": "Feature",
"properties": {
"Name": "旧陸軍墓地",
"Jusho": "静岡県静岡市葵区",
"Capacity": "－",
"la": "34.98813802740",
"ln": "138.40124720300"
},
"geometry": {
"type": "Point",
"coordinates": [
138.401247203,
34.9881380274
]
}
},
{
"type": "Feature",
"properties": {
"Name": "郷島スポーツ広場",
"Jusho": "静岡県静岡市葵区郷島地先安倍川河川敷",
"Capacity": "－",
"la": "35.09452948660",
"ln": "138.37397756000"
},
"geometry": {
"type": "Point",
"coordinates": [
138.37397756,
35.0945294866
]
}
},
{
"type": "Feature",
"properties": {
"Name": "玉川キャンプセンター",
"Jusho": "静岡県静岡市葵区長妻田755",
"Capacity": "110",
"la": "35.16313100000",
"ln": "138.32668300000"
},
"geometry": {
"type": "Point",
"coordinates": [
138.326683,
35.163131
]
}
},
{
"type": "Feature",
"properties": {
"Name": "県営住宅麻機羽高団地敷地",
"Jusho": "静岡県静岡市葵区",
"Capacity": "－",
"la": "35.03621020150",
"ln": "138.39292843000"
},
"geometry": {
"type": "Point",
"coordinates": [
138.39292843,
35.0362102015
]
}
},
{
"type": "Feature",
"properties": {
"Name": "護国神社",
"Jusho": "静岡県静岡市葵区",
"Capacity": "－",
"la": "34.98745224180",
"ln": "138.40699801700"
},
"geometry": {
"type": "Point",
"coordinates": [
138.406998017,
34.9874522418
]
}
},
{
"type": "Feature",
"properties": {
"Name": "口坂本八王子神社前",
"Jusho": "静岡県静岡市葵区口坂本527",
"Capacity": "－",
"la": "35.18424773630",
"ln": "138.27527391300"
},
"geometry": {
"type": "Point",
"coordinates": [
138.275273913,
35.1842477363
]
}
},
{
"type": "Feature",
"properties": {
"Name": "口坂本避難所",
"Jusho": "静岡県静岡市葵区口坂本544",
"Capacity": "16",
"la": "35.18425078850",
"ln": "138.27508567300"
},
"geometry": {
"type": "Point",
"coordinates": [
138.275085673,
35.1842507885
]
}
},
{
"type": "Feature",
"properties": {
"Name": "口仙俣分校跡地",
"Jusho": "静岡県静岡市葵区口仙俣356-1",
"Capacity": "－",
"la": "35.18848356830",
"ln": "138.31801868300"
},
"geometry": {
"type": "Point",
"coordinates": [
138.318018683,
35.1884835683
]
}
},
{
"type": "Feature",
"properties": {
"Name": "黒俣分校跡地",
"Jusho": "静岡県静岡市葵区黒俣1590",
"Capacity": "－",
"la": "35.03282584700",
"ln": "138.21430800000"
},
"geometry": {
"type": "Point",
"coordinates": [
138.214308,
35.032825847
]
}
},
{
"type": "Feature",
"properties": {
"Name": "桜町スポーツ広場",
"Jusho": "静岡県静岡市葵区桜町地先安倍川河川敷",
"Capacity": "－",
"la": "34.99760647010",
"ln": "138.35968604700"
},
"geometry": {
"type": "Point",
"coordinates": [
138.359686047,
34.9976064701
]
}
},
{
"type": "Feature",
"properties": {
"Name": "山崎新田スポーツ広場",
"Jusho": "静岡県静岡市葵区山崎新田地先安倍川河川敷",
"Capacity": "－",
"la": "34.97959963300",
"ln": "138.35596336400"
},
"geometry": {
"type": "Point",
"coordinates": [
138.355963364,
34.979599633
]
}
},
{
"type": "Feature",
"properties": {
"Name": "市立高校",
"Jusho": "静岡県静岡市葵区千代田3-1-1",
"Capacity": "1150",
"la": "34.99329300000",
"ln": "138.39904900000"
},
"geometry": {
"type": "Point",
"coordinates": [
138.399049,
34.993293
]
}
},
{
"type": "Feature",
"properties": {
"Name": "女性会館・葵生涯学習センター",
"Jusho": "静岡県静岡市葵区東草深町3-18",
"Capacity": "600",
"la": "34.98343000000",
"ln": "138.38566200000"
},
"geometry": {
"type": "Point",
"coordinates": [
138.385662,
34.98343
]
}
},
{
"type": "Feature",
"properties": {
"Name": "小布杉分校",
"Jusho": "静岡県静岡市葵区小布杉1756-1",
"Capacity": "－",
"la": "34.99845659030",
"ln": "138.24357172700"
},
"geometry": {
"type": "Point",
"coordinates": [
138.243571727,
34.9984565903
]
}
},
{
"type": "Feature",
"properties": {
"Name": "上土保育園",
"Jusho": "静岡県静岡市葵区古庄4-2-11",
"Capacity": "93",
"la": "34.99898700000",
"ln": "138.41593600000"
},
"geometry": {
"type": "Point",
"coordinates": [
138.415936,
34.998987
]
}
},
{
"type": "Feature",
"properties": {
"Name": "城東保健福祉エリア",
"Jusho": "静岡県静岡市葵区城東町24番1号",
"Capacity": "－",
"la": "34.98606008550",
"ln": "138.38759711600"
},
"geometry": {
"type": "Point",
"coordinates": [
138.387597116,
34.9860600855
]
}
},
{
"type": "Feature",
"properties": {
"Name": "常葉学園橘高校",
"Jusho": "静岡県静岡市葵区瀬名2-1-1",
"Capacity": "606",
"la": "35.01323500000",
"ln": "138.41696300000"
},
"geometry": {
"type": "Point",
"coordinates": [
138.416963,
35.013235
]
}
},
{
"type": "Feature",
"properties": {
"Name": "常葉学園大学",
"Jusho": "静岡県静岡市葵区瀬名1-22-1",
"Capacity": "－",
"la": "35.01356900000",
"ln": "138.42618500000"
},
"geometry": {
"type": "Point",
"coordinates": [
138.426185,
35.013569
]
}
},
{
"type": "Feature",
"properties": {
"Name": "新間宮前スポーツ広場",
"Jusho": "静岡県静岡市葵区新間谷川新間宮前地先",
"Capacity": "－",
"la": "34.99682608140",
"ln": "138.30885533600"
},
"geometry": {
"type": "Point",
"coordinates": [
138.308855336,
34.9968260814
]
}
},
{
"type": "Feature",
"properties": {
"Name": "新田集会場",
"Jusho": "静岡県静岡市葵区",
"Capacity": "－",
"la": "35.00660247540",
"ln": "138.27914542900"
},
"geometry": {
"type": "Point",
"coordinates": [
138.279145429,
35.0066024754
]
}
},
{
"type": "Feature",
"properties": {
"Name": "新富町保育園",
"Jusho": "静岡県静岡市葵区新富町3-21-2",
"Capacity": "90",
"la": "34.97139847090",
"ln": "138.36958399500"
},
"geometry": {
"type": "Point",
"coordinates": [
138.369583995,
34.9713984709
]
}
},
{
"type": "Feature",
"properties": {
"Name": "瀬名水梨スポーツ広場",
"Jusho": "静岡県静岡市葵区南沼上1460",
"Capacity": "－",
"la": "35.01467799290",
"ln": "138.41726672700"
},
"geometry": {
"type": "Point",
"coordinates": [
138.417266727,
35.0146779929
]
}
},
{
"type": "Feature",
"properties": {
"Name": "瀬名川保育園",
"Jusho": "静岡県静岡市葵区瀬名川1-21-40",
"Capacity": "55",
"la": "35.00476500000",
"ln": "138.42688000000"
},
"geometry": {
"type": "Point",
"coordinates": [
138.42688,
35.004765
]
}
},
{
"type": "Feature",
"properties": {
"Name": "清沢生涯学習交流館",
"Jusho": "静岡県静岡市葵区昼居渡66-2",
"Capacity": "113",
"la": "35.03457100000",
"ln": "138.25352800000"
},
"geometry": {
"type": "Point",
"coordinates": [
138.253528,
35.034571
]
}
},
{
"type": "Feature",
"properties": {
"Name": "清沢避難所",
"Jusho": "静岡県静岡市葵区鍵穴723-1",
"Capacity": "41",
"la": "35.04867339280",
"ln": "138.24664708900"
},
"geometry": {
"type": "Point",
"coordinates": [
138.246647089,
35.0486733928
]
}
},
{
"type": "Feature",
"properties": {
"Name": "西ヶ谷総合運動場",
"Jusho": "静岡県静岡市葵区",
"Capacity": "－",
"la": "35.01226809590",
"ln": "138.35237502000"
},
"geometry": {
"type": "Point",
"coordinates": [
138.35237502,
35.0122680959
]
}
},
{
"type": "Feature",
"properties": {
"Name": "西部生涯学習センター",
"Jusho": "静岡県静岡市葵区田町3-46-1",
"Capacity": "245",
"la": "34.97093693400",
"ln": "138.36715011100"
},
"geometry": {
"type": "Point",
"coordinates": [
138.367150111,
34.970936934
]
}
},
{
"type": "Feature",
"properties": {
"Name": "静岡英和女学院中学・高校",
"Jusho": "静岡県静岡市葵区西草深町8-1",
"Capacity": "230",
"la": "34.98160000000",
"ln": "138.37960700000"
},
"geometry": {
"type": "Point",
"coordinates": [
138.379607,
34.9816
]
}
},
{
"type": "Feature",
"properties": {
"Name": "静岡学園中・高校",
"Jusho": "静岡県静岡市葵区東鷹匠町25",
"Capacity": "270",
"la": "34.98290276260",
"ln": "138.39392578500"
},
"geometry": {
"type": "Point",
"coordinates": [
138.393925785,
34.9829027626
]
}
},
{
"type": "Feature",
"properties": {
"Name": "静岡高校",
"Jusho": "静岡県静岡市葵区長谷町66",
"Capacity": "781",
"la": "34.98579400000",
"ln": "138.37994000000"
},
"geometry": {
"type": "Point",
"coordinates": [
138.37994,
34.985794
]
}
},
{
"type": "Feature",
"properties": {
"Name": "静岡斎場",
"Jusho": "静岡県静岡市葵区",
"Capacity": "－",
"la": "34.99484500000",
"ln": "138.35219000000"
},
"geometry": {
"type": "Point",
"coordinates": [
138.35219,
34.994845
]
}
},
{
"type": "Feature",
"properties": {
"Name": "静岡市立高校",
"Jusho": "静岡県静岡市葵区",
"Capacity": "－",
"la": "34.99329299910",
"ln": "138.39904900000"
},
"geometry": {
"type": "Point",
"coordinates": [
138.399049,
34.9932929991
]
}
},
{
"type": "Feature",
"properties": {
"Name": "静岡讐葉学園中学・高校",
"Jusho": "静岡県静岡市葵区追手町10-71",
"Capacity": "266",
"la": "34.98079500000",
"ln": "138.38080100000"
},
"geometry": {
"type": "Point",
"coordinates": [
138.380801,
34.980795
]
}
},
{
"type": "Feature",
"properties": {
"Name": "静岡商業高校",
"Jusho": "静岡県静岡市葵区田町7-90",
"Capacity": "870",
"la": "34.96479600000",
"ln": "138.36777500000"
},
"geometry": {
"type": "Point",
"coordinates": [
138.367775,
34.964796
]
}
},
{
"type": "Feature",
"properties": {
"Name": "静岡城北高校",
"Jusho": "静岡県静岡市葵区北安東2-3-1",
"Capacity": "689",
"la": "34.99543200000",
"ln": "138.38496700000"
},
"geometry": {
"type": "Point",
"coordinates": [
138.384967,
34.995432
]
}
},
{
"type": "Feature",
"properties": {
"Name": "静岡西高校",
"Jusho": "静岡県静岡市葵区牧ｹ谷680-1",
"Capacity": "690",
"la": "34.97132300000",
"ln": "138.35080400000"
},
"geometry": {
"type": "Point",
"coordinates": [
138.350804,
34.971323
]
}
},
{
"type": "Feature",
"properties": {
"Name": "静岡大成中学・高校",
"Jusho": "静岡県静岡市葵区鷹匠2-4-18",
"Capacity": "166",
"la": "34.97862800000",
"ln": "138.38838400000"
},
"geometry": {
"type": "Point",
"coordinates": [
138.388384,
34.978628
]
}
},
{
"type": "Feature",
"properties": {
"Name": "静岡中央高校",
"Jusho": "静岡県静岡市葵区城北2-29-1",
"Capacity": "570",
"la": "35.00520800000",
"ln": "138.39318800000"
},
"geometry": {
"type": "Point",
"coordinates": [
138.393188,
35.005208
]
}
},
{
"type": "Feature",
"properties": {
"Name": "静岡東高校",
"Jusho": "静岡県静岡市葵区川合3-24-1",
"Capacity": "1164",
"la": "35.00871600000",
"ln": "138.41243600000"
},
"geometry": {
"type": "Point",
"coordinates": [
138.412436,
35.008716
]
}
},
{
"type": "Feature",
"properties": {
"Name": "静岡農業高校",
"Jusho": "静岡県静岡市葵区古庄3-1-1",
"Capacity": "603",
"la": "34.99457100000",
"ln": "138.41574200000"
},
"geometry": {
"type": "Point",
"coordinates": [
138.415742,
34.994571
]
}
},
{
"type": "Feature",
"properties": {
"Name": "静岡北高校",
"Jusho": "静岡県静岡市葵区瀬名5-14-1",
"Capacity": "821",
"la": "35.02690100000",
"ln": "138.42126900000"
},
"geometry": {
"type": "Point",
"coordinates": [
138.421269,
35.026901
]
}
},
{
"type": "Feature",
"properties": {
"Name": "千代スポーツ広場",
"Jusho": "静岡県静岡市葵区千代地先安倍川河川敷",
"Capacity": "－",
"la": "34.98716619760",
"ln": "138.35554106900"
},
"geometry": {
"type": "Point",
"coordinates": [
138.355541069,
34.9871661976
]
}
},
{
"type": "Feature",
"properties": {
"Name": "浅間神社",
"Jusho": "静岡県静岡市葵区",
"Capacity": "－",
"la": "34.98367441690",
"ln": "138.37531045500"
},
"geometry": {
"type": "Point",
"coordinates": [
138.375310455,
34.9836744169
]
}
},
{
"type": "Feature",
"properties": {
"Name": "足久保スポーツ広場",
"Jusho": "静岡県静岡市葵区足久保地先諸川河川敷",
"Capacity": "－",
"la": "35.07292151930",
"ln": "138.30636861700"
},
"geometry": {
"type": "Point",
"coordinates": [
138.306368617,
35.0729215193
]
}
},
{
"type": "Feature",
"properties": {
"Name": "辰起町スポーツ広場",
"Jusho": "静岡県静岡市葵区辰起町地先安倍川河川敷",
"Capacity": "－",
"la": "34.98555710010",
"ln": "138.36084657600"
},
"geometry": {
"type": "Point",
"coordinates": [
138.360846576,
34.9855571001
]
}
},
{
"type": "Feature",
"properties": {
"Name": "中藁科保育園",
"Jusho": "静岡県静岡市葵区大原1237",
"Capacity": "76",
"la": "35.00748300000",
"ln": "138.27864500000"
},
"geometry": {
"type": "Point",
"coordinates": [
138.278645,
35.007483
]
}
},
{
"type": "Feature",
"properties": {
"Name": "長沼保育園",
"Jusho": "静岡県静岡市葵区長沼町2-18-31",
"Capacity": "116",
"la": "34.99329300000",
"ln": "138.41427000000"
},
"geometry": {
"type": "Point",
"coordinates": [
138.41427,
34.993293
]
}
},
{
"type": "Feature",
"properties": {
"Name": "堤町緑地スポーツ広場",
"Jusho": "静岡県静岡市葵区堤町地先安倍川河川敷",
"Capacity": "－",
"la": "35.00300245640",
"ln": "138.36042389700"
},
"geometry": {
"type": "Point",
"coordinates": [
138.360423897,
35.0030024564
]
}
},
{
"type": "Feature",
"properties": {
"Name": "伝馬町新田スポーツ広場",
"Jusho": "静岡県静岡市葵区",
"Capacity": "－",
"la": "34.98958700000",
"ln": "138.36038100000"
},
"geometry": {
"type": "Point",
"coordinates": [
138.360381,
34.989587
]
}
},
{
"type": "Feature",
"properties": {
"Name": "田町保育園",
"Jusho": "静岡県静岡市葵区田町1-79",
"Capacity": "93",
"la": "34.97499000000",
"ln": "138.36616400000"
},
"geometry": {
"type": "Point",
"coordinates": [
138.366164,
34.97499
]
}
},
{
"type": "Feature",
"properties": {
"Name": "田町緑地スポーツ広場",
"Jusho": "静岡県静岡市葵区田町地先安倍川河川敷",
"Capacity": "－",
"la": "34.97123152610",
"ln": "138.36207616600"
},
"geometry": {
"type": "Point",
"coordinates": [
138.362076166,
34.9712315261
]
}
},
{
"type": "Feature",
"properties": {
"Name": "東海大学短期大学部",
"Jusho": "静岡県静岡市葵区宮前町101",
"Capacity": "276",
"la": "34.98260000000",
"ln": "138.40504900000"
},
"geometry": {
"type": "Point",
"coordinates": [
138.405049,
34.9826
]
}
},
{
"type": "Feature",
"properties": {
"Name": "東部生涯学習センター",
"Jusho": "静岡県静岡市葵区千代田7-8-15",
"Capacity": "191",
"la": "35.00145400000",
"ln": "138.40594600000"
},
"geometry": {
"type": "Point",
"coordinates": [
138.405946,
35.001454
]
}
},
{
"type": "Feature",
"properties": {
"Name": "東部体育館",
"Jusho": "静岡県静岡市葵区東千代田2-3-1",
"Capacity": "633",
"la": "35.00126800000",
"ln": "138.40875600000"
},
"geometry": {
"type": "Point",
"coordinates": [
138.408756,
35.001268
]
}
},
{
"type": "Feature",
"properties": {
"Name": "楢尾青少年の家",
"Jusho": "静岡県静岡市葵区楢尾329",
"Capacity": "266",
"la": "35.12115650650",
"ln": "138.21469639100"
},
"geometry": {
"type": "Point",
"coordinates": [
138.214696391,
35.1211565065
]
}
},
{
"type": "Feature",
"properties": {
"Name": "南安倍スポーツ広場",
"Jusho": "静岡県静岡市駿河区南安倍3丁目安倍川河川敷",
"Capacity": "－",
"la": "34.95370473230",
"ln": "138.37955143800"
},
"geometry": {
"type": "Point",
"coordinates": [
138.379551438,
34.9537047323
]
}
},
{
"type": "Feature",
"properties": {
"Name": "服織第二保育園",
"Jusho": "静岡県静岡市葵区羽鳥本町25-33",
"Capacity": "96",
"la": "34.98640400000",
"ln": "138.33002800000"
},
"geometry": {
"type": "Point",
"coordinates": [
138.330028,
34.986404
]
}
},
{
"type": "Feature",
"properties": {
"Name": "服織保育園",
"Jusho": "静岡県静岡市葵区山崎1-17-1",
"Capacity": "60",
"la": "34.97568400000",
"ln": "138.35391500000"
},
"geometry": {
"type": "Point",
"coordinates": [
138.353915,
34.975684
]
}
},
{
"type": "Feature",
"properties": {
"Name": "北沼上保育園",
"Jusho": "静岡県静岡市葵区北沼上758-1",
"Capacity": "133",
"la": "35.03516600000",
"ln": "138.42454000000"
},
"geometry": {
"type": "Point",
"coordinates": [
138.42454,
35.035166
]
}
},
{
"type": "Feature",
"properties": {
"Name": "北部生涯学習センター",
"Jusho": "静岡県静岡市葵区昭府2-14-1",
"Capacity": "246",
"la": "35.00198100000",
"ln": "138.36950700000"
},
"geometry": {
"type": "Point",
"coordinates": [
138.369507,
35.001981
]
}
},
{
"type": "Feature",
"properties": {
"Name": "北部体育館",
"Jusho": "静岡県静岡市葵区松富4-14-1",
"Capacity": "613",
"la": "35.01832900000",
"ln": "138.37307400000"
},
"geometry": {
"type": "Point",
"coordinates": [
138.373074,
35.018329
]
}
},
{
"type": "Feature",
"properties": {
"Name": "門屋スポーツ広場",
"Jusho": "静岡県静岡市葵区門屋地先安倍川河川敷",
"Capacity": "－",
"la": "35.04853264350",
"ln": "138.37343368500"
},
"geometry": {
"type": "Point",
"coordinates": [
138.373433685,
35.0485326435
]
}
},
{
"type": "Feature",
"properties": {
"Name": "弥鞠スポーツ広場",
"Jusho": "静岡県静岡市葵区弥勒安倍川河川敷",
"Capacity": "－",
"la": "34.96087153260",
"ln": "138.36932199600"
},
"geometry": {
"type": "Point",
"coordinates": [
138.369321996,
34.9608715326
]
}
},
{
"type": "Feature",
"properties": {
"Name": "有東木分校跡地",
"Jusho": "静岡県静岡市葵区有東木",
"Capacity": "－",
"la": "35.20780654210",
"ln": "138.36974473700"
},
"geometry": {
"type": "Point",
"coordinates": [
138.369744737,
35.2078065421
]
}
},
{
"type": "Feature",
"properties": {
"Name": "与一スポーツ広場",
"Jusho": "静岡県静岡市葵区",
"Capacity": "－",
"la": "35.00780600000",
"ln": "138.36221900000"
},
"geometry": {
"type": "Point",
"coordinates": [
138.362219,
35.007806
]
}
},
{
"type": "Feature",
"properties": {
"Name": "藁科都市山村交流センター",
"Jusho": "静岡県静岡市葵区大原1834",
"Capacity": "140",
"la": "35.01358000000",
"ln": "138.27054600000"
},
"geometry": {
"type": "Point",
"coordinates": [
138.270546,
35.01358
]
}
},
{
"type": "Feature",
"properties": {
"Name": "オーク長田（長田支所）",
"Jusho": "静岡県静岡市駿河区上川原13-1",
"Capacity": "85",
"la": "34.94590400000",
"ln": "138.36567300000"
},
"geometry": {
"type": "Point",
"coordinates": [
138.365673,
34.945904
]
}
},
{
"type": "Feature",
"properties": {
"Name": "ツインメッセ静岡",
"Jusho": "静岡県静岡市駿河区曲金3-1-10",
"Capacity": "73",
"la": "34.97107400000",
"ln": "138.40594400000"
},
"geometry": {
"type": "Point",
"coordinates": [
138.405944,
34.971074
]
}
},
{
"type": "Feature",
"properties": {
"Name": "下川原保育園",
"Jusho": "静岡県静岡市駿河区下川原6-8-26",
"Capacity": "133",
"la": "34.93357800000",
"ln": "138.37366400000"
},
"geometry": {
"type": "Point",
"coordinates": [
138.373664,
34.933578
]
}
},
{
"type": "Feature",
"properties": {
"Name": "丸子新田スポーツ広場",
"Jusho": "静岡県静岡市駿河区東新田一丁目",
"Capacity": "－",
"la": "34.95152898340",
"ln": "138.37239615400"
},
"geometry": {
"type": "Point",
"coordinates": [
138.372396154,
34.9515289834
]
}
},
{
"type": "Feature",
"properties": {
"Name": "丸子川スポーツ広場",
"Jusho": "静岡県静岡市駿河区丸子七丁目",
"Capacity": "－",
"la": "34.95084536650",
"ln": "138.33646155500"
},
"geometry": {
"type": "Point",
"coordinates": [
138.336461555,
34.9508453665
]
}
},
{
"type": "Feature",
"properties": {
"Name": "丸子保育園",
"Jusho": "静岡県静岡市駿河区丸子2-18-32",
"Capacity": "33",
"la": "34.94277100000",
"ln": "138.35538800000"
},
"geometry": {
"type": "Point",
"coordinates": [
138.355388,
34.942771
]
}
},
{
"type": "Feature",
"properties": {
"Name": "久能幼稚園",
"Jusho": "静岡県静岡市駿河区青沢240",
"Capacity": "－",
"la": "34.95560400000",
"ln": "138.45146200000"
},
"geometry": {
"type": "Point",
"coordinates": [
138.451462,
34.955604
]
}
},
{
"type": "Feature",
"properties": {
"Name": "競輪場駐車場（南第４・西第２．西第３除外）",
"Jusho": "静岡県静岡市駿河区小鹿二丁目9-1",
"Capacity": "－",
"la": "34.96974703740",
"ln": "138.42105198700"
},
"geometry": {
"type": "Point",
"coordinates": [
138.421051987,
34.9697470374
]
}
},
{
"type": "Feature",
"properties": {
"Name": "県草薙総合運動場",
"Jusho": "静岡県静岡市駿河区栗原19-1",
"Capacity": "－",
"la": "34.99090800000",
"ln": "138.42957200000"
},
"geometry": {
"type": "Point",
"coordinates": [
138.429572,
34.990908
]
}
},
{
"type": "Feature",
"properties": {
"Name": "県男女共同参画センター（あざれあ）",
"Jusho": "静岡県静岡市駿河区馬淵1-17-1",
"Capacity": "201",
"la": "34.96880700000",
"ln": "138.38316200000"
},
"geometry": {
"type": "Point",
"coordinates": [
138.383162,
34.968807
]
}
},
{
"type": "Feature",
"properties": {
"Name": "向ケ丘広場",
"Jusho": "静岡県静岡市駿河区向敷地",
"Capacity": "－",
"la": "34.96051076260",
"ln": "138.36199305400"
},
"geometry": {
"type": "Point",
"coordinates": [
138.361993054,
34.9605107626
]
}
},
{
"type": "Feature",
"properties": {
"Name": "向敷地スポーツ広場",
"Jusho": "静岡県静岡市駿河区向敷地",
"Capacity": "－",
"la": "34.96349827780",
"ln": "138.35909633800"
},
"geometry": {
"type": "Point",
"coordinates": [
138.359096338,
34.9634982778
]
}
},
{
"type": "Feature",
"properties": {
"Name": "高松保育園",
"Jusho": "静岡県静岡市駿河区敷地2-7-14",
"Capacity": "63",
"la": "34.94924300000",
"ln": "138.41235400000"
},
"geometry": {
"type": "Point",
"coordinates": [
138.412354,
34.949243
]
}
},
{
"type": "Feature",
"properties": {
"Name": "市立商業高校",
"Jusho": "静岡県静岡市駿河区有東3-4-17",
"Capacity": "999",
"la": "34.96349100000",
"ln": "138.41066000000"
},
"geometry": {
"type": "Point",
"coordinates": [
138.41066,
34.963491
]
}
},
{
"type": "Feature",
"properties": {
"Name": "小黒保育園",
"Jusho": "静岡県静岡市駿河区小黒1-7-6",
"Capacity": "33",
"la": "34.97501800000",
"ln": "138.40091000000"
},
"geometry": {
"type": "Point",
"coordinates": [
138.40091,
34.975018
]
}
},
{
"type": "Feature",
"properties": {
"Name": "城南静岡中学・高校",
"Jusho": "静岡県静岡市駿河区南八幡町1",
"Capacity": "285",
"la": "34.96357500000",
"ln": "138.40046600000"
},
"geometry": {
"type": "Point",
"coordinates": [
138.400466,
34.963575
]
}
},
{
"type": "Feature",
"properties": {
"Name": "静岡英和学院大学",
"Jusho": "静岡県静岡市駿河区池田1769",
"Capacity": "762",
"la": "34.98346000000",
"ln": "138.43704400000"
},
"geometry": {
"type": "Point",
"coordinates": [
138.437044,
34.98346
]
}
},
{
"type": "Feature",
"properties": {
"Name": "静岡看護専門学校",
"Jusho": "静岡県静岡市駿河区南八幡町8-1",
"Capacity": "300",
"la": "34.96028400000",
"ln": "138.40268500000"
},
"geometry": {
"type": "Point",
"coordinates": [
138.402685,
34.960284
]
}
},
{
"type": "Feature",
"properties": {
"Name": "静岡県農業会館",
"Jusho": "静岡県静岡市駿河区曲金3-8-1",
"Capacity": "233",
"la": "34.97454900000",
"ln": "138.40826400000"
},
"geometry": {
"type": "Point",
"coordinates": [
138.408264,
34.974549
]
}
},
{
"type": "Feature",
"properties": {
"Name": "静岡県立大学",
"Jusho": "静岡県静岡市駿河区谷田52-1",
"Capacity": "681",
"la": "34.99537800000",
"ln": "138.44612900000"
},
"geometry": {
"type": "Point",
"coordinates": [
138.446129,
34.995378
]
}
},
{
"type": "Feature",
"properties": {
"Name": "静岡県立大学周辺",
"Jusho": "静岡県静岡市駿河区",
"Capacity": "－",
"la": "34.99508300000",
"ln": "138.44549900000"
},
"geometry": {
"type": "Point",
"coordinates": [
138.445499,
34.995083
]
}
},
{
"type": "Feature",
"properties": {
"Name": "静岡県立大学短期大学部",
"Jusho": "静岡県静岡市駿河区小鹿2-2-1",
"Capacity": "－",
"la": "34.97493500000",
"ln": "138.41738100000"
},
"geometry": {
"type": "Point",
"coordinates": [
138.417381,
34.974935
]
}
},
{
"type": "Feature",
"properties": {
"Name": "静岡視覚特別支援学校",
"Jusho": "静岡県静岡市駿河区曲金6-1-5",
"Capacity": "210",
"la": "34.97965600000",
"ln": "138.40885400000"
},
"geometry": {
"type": "Point",
"coordinates": [
138.408854,
34.979656
]
}
},
{
"type": "Feature",
"properties": {
"Name": "静岡女子高校",
"Jusho": "静岡県静岡市駿河区八幡3-6-1",
"Capacity": "－",
"la": "34.96943500000",
"ln": "138.39657700000"
},
"geometry": {
"type": "Point",
"coordinates": [
138.396577,
34.969435
]
}
},
{
"type": "Feature",
"properties": {
"Name": "静岡聖光学院中・高校",
"Jusho": "静岡県静岡市駿河区小鹿1440",
"Capacity": "286",
"la": "34.97174100000",
"ln": "138.43365700000"
},
"geometry": {
"type": "Point",
"coordinates": [
138.433657,
34.971741
]
}
},
{
"type": "Feature",
"properties": {
"Name": "静岡大学",
"Jusho": "静岡県静岡市駿河区大谷836",
"Capacity": "985",
"la": "34.96554700000",
"ln": "138.43321300000"
},
"geometry": {
"type": "Point",
"coordinates": [
138.433213,
34.965547
]
}
},
{
"type": "Feature",
"properties": {
"Name": "静岡朝鮮初中級学校",
"Jusho": "静岡県静岡市駿河区中島1171",
"Capacity": "86",
"la": "34.93905100000",
"ln": "138.39450200000"
},
"geometry": {
"type": "Point",
"coordinates": [
138.394502,
34.939051
]
}
},
{
"type": "Feature",
"properties": {
"Name": "静岡聴覚特別支援学校",
"Jusho": "静岡県静岡市駿河区中村町251",
"Capacity": "219",
"la": "34.95096500000",
"ln": "138.39246700000"
},
"geometry": {
"type": "Point",
"coordinates": [
138.392467,
34.950965
]
}
},
{
"type": "Feature",
"properties": {
"Name": "静岡南高校",
"Jusho": "静岡県静岡市駿河区大谷5762",
"Capacity": "700",
"la": "34.95874200000",
"ln": "138.43721300000"
},
"geometry": {
"type": "Point",
"coordinates": [
138.437213,
34.958742
]
}
},
{
"type": "Feature",
"properties": {
"Name": "大里生涯学習センター",
"Jusho": "静岡県静岡市駿河区中野新田57-5",
"Capacity": "310",
"la": "34.95223300000",
"ln": "138.38524100000"
},
"geometry": {
"type": "Point",
"coordinates": [
138.385241,
34.952233
]
}
},
{
"type": "Feature",
"properties": {
"Name": "中原スポーツ広場",
"Jusho": "静岡県静岡市駿河区中野新田",
"Capacity": "－",
"la": "34.95220574830",
"ln": "138.38127332000"
},
"geometry": {
"type": "Point",
"coordinates": [
138.38127332,
34.9522057483
]
}
},
{
"type": "Feature",
"properties": {
"Name": "中村町保育園",
"Jusho": "静岡県静岡市駿河区中村町94",
"Capacity": "133",
"la": "34.95393700000",
"ln": "138.39207800000"
},
"geometry": {
"type": "Point",
"coordinates": [
138.392078,
34.953937
]
}
},
{
"type": "Feature",
"properties": {
"Name": "中田保育園",
"Jusho": "静岡県静岡市駿河区馬淵4-2-29",
"Capacity": "126",
"la": "34.96260200000",
"ln": "138.39227200000"
},
"geometry": {
"type": "Point",
"coordinates": [
138.392272,
34.962602
]
}
},
{
"type": "Feature",
"properties": {
"Name": "中島児童館",
"Jusho": "静岡県静岡市駿河区中島2992",
"Capacity": "－",
"la": "34.94141345040",
"ln": "138.39903153600"
},
"geometry": {
"type": "Point",
"coordinates": [
138.399031536,
34.9414134504
]
}
},
{
"type": "Feature",
"properties": {
"Name": "中野新田スポーツ広場",
"Jusho": "静岡県静岡市駿河区中島",
"Capacity": "－",
"la": "34.94626560750",
"ln": "138.38627207900"
},
"geometry": {
"type": "Point",
"coordinates": [
138.386272079,
34.9462656075
]
}
},
{
"type": "Feature",
"properties": {
"Name": "長田生涯学習センター",
"Jusho": "静岡県静岡市駿河区寺田131-1",
"Capacity": "253",
"la": "34.93923600000",
"ln": "138.35862700000"
},
"geometry": {
"type": "Point",
"coordinates": [
138.358627,
34.939236
]
}
},
{
"type": "Feature",
"properties": {
"Name": "長田体育館",
"Jusho": "静岡県静岡市駿河区鎌田574-1",
"Capacity": "670",
"la": "34.93855200000",
"ln": "138.36345400000"
},
"geometry": {
"type": "Point",
"coordinates": [
138.363454,
34.938552
]
}
},
{
"type": "Feature",
"properties": {
"Name": "登呂保育園",
"Jusho": "静岡県静岡市駿河区登呂3-19-1",
"Capacity": "16",
"la": "34.95837041890",
"ln": "138.40725818100"
},
"geometry": {
"type": "Point",
"coordinates": [
138.407258181,
34.9583704189
]
}
},
{
"type": "Feature",
"properties": {
"Name": "東新田スポーツ広場",
"Jusho": "静岡県静岡市駿河区東新田四丁目",
"Capacity": "－",
"la": "34.94617001730",
"ln": "138.37777188500"
},
"geometry": {
"type": "Point",
"coordinates": [
138.377771885,
34.9461700173
]
}
},
{
"type": "Feature",
"properties": {
"Name": "東新田保育園",
"Jusho": "静岡県静岡市駿河区東新田4-1-40",
"Capacity": "116",
"la": "34.94482700000",
"ln": "138.37580200000"
},
"geometry": {
"type": "Point",
"coordinates": [
138.375802,
34.944827
]
}
},
{
"type": "Feature",
"properties": {
"Name": "東豊田保育園",
"Jusho": "静岡県静岡市駿河区国吉田6-7-29",
"Capacity": "123",
"la": "34.99040600000",
"ln": "138.43660200000"
},
"geometry": {
"type": "Point",
"coordinates": [
138.436602,
34.990406
]
}
},
{
"type": "Feature",
"properties": {
"Name": "南部生涯学習センター",
"Jusho": "静岡県静岡市駿河区南八幡町25-21",
"Capacity": "200",
"la": "34.96154900000",
"ln": "138.40504600000"
},
"geometry": {
"type": "Point",
"coordinates": [
138.405046,
34.961549
]
}
},
{
"type": "Feature",
"properties": {
"Name": "南部体育館",
"Jusho": "静岡県静岡市駿河区曲金3-1-30",
"Capacity": "710",
"la": "34.97259500000",
"ln": "138.40495000000"
},
"geometry": {
"type": "Point",
"coordinates": [
138.40495,
34.972595
]
}
},
{
"type": "Feature",
"properties": {
"Name": "八幡保育園",
"Jusho": "静岡県静岡市駿河区八幡2-15-20",
"Capacity": "63",
"la": "34.97157400000",
"ln": "138.39743800000"
},
"geometry": {
"type": "Point",
"coordinates": [
138.397438,
34.971574
]
}
},
{
"type": "Feature",
"properties": {
"Name": "富士見台保育園",
"Jusho": "静岡県静岡市駿河区富士見台2-11-44",
"Capacity": "133",
"la": "34.96307500000",
"ln": "138.41788100000"
},
"geometry": {
"type": "Point",
"coordinates": [
138.417881,
34.963075
]
}
},
{
"type": "Feature",
"properties": {
"Name": "いを崎神社周辺",
"Jusho": "静岡県静岡市清水区横砂本町27",
"Capacity": "－",
"la": "35.04545058150",
"ln": "138.50060171700"
},
"geometry": {
"type": "Point",
"coordinates": [
138.500601717,
35.0454505815
]
}
},
{
"type": "Feature",
"properties": {
"Name": "岡生涯学習交流館",
"Jusho": "静岡県静岡市清水区桜が丘町7-1",
"Capacity": "333",
"la": "35.01135500000",
"ln": "138.47841700000"
},
"geometry": {
"type": "Point",
"coordinates": [
138.478417,
35.011355
]
}
},
{
"type": "Feature",
"properties": {
"Name": "果樹研究所周辺",
"Jusho": "静岡県静岡市清水区興津中町485-6",
"Capacity": "－",
"la": "35.05453611140",
"ln": "138.52252198500"
},
"geometry": {
"type": "Point",
"coordinates": [
138.522521985,
35.0545361114
]
}
},
{
"type": "Feature",
"properties": {
"Name": "蒲原駅前広場",
"Jusho": "静岡県静岡市清水区",
"Capacity": "－",
"la": "35.11449572570",
"ln": "138.58307729000"
},
"geometry": {
"type": "Point",
"coordinates": [
138.58307729,
35.1144957257
]
}
},
{
"type": "Feature",
"properties": {
"Name": "蒲原市民センター",
"Jusho": "静岡県静岡市清水区蒲原新田1-21-1",
"Capacity": "406",
"la": "35.11600558150",
"ln": "138.59544252200"
},
"geometry": {
"type": "Point",
"coordinates": [
138.595442522,
35.1160055815
]
}
},
{
"type": "Feature",
"properties": {
"Name": "旧蒲原支所前広場",
"Jusho": "静岡県静岡市清水区蒲原新田 2-16-8",
"Capacity": "－",
"la": "35.11855700000",
"ln": "138.59967000000"
},
"geometry": {
"type": "Point",
"coordinates": [
138.59967,
35.118557
]
}
},
{
"type": "Feature",
"properties": {
"Name": "県果樹研究センター",
"Jusho": "静岡県静岡市清水区駒越西二丁目12番10号",
"Capacity": "－",
"la": "34.97330229670",
"ln": "138.49231620300"
},
"geometry": {
"type": "Point",
"coordinates": [
138.492316203,
34.9733022967
]
}
},
{
"type": "Feature",
"properties": {
"Name": "江尻生涯学習合流館",
"Jusho": "静岡県静岡市清水区小芝町3-35",
"Capacity": "133",
"la": "35.02326099910",
"ln": "138.48232700000"
},
"geometry": {
"type": "Point",
"coordinates": [
138.482327,
35.0232609991
]
}
},
{
"type": "Feature",
"properties": {
"Name": "高部ゴルフ場",
"Jusho": "静岡県静岡市清水区大内433-2",
"Capacity": "－",
"la": "35.02770466220",
"ln": "138.44763352200"
},
"geometry": {
"type": "Point",
"coordinates": [
138.447633522,
35.0277046622
]
}
},
{
"type": "Feature",
"properties": {
"Name": "国立清水海上技術短期大学校",
"Jusho": "静岡県静岡市清水区折戸",
"Capacity": "－",
"la": "34.98640800000",
"ln": "138.51395600000"
},
"geometry": {
"type": "Point",
"coordinates": [
138.513956,
34.986408
]
}
},
{
"type": "Feature",
"properties": {
"Name": "三保生涯学習交流館",
"Jusho": "静岡県静岡市清水区三保1074-8",
"Capacity": "－",
"la": "34.99955400000",
"ln": "138.52022400000"
},
"geometry": {
"type": "Point",
"coordinates": [
138.520224,
34.999554
]
}
},
{
"type": "Feature",
"properties": {
"Name": "宗像神社",
"Jusho": "静岡県静岡市清水区興津中町554",
"Capacity": "－",
"la": "35.05506738330",
"ln": "138.52635397100"
},
"geometry": {
"type": "Point",
"coordinates": [
138.526353971,
35.0550673833
]
}
},
{
"type": "Feature",
"properties": {
"Name": "少年自然の家",
"Jusho": "静岡県静岡市清水区和田島271-3",
"Capacity": "－",
"la": "35.10865700000",
"ln": "138.47745700000"
},
"geometry": {
"type": "Point",
"coordinates": [
138.477457,
35.108657
]
}
},
{
"type": "Feature",
"properties": {
"Name": "星美学園静岡サレジオ",
"Jusho": "静岡県静岡市清水区",
"Capacity": "－",
"la": "35.00279400000",
"ln": "138.43893500000"
},
"geometry": {
"type": "Point",
"coordinates": [
138.438935,
35.002794
]
}
},
{
"type": "Feature",
"properties": {
"Name": "清水テクノカレッジ",
"Jusho": "静岡県静岡市清水区楠160",
"Capacity": "－",
"la": "35.00893700000",
"ln": "138.43707900000"
},
"geometry": {
"type": "Point",
"coordinates": [
138.437079,
35.008937
]
}
},
{
"type": "Feature",
"properties": {
"Name": "清水庵原保育園",
"Jusho": "静岡県静岡市清水区庵原町1938",
"Capacity": "173",
"la": "35.05431786620",
"ln": "138.47332747600"
},
"geometry": {
"type": "Point",
"coordinates": [
138.473327476,
35.0543178662
]
}
},
{
"type": "Feature",
"properties": {
"Name": "清水横砂保育園",
"Jusho": "静岡県静岡市清水区横砂東町17-5",
"Capacity": "180",
"la": "35.04425233530",
"ln": "138.50307932100"
},
"geometry": {
"type": "Point",
"coordinates": [
138.503079321,
35.0442523353
]
}
},
{
"type": "Feature",
"properties": {
"Name": "清水興津北保育園",
"Jusho": "静岡県静岡市清水区八木間町478",
"Capacity": "254",
"la": "35.06539516880",
"ln": "138.52101855000"
},
"geometry": {
"type": "Point",
"coordinates": [
138.52101855,
35.0653951688
]
}
},
{
"type": "Feature",
"properties": {
"Name": "清水区役所",
"Jusho": "静岡県静岡市清水区旭町6-8",
"Capacity": "－",
"la": "35.01565400000",
"ln": "138.48968000000"
},
"geometry": {
"type": "Point",
"coordinates": [
138.48968,
35.015654
]
}
},
{
"type": "Feature",
"properties": {
"Name": "清水駒越保育園",
"Jusho": "静岡県静岡市清水区迎山4-15",
"Capacity": "151",
"la": "34.97757500000",
"ln": "138.49240200000"
},
"geometry": {
"type": "Point",
"coordinates": [
138.492402,
34.977575
]
}
},
{
"type": "Feature",
"properties": {
"Name": "清水港湾労働者福祉センター",
"Jusho": "静岡県静岡市清水区横砂408-13",
"Capacity": "133",
"la": "35.04110489090",
"ln": "138.50430133400"
},
"geometry": {
"type": "Point",
"coordinates": [
138.504301334,
35.0411048909
]
}
},
{
"type": "Feature",
"properties": {
"Name": "清水高部保育園",
"Jusho": "静岡県静岡市清水区梅ヶ谷459-1",
"Capacity": "207",
"la": "35.04256918040",
"ln": "138.45188878500"
},
"geometry": {
"type": "Point",
"coordinates": [
138.451888785,
35.0425691804
]
}
},
{
"type": "Feature",
"properties": {
"Name": "清水国際学園",
"Jusho": "静岡県静岡市清水区天神1-4-1",
"Capacity": "－",
"la": "35.02559700000",
"ln": "138.48076400000"
},
"geometry": {
"type": "Point",
"coordinates": [
138.480764,
35.025597
]
}
},
{
"type": "Feature",
"properties": {
"Name": "清水三保保育園",
"Jusho": "静岡県静岡市清水区三保1601",
"Capacity": "271",
"la": "34.99943400000",
"ln": "138.52287100000"
},
"geometry": {
"type": "Point",
"coordinates": [
138.522871,
34.999434
]
}
},
{
"type": "Feature",
"properties": {
"Name": "清水商業高校",
"Jusho": "静岡県静岡市清水区桜が丘町7-15",
"Capacity": "1733",
"la": "35.01067200000",
"ln": "138.47756700000"
},
"geometry": {
"type": "Point",
"coordinates": [
138.477567,
35.010672
]
}
},
{
"type": "Feature",
"properties": {
"Name": "清水西久保保育園",
"Jusho": "静岡県静岡市清水区西久保438-1",
"Capacity": "273",
"la": "35.03592900000",
"ln": "138.48465200000"
},
"geometry": {
"type": "Point",
"coordinates": [
138.484652,
35.035929
]
}
},
{
"type": "Feature",
"properties": {
"Name": "清水西高校",
"Jusho": "静岡県静岡市清水区青葉町5-1",
"Capacity": "1018",
"la": "35.00796000000",
"ln": "138.47501500000"
},
"geometry": {
"type": "Point",
"coordinates": [
138.475015,
35.00796
]
}
},
{
"type": "Feature",
"properties": {
"Name": "清水川原保育園",
"Jusho": "静岡県静岡市清水区川原町24-8",
"Capacity": "316",
"la": "35.00021100000",
"ln": "138.47526500000"
},
"geometry": {
"type": "Point",
"coordinates": [
138.475265,
35.000211
]
}
},
{
"type": "Feature",
"properties": {
"Name": "清水船越老人福祉センター",
"Jusho": "静岡県静岡市清水区船越町1",
"Capacity": "－",
"la": "34.99934500000",
"ln": "138.46770800000"
},
"geometry": {
"type": "Point",
"coordinates": [
138.467708,
34.999345
]
}
},
{
"type": "Feature",
"properties": {
"Name": "清水総合運動場",
"Jusho": "静岡県静岡市清水区清開2丁目1-1",
"Capacity": "－",
"la": "34.99679900000",
"ln": "138.49263800000"
},
"geometry": {
"type": "Point",
"coordinates": [
138.492638,
34.996799
]
}
},
{
"type": "Feature",
"properties": {
"Name": "清水総合運動場体育館",
"Jusho": "静岡県静岡市清水区清開2-1-1",
"Capacity": "666",
"la": "34.99817600000",
"ln": "138.49242200000"
},
"geometry": {
"type": "Point",
"coordinates": [
138.492422,
34.998176
]
}
},
{
"type": "Feature",
"properties": {
"Name": "清水中央図書館",
"Jusho": "静岡県静岡市清水区入江岡町15-23",
"Capacity": "533",
"la": "35.01170200000",
"ln": "138.47964200000"
},
"geometry": {
"type": "Point",
"coordinates": [
138.479642,
35.011702
]
}
},
{
"type": "Feature",
"properties": {
"Name": "清水東高等学校",
"Jusho": "静岡県静岡市清水区秋吉町5-10",
"Capacity": "1262",
"la": "35.02920800000",
"ln": "138.48004100000"
},
"geometry": {
"type": "Point",
"coordinates": [
138.480041,
35.029208
]
}
},
{
"type": "Feature",
"properties": {
"Name": "清水東部老人憩の家",
"Jusho": "静岡県静岡市清水区興津中町1288",
"Capacity": "40",
"la": "35.06054595350",
"ln": "138.52776523200"
},
"geometry": {
"type": "Point",
"coordinates": [
138.527765232,
35.0605459535
]
}
},
{
"type": "Feature",
"properties": {
"Name": "清水特別支援学校",
"Jusho": "静岡県静岡市清水区八坂東1-16-1",
"Capacity": "181",
"la": "35.03587400000",
"ln": "138.47976300000"
},
"geometry": {
"type": "Point",
"coordinates": [
138.479763,
35.035874
]
}
},
{
"type": "Feature",
"properties": {
"Name": "清水南高校",
"Jusho": "静岡県静岡市清水区折戸3-2-1",
"Capacity": "640",
"la": "34.98410200000",
"ln": "138.51070600000"
},
"geometry": {
"type": "Point",
"coordinates": [
138.510706,
34.984102
]
}
},
{
"type": "Feature",
"properties": {
"Name": "清水南部交流センター",
"Jusho": "静岡県静岡市清水区駒越南町9-50",
"Capacity": "37",
"la": "34.97931400000",
"ln": "138.50401900000"
},
"geometry": {
"type": "Point",
"coordinates": [
138.504019,
34.979314
]
}
},
{
"type": "Feature",
"properties": {
"Name": "清水入江保育園",
"Jusho": "静岡県静岡市清水区入江1-13-15",
"Capacity": "269",
"la": "35.01907000000",
"ln": "138.47918100000"
},
"geometry": {
"type": "Point",
"coordinates": [
138.479181,
35.01907
]
}
},
{
"type": "Feature",
"properties": {
"Name": "清水保育園",
"Jusho": "静岡県静岡市清水区本町11-32",
"Capacity": "328",
"la": "35.00854300000",
"ln": "138.48712400000"
},
"geometry": {
"type": "Point",
"coordinates": [
138.487124,
35.008543
]
}
},
{
"type": "Feature",
"properties": {
"Name": "清水北部交流センター",
"Jusho": "静岡県静岡市清水区八坂2110-2",
"Capacity": "121",
"la": "35.04115099910",
"ln": "138.47132000000"
},
"geometry": {
"type": "Point",
"coordinates": [
138.47132,
35.0411509991
]
}
},
{
"type": "Feature",
"properties": {
"Name": "清水有度西保育園",
"Jusho": "静岡県静岡市清水区中之郷1-10-27",
"Capacity": "172",
"la": "34.99852308310",
"ln": "138.44066687500"
},
"geometry": {
"type": "Point",
"coordinates": [
138.440666875,
34.9985230831
]
}
},
{
"type": "Feature",
"properties": {
"Name": "清水有度北保育園",
"Jusho": "静岡県静岡市清水区長崎740-1",
"Capacity": "206",
"la": "35.01565300000",
"ln": "138.44326700000"
},
"geometry": {
"type": "Point",
"coordinates": [
138.443267,
35.015653
]
}
},
{
"type": "Feature",
"properties": {
"Name": "清水老人憩の家清開きらく荘",
"Jusho": "静岡県静岡市清水区清開2-1-1",
"Capacity": "53",
"la": "34.99898274410",
"ln": "138.49238401400"
},
"geometry": {
"type": "Point",
"coordinates": [
138.492384014,
34.9989827441
]
}
},
{
"type": "Feature",
"properties": {
"Name": "折戸老人福祉センター羽衣荘",
"Jusho": "静岡県静岡市清水区折戸4-8-53",
"Capacity": "53",
"la": "34.99044900000",
"ln": "138.51362800000"
},
"geometry": {
"type": "Point",
"coordinates": [
138.513628,
34.990449
]
}
},
{
"type": "Feature",
"properties": {
"Name": "大平青少年の家",
"Jusho": "静岡県静岡市清水区大平469番地",
"Capacity": "－",
"la": "35.15639187100",
"ln": "138.42810481800"
},
"geometry": {
"type": "Point",
"coordinates": [
138.428104818,
35.156391871
]
}
},
{
"type": "Feature",
"properties": {
"Name": "長崎新田スポーツ広場",
"Jusho": "静岡県静岡市清水区長崎新田207",
"Capacity": "－",
"la": "35.01656700000",
"ln": "138.44938400000"
},
"geometry": {
"type": "Point",
"coordinates": [
138.449384,
35.016567
]
}
},
{
"type": "Feature",
"properties": {
"Name": "東海大学総合資料センター",
"Jusho": "静岡県静岡市清水区",
"Capacity": "－",
"la": "35.00956349360",
"ln": "138.52705061200"
},
"geometry": {
"type": "Point",
"coordinates": [
138.527050612,
35.0095634936
]
}
},
{
"type": "Feature",
"properties": {
"Name": "浜田生涯学習交流館",
"Jusho": "静岡県静岡市清水区浜田町4-4",
"Capacity": "106",
"la": "35.01505800000",
"ln": "138.48274400000"
},
"geometry": {
"type": "Point",
"coordinates": [
138.482744,
35.015058
]
}
},
{
"type": "Feature",
"properties": {
"Name": "鴨江広域避難地",
"Jusho": "静岡県浜松市中区",
"Capacity": "－",
"la": "34.70246000700",
"ln": "137.70946882800"
},
"geometry": {
"type": "Point",
"coordinates": [
137.709468828,
34.702460007
]
}
},
{
"type": "Feature",
"properties": {
"Name": "広沢広域避難地",
"Jusho": "静岡県浜松市中区",
"Capacity": "－",
"la": "34.71733844500",
"ln": "137.71666456700"
},
"geometry": {
"type": "Point",
"coordinates": [
137.716664567,
34.717338445
]
}
},
{
"type": "Feature",
"properties": {
"Name": "住吉広域避難地",
"Jusho": "静岡県浜松市中区住吉5丁目13番1号ほか",
"Capacity": "－",
"la": "34.73388800000",
"ln": "137.72780800000"
},
"geometry": {
"type": "Point",
"coordinates": [
137.727808,
34.733888
]
}
},
{
"type": "Feature",
"properties": {
"Name": "東部公民館",
"Jusho": "静岡県浜松市中区相生町23-1",
"Capacity": "－",
"la": "34.70669500000",
"ln": "137.74879500000"
},
"geometry": {
"type": "Point",
"coordinates": [
137.748795,
34.706695
]
}
},
{
"type": "Feature",
"properties": {
"Name": "ＡＲＣＯ浜名湖クレセント２１",
"Jusho": "静岡県浜松市西区舞阪町弁天島3371-2",
"Capacity": "－",
"la": "34.69861673850",
"ln": "137.59829753600"
},
"geometry": {
"type": "Point",
"coordinates": [
137.598297536,
34.6986167385
]
}
},
{
"type": "Feature",
"properties": {
"Name": "ＨＡＭＡＮＡＫＯＢＥＮＴＥＮＲＥＳＯＲＴＴＨＥＯＣＥＡＮ",
"Jusho": "静岡県浜松市西区舞阪町弁天島3285-88",
"Capacity": "－",
"la": "34.68992561350",
"ln": "137.60200764800"
},
"geometry": {
"type": "Point",
"coordinates": [
137.602007648,
34.6899256135
]
}
},
{
"type": "Feature",
"properties": {
"Name": "ＪＲ東海弁天島駅西側広場",
"Jusho": "静岡県浜松市西区舞阪町弁天島3285-18",
"Capacity": "－",
"la": "34.68945461970",
"ln": "137.60173964900"
},
"geometry": {
"type": "Point",
"coordinates": [
137.601739649,
34.6894546197
]
}
},
{
"type": "Feature",
"properties": {
"Name": "ＳＴ．ナイン",
"Jusho": "静岡県浜松市西区坪井町876",
"Capacity": "－",
"la": "34.68317682150",
"ln": "137.64586791500"
},
"geometry": {
"type": "Point",
"coordinates": [
137.645867915,
34.6831768215
]
}
},
{
"type": "Feature",
"properties": {
"Name": "アスティオンⅠ",
"Jusho": "静岡県浜松市西区雄踏一丁目17-34",
"Capacity": "－",
"la": "34.69475100000",
"ln": "137.64428900000"
},
"geometry": {
"type": "Point",
"coordinates": [
137.644289,
34.694751
]
}
},
{
"type": "Feature",
"properties": {
"Name": "オット・アンダーレ",
"Jusho": "静岡県浜松市西区篠原町21581",
"Capacity": "－",
"la": "34.68584738100",
"ln": "137.67029443300"
},
"geometry": {
"type": "Point",
"coordinates": [
137.670294433,
34.685847381
]
}
},
{
"type": "Feature",
"properties": {
"Name": "クラシオン",
"Jusho": "静岡県浜松市西区入野町10634-1",
"Capacity": "－",
"la": "34.69531900000",
"ln": "137.67923300000"
},
"geometry": {
"type": "Point",
"coordinates": [
137.679233,
34.695319
]
}
},
{
"type": "Feature",
"properties": {
"Name": "グランドエクシブ社員寮",
"Jusho": "静岡県浜松市西区村櫛町4671-1",
"Capacity": "－",
"la": "34.72073096410",
"ln": "137.59736779900"
},
"geometry": {
"type": "Point",
"coordinates": [
137.597367799,
34.7207309641
]
}
},
{
"type": "Feature",
"properties": {
"Name": "グランドエクシブ浜名湖",
"Jusho": "静岡県浜松市西区村櫛町4620",
"Capacity": "－",
"la": "34.72271592720",
"ln": "137.60456682600"
},
"geometry": {
"type": "Point",
"coordinates": [
137.604566826,
34.7227159272
]
}
},
{
"type": "Feature",
"properties": {
"Name": "コスモスＡ",
"Jusho": "静岡県浜松市西区雄踏町宇布見4959-3",
"Capacity": "－",
"la": "34.69760957350",
"ln": "137.63508200000"
},
"geometry": {
"type": "Point",
"coordinates": [
137.635082,
34.6976095735
]
}
},
{
"type": "Feature",
"properties": {
"Name": "コスモスＢ",
"Jusho": "静岡県浜松市西区雄踏町宇布見4863-331",
"Capacity": "－",
"la": "34.69524949400",
"ln": "137.63386960200"
},
"geometry": {
"type": "Point",
"coordinates": [
137.633869602,
34.695249494
]
}
},
{
"type": "Feature",
"properties": {
"Name": "コミュ二ティ防災センター",
"Jusho": "静岡県浜松市西区舞阪町舞阪601-8",
"Capacity": "－",
"la": "34.68751279940",
"ln": "137.61020141900"
},
"geometry": {
"type": "Point",
"coordinates": [
137.610201419,
34.6875127994
]
}
},
{
"type": "Feature",
"properties": {
"Name": "コンフォート志都呂",
"Jusho": "静岡県浜松市西区志都呂町5340",
"Capacity": "－",
"la": "34.69997917570",
"ln": "137.66395369100"
},
"geometry": {
"type": "Point",
"coordinates": [
137.663953691,
34.6999791757
]
}
},
{
"type": "Feature",
"properties": {
"Name": "コンフォール",
"Jusho": "静岡県浜松市西区志都呂町5215",
"Capacity": "－",
"la": "34.69997100000",
"ln": "137.66006300000"
},
"geometry": {
"type": "Point",
"coordinates": [
137.660063,
34.699971
]
}
},
{
"type": "Feature",
"properties": {
"Name": "サンレイク美浜",
"Jusho": "静岡県浜松市西区舞阪町弁天島3802",
"Capacity": "－",
"la": "34.69180661550",
"ln": "137.60595756500"
},
"geometry": {
"type": "Point",
"coordinates": [
137.605957565,
34.6918066155
]
}
},
{
"type": "Feature",
"properties": {
"Name": "スズキ㈱観月園研修センター",
"Jusho": "静岡県浜松市西区舞阪町弁天島2925-1",
"Capacity": "－",
"la": "34.69758968650",
"ln": "137.59825369500"
},
"geometry": {
"type": "Point",
"coordinates": [
137.598253695,
34.6975896865
]
}
},
{
"type": "Feature",
"properties": {
"Name": "はまゆう図書館",
"Jusho": "静岡県浜松市西区大人見町1750-394",
"Capacity": "－",
"la": "34.73787499910",
"ln": "137.65761900000"
},
"geometry": {
"type": "Point",
"coordinates": [
137.657619,
34.7378749991
]
}
},
{
"type": "Feature",
"properties": {
"Name": "パレスかわぐち",
"Jusho": "静岡県浜松市西区入野町14116-1",
"Capacity": "－",
"la": "34.70072506790",
"ln": "137.67402392100"
},
"geometry": {
"type": "Point",
"coordinates": [
137.674023921,
34.7007250679
]
}
},
{
"type": "Feature",
"properties": {
"Name": "フェリオ",
"Jusho": "静岡県浜松市西区雄踏町宇布見4863-4",
"Capacity": "－",
"la": "34.69532145250",
"ln": "137.63302891600"
},
"geometry": {
"type": "Point",
"coordinates": [
137.633028916,
34.6953214525
]
}
},
{
"type": "Feature",
"properties": {
"Name": "フローレンス",
"Jusho": "静岡県浜松市西区篠原町1144-18",
"Capacity": "－",
"la": "34.68820300000",
"ln": "137.67142600000"
},
"geometry": {
"type": "Point",
"coordinates": [
137.671426,
34.688203
]
}
},
{
"type": "Feature",
"properties": {
"Name": "まほら舞阪",
"Jusho": "静岡県浜松市西区舞阪町弁天島3481-26",
"Capacity": "－",
"la": "34.69503200000",
"ln": "137.59083200000"
},
"geometry": {
"type": "Point",
"coordinates": [
137.590832,
34.695032
]
}
},
{
"type": "Feature",
"properties": {
"Name": "メゾン・ターコイズ",
"Jusho": "静岡県浜松市西区入野町9737",
"Capacity": "－",
"la": "34.69711600000",
"ln": "137.67991600000"
},
"geometry": {
"type": "Point",
"coordinates": [
137.679916,
34.697116
]
}
},
{
"type": "Feature",
"properties": {
"Name": "メゾン・フロントーサ",
"Jusho": "静岡県浜松市西区入野町9727-2",
"Capacity": "－",
"la": "34.69846595070",
"ln": "137.68032901400"
},
"geometry": {
"type": "Point",
"coordinates": [
137.680329014,
34.6984659507
]
}
},
{
"type": "Feature",
"properties": {
"Name": "メニュエットⅠ",
"Jusho": "静岡県浜松市西区志都呂町5234",
"Capacity": "－",
"la": "34.69905831630",
"ln": "137.66020430100"
},
"geometry": {
"type": "Point",
"coordinates": [
137.660204301,
34.6990583163
]
}
},
{
"type": "Feature",
"properties": {
"Name": "ユーアイハイツ",
"Jusho": "静岡県浜松市西区坪井町531-1",
"Capacity": "－",
"la": "34.68481867050",
"ln": "137.64818747800"
},
"geometry": {
"type": "Point",
"coordinates": [
137.648187478,
34.6848186705
]
}
},
{
"type": "Feature",
"properties": {
"Name": "第一弁天島公民館",
"Jusho": "静岡県浜松市西区舞阪町弁天島3888-2",
"Capacity": "－",
"la": "34.69237622140",
"ln": "137.60416244500"
},
"geometry": {
"type": "Point",
"coordinates": [
137.604162445,
34.6923762214
]
}
},
{
"type": "Feature",
"properties": {
"Name": "乙女園グラウンド",
"Jusho": "静岡県浜松市西区舞阪町弁天島3541",
"Capacity": "－",
"la": "34.69471133010",
"ln": "137.59620259100"
},
"geometry": {
"type": "Point",
"coordinates": [
137.596202591,
34.6947113301
]
}
},
{
"type": "Feature",
"properties": {
"Name": "観月園児童遊園地",
"Jusho": "静岡県浜松市西区舞阪町弁天島3257-1",
"Capacity": "－",
"la": "34.69677945860",
"ln": "137.60021443800"
},
"geometry": {
"type": "Point",
"coordinates": [
137.600214438,
34.6967794586
]
}
},
{
"type": "Feature",
"properties": {
"Name": "岐佐神社",
"Jusho": "静岡県浜松市西区舞阪町舞阪1973､1974-1",
"Capacity": "－",
"la": "34.68376127760",
"ln": "137.61122767900"
},
"geometry": {
"type": "Point",
"coordinates": [
137.611227679,
34.6837612776
]
}
},
{
"type": "Feature",
"properties": {
"Name": "古橋廣之進記念浜松市総合水泳場ＴｏＢｉＯ",
"Jusho": "静岡県浜松市西区篠原町23982-1",
"Capacity": "－",
"la": "34.67527100000",
"ln": "137.67106500000"
},
"geometry": {
"type": "Point",
"coordinates": [
137.671065,
34.675271
]
}
},
{
"type": "Feature",
"properties": {
"Name": "古人見幼稚園",
"Jusho": "静岡県浜松市西区古人見町717",
"Capacity": "－",
"la": "34.72971339240",
"ln": "137.63370846600"
},
"geometry": {
"type": "Point",
"coordinates": [
137.633708466,
34.7297133924
]
}
},
{
"type": "Feature",
"properties": {
"Name": "佐浜会館",
"Jusho": "静岡県浜松市西区佐浜町1933-1",
"Capacity": "－",
"la": "34.74277168100",
"ln": "137.64444435000"
},
"geometry": {
"type": "Point",
"coordinates": [
137.64444435,
34.742771681
]
}
},
{
"type": "Feature",
"properties": {
"Name": "山崎公民館",
"Jusho": "静岡県浜松市西区雄踏町山崎3549-1",
"Capacity": "－",
"la": "34.71004950060",
"ln": "137.62218300000"
},
"geometry": {
"type": "Point",
"coordinates": [
137.622183,
34.7100495006
]
}
},
{
"type": "Feature",
"properties": {
"Name": "市営今切団地Ａ",
"Jusho": "静岡県浜松市西区舞阪町舞阪4602",
"Capacity": "－",
"la": "34.67931377200",
"ln": "137.60846231400"
},
"geometry": {
"type": "Point",
"coordinates": [
137.608462314,
34.679313772
]
}
},
{
"type": "Feature",
"properties": {
"Name": "市営今切団地Ｂ",
"Jusho": "静岡県浜松市西区舞阪町舞阪4602",
"Capacity": "－",
"la": "34.67958252270",
"ln": "137.60799586900"
},
"geometry": {
"type": "Point",
"coordinates": [
137.607995869,
34.6795825227
]
}
},
{
"type": "Feature",
"properties": {
"Name": "市営今切団地Ｃ",
"Jusho": "静岡県浜松市西区舞阪町舞阪4602",
"Capacity": "－",
"la": "34.67936141420",
"ln": "137.60810133900"
},
"geometry": {
"type": "Point",
"coordinates": [
137.608101339,
34.6793614142
]
}
},
{
"type": "Feature",
"properties": {
"Name": "市営住宅第二浜表団地Ｂ棟",
"Jusho": "静岡県浜松市西区舞阪町舞阪2668-238",
"Capacity": "－",
"la": "34.67896739860",
"ln": "137.62043219900"
},
"geometry": {
"type": "Point",
"coordinates": [
137.620432199,
34.6789673986
]
}
},
{
"type": "Feature",
"properties": {
"Name": "市営住宅第二浜表団地Ｃ棟",
"Jusho": "静岡県浜松市西区舞阪町舞阪2668-238",
"Capacity": "－",
"la": "34.67892097770",
"ln": "137.62112741100"
},
"geometry": {
"type": "Point",
"coordinates": [
137.621127411,
34.6789209777
]
}
},
{
"type": "Feature",
"properties": {
"Name": "市営住宅第二浜表団地Ｄ棟",
"Jusho": "静岡県浜松市西区舞阪町舞阪2668-238",
"Capacity": "－",
"la": "34.67886722720",
"ln": "137.62173646400"
},
"geometry": {
"type": "Point",
"coordinates": [
137.621736464,
34.6788672272
]
}
},
{
"type": "Feature",
"properties": {
"Name": "市営住宅第二浜表団地Ｅ棟",
"Jusho": "静岡県浜松市西区舞阪町舞阪2668-238",
"Capacity": "－",
"la": "34.67884279510",
"ln": "137.62236928500"
},
"geometry": {
"type": "Point",
"coordinates": [
137.622369285,
34.6788427951
]
}
},
{
"type": "Feature",
"properties": {
"Name": "市営住宅第二浜表団地Ｆ棟",
"Jusho": "静岡県浜松市西区舞阪町舞阪2668-238",
"Capacity": "－",
"la": "34.67878415810",
"ln": "137.62293674400"
},
"geometry": {
"type": "Point",
"coordinates": [
137.622936744,
34.6787841581
]
}
},
{
"type": "Feature",
"properties": {
"Name": "市営住宅第二浜表団地Ｇ棟",
"Jusho": "静岡県浜松市西区舞阪町舞阪2668-238",
"Capacity": "－",
"la": "34.67872063470",
"ln": "137.62354282600"
},
"geometry": {
"type": "Point",
"coordinates": [
137.623542826,
34.6787206347
]
}
},
{
"type": "Feature",
"properties": {
"Name": "市営住宅領家団地",
"Jusho": "静岡県浜松市西区雄踏町宇布見4874-5",
"Capacity": "－",
"la": "34.69515996290",
"ln": "137.63481730400"
},
"geometry": {
"type": "Point",
"coordinates": [
137.634817304,
34.6951599629
]
}
},
{
"type": "Feature",
"properties": {
"Name": "市営第三吹上団地Ａ",
"Jusho": "静岡県浜松市西区舞阪町舞阪808",
"Capacity": "－",
"la": "34.68618475540",
"ln": "137.62338833300"
},
"geometry": {
"type": "Point",
"coordinates": [
137.623388333,
34.6861847554
]
}
},
{
"type": "Feature",
"properties": {
"Name": "篠原ケアホーム",
"Jusho": "静岡県浜松市西区篠原町18345-28",
"Capacity": "－",
"la": "34.69118300000",
"ln": "137.65378300000"
},
"geometry": {
"type": "Point",
"coordinates": [
137.653783,
34.691183
]
}
},
{
"type": "Feature",
"properties": {
"Name": "順愛保育園",
"Jusho": "静岡県浜松市西区舞阪町舞阪5372",
"Capacity": "－",
"la": "34.68553200000",
"ln": "137.62265800000"
},
"geometry": {
"type": "Point",
"coordinates": [
137.622658,
34.685532
]
}
},
{
"type": "Feature",
"properties": {
"Name": "渚園",
"Jusho": "静岡県浜松市西区舞阪町弁天島5005-1",
"Capacity": "－",
"la": "34.69736278440",
"ln": "137.60735279500"
},
"geometry": {
"type": "Point",
"coordinates": [
137.607352795,
34.6973627844
]
}
},
{
"type": "Feature",
"properties": {
"Name": "商工会議所福利研修センターカリアック",
"Jusho": "静岡県浜松市西区村櫛町4597",
"Capacity": "－",
"la": "34.72526846530",
"ln": "137.60550713000"
},
"geometry": {
"type": "Point",
"coordinates": [
137.60550713,
34.7252684653
]
}
},
{
"type": "Feature",
"properties": {
"Name": "吹上浄水場",
"Jusho": "静岡県浜松市西区舞阪町舞阪2600-1",
"Capacity": "－",
"la": "34.69220194460",
"ln": "137.61338661100"
},
"geometry": {
"type": "Point",
"coordinates": [
137.613386611,
34.6922019446
]
}
},
{
"type": "Feature",
"properties": {
"Name": "西区役所",
"Jusho": "静岡県浜松市西区雄踏一丁目31-1",
"Capacity": "－",
"la": "34.69270599910",
"ln": "137.64532200000"
},
"geometry": {
"type": "Point",
"coordinates": [
137.645322,
34.6927059991
]
}
},
{
"type": "Feature",
"properties": {
"Name": "西部清掃工場管理棟",
"Jusho": "静岡県浜松市西区篠原町26098-1",
"Capacity": "－",
"la": "34.67475070020",
"ln": "137.66501091300"
},
"geometry": {
"type": "Point",
"coordinates": [
137.665010913,
34.6747507002
]
}
},
{
"type": "Feature",
"properties": {
"Name": "静岡県水産技術研究所（ウォット）",
"Jusho": "静岡県浜松市西区舞阪町弁天島5005-1",
"Capacity": "－",
"la": "34.69742629370",
"ln": "137.60563556300"
},
"geometry": {
"type": "Point",
"coordinates": [
137.605635563,
34.6974262937
]
}
},
{
"type": "Feature",
"properties": {
"Name": "千鳥園ゲートボール場",
"Jusho": "静岡県浜松市西区舞阪町弁天島3212-10",
"Capacity": "－",
"la": "34.69562519020",
"ln": "137.60301607000"
},
"geometry": {
"type": "Point",
"coordinates": [
137.60301607,
34.6956251902
]
}
},
{
"type": "Feature",
"properties": {
"Name": "総合体育館舞童夢",
"Jusho": "静岡県浜松市西区舞阪町舞阪2623-32",
"Capacity": "－",
"la": "34.67938700000",
"ln": "137.61283500000"
},
"geometry": {
"type": "Point",
"coordinates": [
137.612835,
34.679387
]
}
},
{
"type": "Feature",
"properties": {
"Name": "中部電力㈱弁天荘",
"Jusho": "静岡県浜松市西区舞阪町弁天島2742",
"Capacity": "－",
"la": "34.69495013000",
"ln": "137.60713540400"
},
"geometry": {
"type": "Point",
"coordinates": [
137.607135404,
34.69495013
]
}
},
{
"type": "Feature",
"properties": {
"Name": "忠産ビル",
"Jusho": "静岡県浜松市西区篠原町14171",
"Capacity": "－",
"la": "34.68720967110",
"ln": "137.67186750500"
},
"geometry": {
"type": "Point",
"coordinates": [
137.671867505,
34.6872096711
]
}
},
{
"type": "Feature",
"properties": {
"Name": "長池遊園地",
"Jusho": "静岡県浜松市西区舞阪町舞阪5375",
"Capacity": "－",
"la": "34.68547538690",
"ln": "137.62307946800"
},
"geometry": {
"type": "Point",
"coordinates": [
137.623079468,
34.6854753869
]
}
},
{
"type": "Feature",
"properties": {
"Name": "二弁公民館",
"Jusho": "静岡県浜松市西区舞阪町弁天島3209-1",
"Capacity": "－",
"la": "34.69552323690",
"ln": "137.60331820500"
},
"geometry": {
"type": "Point",
"coordinates": [
137.603318205,
34.6955232369
]
}
},
{
"type": "Feature",
"properties": {
"Name": "白洲公民館",
"Jusho": "静岡県浜松市西区白洲町3850-1",
"Capacity": "－",
"la": "34.73538931690",
"ln": "137.62368833800"
},
"geometry": {
"type": "Point",
"coordinates": [
137.623688338,
34.7353893169
]
}
},
{
"type": "Feature",
"properties": {
"Name": "浜松市立舞阪第２保育園",
"Jusho": "静岡県浜松市西区舞阪町舞阪2659-3",
"Capacity": "－",
"la": "34.68329873540",
"ln": "137.61373039100"
},
"geometry": {
"type": "Point",
"coordinates": [
137.613730391,
34.6832987354
]
}
},
{
"type": "Feature",
"properties": {
"Name": "舞阪第一保育園",
"Jusho": "静岡県浜松市西区舞阪町弁天島3885",
"Capacity": "－",
"la": "34.69269869080",
"ln": "137.60412775300"
},
"geometry": {
"type": "Point",
"coordinates": [
137.604127753,
34.6926986908
]
}
},
{
"type": "Feature",
"properties": {
"Name": "舞阪地域自治センター",
"Jusho": "静岡県浜松市西区舞阪町舞阪2701-9",
"Capacity": "－",
"la": "34.68741100000",
"ln": "137.60793000000"
},
"geometry": {
"type": "Point",
"coordinates": [
137.60793,
34.687411
]
}
},
{
"type": "Feature",
"properties": {
"Name": "舞阪文化センター",
"Jusho": "静岡県浜松市西区舞阪町舞阪2701-1",
"Capacity": "－",
"la": "34.68705700000",
"ln": "137.60767300000"
},
"geometry": {
"type": "Point",
"coordinates": [
137.607673,
34.687057
]
}
},
{
"type": "Feature",
"properties": {
"Name": "舞阪幼稚園",
"Jusho": "静岡県浜松市西区舞阪町舞阪2668-33",
"Capacity": "－",
"la": "34.68000400000",
"ln": "137.61035400000"
},
"geometry": {
"type": "Point",
"coordinates": [
137.610354,
34.680004
]
}
},
{
"type": "Feature",
"properties": {
"Name": "弁天島防災センター",
"Jusho": "静岡県浜松市西区舞阪町弁天島2733-1",
"Capacity": "－",
"la": "34.69311047270",
"ln": "137.60536650700"
},
"geometry": {
"type": "Point",
"coordinates": [
137.605366507,
34.6931104727
]
}
},
{
"type": "Feature",
"properties": {
"Name": "雄踏総合体育館",
"Jusho": "静岡県浜松市西区雄踏町宇布見9981-1",
"Capacity": "－",
"la": "34.70259900000",
"ln": "137.61764100000"
},
"geometry": {
"type": "Point",
"coordinates": [
137.617641,
34.702599
]
}
},
{
"type": "Feature",
"properties": {
"Name": "雄踏文化センター",
"Jusho": "静岡県浜松市西区雄踏町宇布見5427",
"Capacity": "－",
"la": "34.70147500000",
"ln": "137.63457800000"
},
"geometry": {
"type": "Point",
"coordinates": [
137.634578,
34.701475
]
}
},
{
"type": "Feature",
"properties": {
"Name": "雄踏文化センター大ホール・児童棟",
"Jusho": "静岡県浜松市西区雄踏町宇布見5427",
"Capacity": "－",
"la": "34.70155418370",
"ln": "137.63451417400"
},
"geometry": {
"type": "Point",
"coordinates": [
137.634514174,
34.7015541837
]
}
},
{
"type": "Feature",
"properties": {
"Name": "養泉寺",
"Jusho": "静岡県浜松市西区舞阪町舞阪1907-1",
"Capacity": "－",
"la": "34.68380400000",
"ln": "137.61228800000"
},
"geometry": {
"type": "Point",
"coordinates": [
137.612288,
34.683804
]
}
},
{
"type": "Feature",
"properties": {
"Name": "ＣａｓａＣａｍｐａｎａ",
"Jusho": "静岡県浜松市南区小沢渡町1275-1",
"Capacity": "－",
"la": "34.68588383710",
"ln": "137.67796715900"
},
"geometry": {
"type": "Point",
"coordinates": [
137.677967159,
34.6858838371
]
}
},
{
"type": "Feature",
"properties": {
"Name": "ＣＡＳＡＭＡＲＣＯ",
"Jusho": "静岡県浜松市南区遠州浜二丁目28-10",
"Capacity": "－",
"la": "34.65543500000",
"ln": "137.76815900000"
},
"geometry": {
"type": "Point",
"coordinates": [
137.768159,
34.655435
]
}
},
{
"type": "Feature",
"properties": {
"Name": "ＳｏｕｔｈｅｒｎＴｏｗｎⅠ",
"Jusho": "静岡県浜松市南区寺脇町767",
"Capacity": "－",
"la": "34.68376151360",
"ln": "137.75029016100"
},
"geometry": {
"type": "Point",
"coordinates": [
137.750290161,
34.6837615136
]
}
},
{
"type": "Feature",
"properties": {
"Name": "ＳｏｕｔｈｅｒｎＴｏｗｎⅡ",
"Jusho": "静岡県浜松市南区寺脇町769",
"Capacity": "－",
"la": "34.68352454500",
"ln": "137.75029423700"
},
"geometry": {
"type": "Point",
"coordinates": [
137.750294237,
34.683524545
]
}
},
{
"type": "Feature",
"properties": {
"Name": "ＴＣｍａｎｓｉｏｎ",
"Jusho": "静岡県浜松市南区瓜内町197-1",
"Capacity": "－",
"la": "34.69295227650",
"ln": "137.73594539200"
},
"geometry": {
"type": "Point",
"coordinates": [
137.735945392,
34.6929522765
]
}
},
{
"type": "Feature",
"properties": {
"Name": "Ｔｉｆｆａｎｙｎｉｎｅ",
"Jusho": "静岡県浜松市南区三島町674-2",
"Capacity": "－",
"la": "34.68924908640",
"ln": "137.74264708700"
},
"geometry": {
"type": "Point",
"coordinates": [
137.742647087,
34.6892490864
]
}
},
{
"type": "Feature",
"properties": {
"Name": "Ｔｉｆｆａｎｙｏｎｅ",
"Jusho": "静岡県浜松市南区三島町674-3",
"Capacity": "－",
"la": "34.68909137370",
"ln": "137.74256133400"
},
"geometry": {
"type": "Point",
"coordinates": [
137.742561334,
34.6890913737
]
}
},
{
"type": "Feature",
"properties": {
"Name": "ＴＫＭ",
"Jusho": "静岡県浜松市南区瓜内町964-1",
"Capacity": "－",
"la": "34.68573207510",
"ln": "137.73786409300"
},
"geometry": {
"type": "Point",
"coordinates": [
137.737864093,
34.6857320751
]
}
},
{
"type": "Feature",
"properties": {
"Name": "アンサンブル江ノ島",
"Jusho": "静岡県浜松市南区江之島町600-1",
"Capacity": "－",
"la": "34.66790544910",
"ln": "137.75155794900"
},
"geometry": {
"type": "Point",
"coordinates": [
137.751557949,
34.6679054491
]
}
},
{
"type": "Feature",
"properties": {
"Name": "アンソレイエ",
"Jusho": "静岡県浜松市南区三島町258",
"Capacity": "－",
"la": "34.68573095900",
"ln": "137.74033585000"
},
"geometry": {
"type": "Point",
"coordinates": [
137.74033585,
34.685730959
]
}
},
{
"type": "Feature",
"properties": {
"Name": "ヴェルメゾン飯尾",
"Jusho": "静岡県浜松市南区瓜内町586",
"Capacity": "－",
"la": "34.68950914010",
"ln": "137.73303178200"
},
"geometry": {
"type": "Point",
"coordinates": [
137.733031782,
34.6895091401
]
}
},
{
"type": "Feature",
"properties": {
"Name": "エザンス",
"Jusho": "静岡県浜松市南区新橋町732",
"Capacity": "－",
"la": "34.68203003600",
"ln": "137.70045997100"
},
"geometry": {
"type": "Point",
"coordinates": [
137.700459971,
34.682030036
]
}
},
{
"type": "Feature",
"properties": {
"Name": "エザンスⅡ",
"Jusho": "静岡県浜松市南区新橋町708-1",
"Capacity": "－",
"la": "34.68158482000",
"ln": "137.70085147800"
},
"geometry": {
"type": "Point",
"coordinates": [
137.700851478,
34.68158482
]
}
},
{
"type": "Feature",
"properties": {
"Name": "エレンシア",
"Jusho": "静岡県浜松市南区瓜内町203-1",
"Capacity": "－",
"la": "34.69287117580",
"ln": "137.73622082400"
},
"geometry": {
"type": "Point",
"coordinates": [
137.736220824,
34.6928711758
]
}
},
{
"type": "Feature",
"properties": {
"Name": "カーササンユー",
"Jusho": "静岡県浜松市南区三島町491",
"Capacity": "－",
"la": "34.69096237160",
"ln": "137.74017344900"
},
"geometry": {
"type": "Point",
"coordinates": [
137.740173449,
34.6909623716
]
}
},
{
"type": "Feature",
"properties": {
"Name": "ケアセンター芳川",
"Jusho": "静岡県浜松市南区鼡野町24",
"Capacity": "－",
"la": "34.67859367040",
"ln": "137.76350242000"
},
"geometry": {
"type": "Point",
"coordinates": [
137.76350242,
34.6785936704
]
}
},
{
"type": "Feature",
"properties": {
"Name": "ケアハウス西島",
"Jusho": "静岡県浜松市南区西島町103",
"Capacity": "－",
"la": "34.67199500000",
"ln": "137.76379100000"
},
"geometry": {
"type": "Point",
"coordinates": [
137.763791,
34.671995
]
}
},
{
"type": "Feature",
"properties": {
"Name": "コーポバーディ",
"Jusho": "静岡県浜松市南区白羽町209-3",
"Capacity": "－",
"la": "34.68110129420",
"ln": "137.73388731700"
},
"geometry": {
"type": "Point",
"coordinates": [
137.733887317,
34.6811012942
]
}
},
{
"type": "Feature",
"properties": {
"Name": "コーポラスサンライズＡ",
"Jusho": "静岡県浜松市南区寺脇町367",
"Capacity": "－",
"la": "34.68375410600",
"ln": "137.74409032100"
},
"geometry": {
"type": "Point",
"coordinates": [
137.744090321,
34.683754106
]
}
},
{
"type": "Feature",
"properties": {
"Name": "コーポラスサンライズＢ",
"Jusho": "静岡県浜松市南区寺脇町367",
"Capacity": "－",
"la": "34.68390435410",
"ln": "137.74409774800"
},
"geometry": {
"type": "Point",
"coordinates": [
137.744097748,
34.6839043541
]
}
},
{
"type": "Feature",
"properties": {
"Name": "コスモスマンション",
"Jusho": "静岡県浜松市南区新橋町495",
"Capacity": "－",
"la": "34.68328622770",
"ln": "137.69585852100"
},
"geometry": {
"type": "Point",
"coordinates": [
137.695858521,
34.6832862277
]
}
},
{
"type": "Feature",
"properties": {
"Name": "すこやかデュランティ",
"Jusho": "静岡県浜松市南区三島町95-1",
"Capacity": "－",
"la": "34.69002459950",
"ln": "137.73802802700"
},
"geometry": {
"type": "Point",
"coordinates": [
137.738028027,
34.6900245995
]
}
},
{
"type": "Feature",
"properties": {
"Name": "すこやかマーチ",
"Jusho": "静岡県浜松市南区瓜内町911",
"Capacity": "－",
"la": "34.68960400000",
"ln": "137.73673400000"
},
"geometry": {
"type": "Point",
"coordinates": [
137.736734,
34.689604
]
}
},
{
"type": "Feature",
"properties": {
"Name": "すこやかメロディー",
"Jusho": "静岡県浜松市南区瓜内町820",
"Capacity": "－",
"la": "34.68904566930",
"ln": "137.73586430500"
},
"geometry": {
"type": "Point",
"coordinates": [
137.735864305,
34.6890456693
]
}
},
{
"type": "Feature",
"properties": {
"Name": "バーディＪｒ",
"Jusho": "静岡県浜松市南区白羽町209-3",
"Capacity": "－",
"la": "34.68097913710",
"ln": "137.73391405600"
},
"geometry": {
"type": "Point",
"coordinates": [
137.733914056,
34.6809791371
]
}
},
{
"type": "Feature",
"properties": {
"Name": "ハーベストⅦ",
"Jusho": "静岡県浜松市南区高塚町4509-1",
"Capacity": "－",
"la": "34.68752173850",
"ln": "137.68388552200"
},
"geometry": {
"type": "Point",
"coordinates": [
137.683885522,
34.6875217385
]
}
},
{
"type": "Feature",
"properties": {
"Name": "フルオブライフ砂丘",
"Jusho": "静岡県浜松市南区田尻町1166-1",
"Capacity": "－",
"la": "34.66739800000",
"ln": "137.72295500000"
},
"geometry": {
"type": "Point",
"coordinates": [
137.722955,
34.667398
]
}
},
{
"type": "Feature",
"properties": {
"Name": "ペラルゴス",
"Jusho": "静岡県浜松市南区小沢渡町753",
"Capacity": "－",
"la": "34.68123744820",
"ln": "137.68922306300"
},
"geometry": {
"type": "Point",
"coordinates": [
137.689223063,
34.6812374482
]
}
},
{
"type": "Feature",
"properties": {
"Name": "まきの木館うたり",
"Jusho": "静岡県浜松市南区三島町338",
"Capacity": "－",
"la": "34.68851838040",
"ln": "137.74085280200"
},
"geometry": {
"type": "Point",
"coordinates": [
137.740852802,
34.6885183804
]
}
},
{
"type": "Feature",
"properties": {
"Name": "メゾン・アルタ",
"Jusho": "静岡県浜松市南区都盛町77-1",
"Capacity": "－",
"la": "34.68853805940",
"ln": "137.75659100000"
},
"geometry": {
"type": "Point",
"coordinates": [
137.756591,
34.6885380594
]
}
},
{
"type": "Feature",
"properties": {
"Name": "メゾン・エム",
"Jusho": "静岡県浜松市南区新橋町1179",
"Capacity": "－",
"la": "34.68092697660",
"ln": "137.71639943300"
},
"geometry": {
"type": "Point",
"coordinates": [
137.716399433,
34.6809269766
]
}
},
{
"type": "Feature",
"properties": {
"Name": "リバーサイド河輪",
"Jusho": "静岡県浜松市南区河輪町72-2",
"Capacity": "－",
"la": "34.67717122700",
"ln": "137.78611566600"
},
"geometry": {
"type": "Point",
"coordinates": [
137.786115666,
34.677171227
]
}
},
{
"type": "Feature",
"properties": {
"Name": "リバーサイド薫風",
"Jusho": "静岡県浜松市南区河輪町70-1",
"Capacity": "－",
"la": "34.67704869160",
"ln": "137.78652195600"
},
"geometry": {
"type": "Point",
"coordinates": [
137.786521956,
34.6770486916
]
}
},
{
"type": "Feature",
"properties": {
"Name": "介護老人福祉施設静光園",
"Jusho": "静岡県浜松市南区小沢渡町1300-1",
"Capacity": "－",
"la": "34.68542677200",
"ln": "137.67846795400"
},
"geometry": {
"type": "Point",
"coordinates": [
137.678467954,
34.685426772
]
}
},
{
"type": "Feature",
"properties": {
"Name": "株式会社クラベ本社",
"Jusho": "静岡県浜松市南区高塚町4830",
"Capacity": "－",
"la": "34.68741379870",
"ln": "137.67666415900"
},
"geometry": {
"type": "Point",
"coordinates": [
137.676664159,
34.6874137987
]
}
},
{
"type": "Feature",
"properties": {
"Name": "株式会社ヤマテ工業",
"Jusho": "静岡県浜松市南区三新町515-1",
"Capacity": "－",
"la": "34.65775201490",
"ln": "137.78483150000"
},
"geometry": {
"type": "Point",
"coordinates": [
137.7848315,
34.6577520149
]
}
},
{
"type": "Feature",
"properties": {
"Name": "県営遠州浜団地１０号棟",
"Jusho": "静岡県浜松市南区遠州浜一丁目11",
"Capacity": "－",
"la": "34.65906273380",
"ln": "137.76423156500"
},
"geometry": {
"type": "Point",
"coordinates": [
137.764231565,
34.6590627338
]
}
},
{
"type": "Feature",
"properties": {
"Name": "県営遠州浜団地１４号棟",
"Jusho": "静岡県浜松市南区遠州浜三丁目1",
"Capacity": "－",
"la": "34.65775397200",
"ln": "137.77151902900"
},
"geometry": {
"type": "Point",
"coordinates": [
137.771519029,
34.657753972
]
}
},
{
"type": "Feature",
"properties": {
"Name": "県営遠州浜団地１５号棟",
"Jusho": "静岡県浜松市南区遠州浜三丁目1",
"Capacity": "－",
"la": "34.65752180740",
"ln": "137.77172996900"
},
"geometry": {
"type": "Point",
"coordinates": [
137.771729969,
34.6575218074
]
}
},
{
"type": "Feature",
"properties": {
"Name": "県営遠州浜団地１９号棟",
"Jusho": "静岡県浜松市南区遠州浜三丁目1",
"Capacity": "－",
"la": "34.65733851960",
"ln": "137.77140316000"
},
"geometry": {
"type": "Point",
"coordinates": [
137.77140316,
34.6573385196
]
}
},
{
"type": "Feature",
"properties": {
"Name": "県営遠州浜団地１号棟",
"Jusho": "静岡県浜松市南区遠州浜一丁目11",
"Capacity": "－",
"la": "34.65882568580",
"ln": "137.76248313700"
},
"geometry": {
"type": "Point",
"coordinates": [
137.762483137,
34.6588256858
]
}
},
{
"type": "Feature",
"properties": {
"Name": "県営遠州浜団地２１号棟",
"Jusho": "静岡県浜松市南区遠州浜三丁目1",
"Capacity": "－",
"la": "34.65708191580",
"ln": "137.77105555400"
},
"geometry": {
"type": "Point",
"coordinates": [
137.771055554,
34.6570819158
]
}
},
{
"type": "Feature",
"properties": {
"Name": "県営遠州浜団地２号棟",
"Jusho": "静岡県浜松市南区遠州浜一丁目11",
"Capacity": "－",
"la": "34.65924357410",
"ln": "137.76269853400"
},
"geometry": {
"type": "Point",
"coordinates": [
137.762698534,
34.6592435741
]
}
},
{
"type": "Feature",
"properties": {
"Name": "県営遠州浜団地３号棟",
"Jusho": "静岡県浜松市南区遠州浜一丁目11",
"Capacity": "－",
"la": "34.65945862680",
"ln": "137.76250690500"
},
"geometry": {
"type": "Point",
"coordinates": [
137.762506905,
34.6594586268
]
}
},
{
"type": "Feature",
"properties": {
"Name": "県営遠州浜団地５号棟",
"Jusho": "静岡県浜松市南区遠州浜一丁目11",
"Capacity": "－",
"la": "34.65936087560",
"ln": "137.76308773400"
},
"geometry": {
"type": "Point",
"coordinates": [
137.763087734,
34.6593608756
]
}
},
{
"type": "Feature",
"properties": {
"Name": "県営遠州浜団地７号棟",
"Jusho": "静岡県浜松市南区遠州浜一丁目11",
"Capacity": "－",
"la": "34.65886234280",
"ln": "137.76368193200"
},
"geometry": {
"type": "Point",
"coordinates": [
137.763681932,
34.6588623428
]
}
},
{
"type": "Feature",
"properties": {
"Name": "県営芳川団地１号棟",
"Jusho": "静岡県浜松市南区参野町391-1",
"Capacity": "－",
"la": "34.69132442660",
"ln": "137.76254707200"
},
"geometry": {
"type": "Point",
"coordinates": [
137.762547072,
34.6913244266
]
}
},
{
"type": "Feature",
"properties": {
"Name": "県営芳川団地２号棟",
"Jusho": "静岡県浜松市南区参野町391-1",
"Capacity": "－",
"la": "34.69102151400",
"ln": "137.76250547800"
},
"geometry": {
"type": "Point",
"coordinates": [
137.762505478,
34.691021514
]
}
},
{
"type": "Feature",
"properties": {
"Name": "県営芳川団地３号棟",
"Jusho": "静岡県浜松市南区参野町391-1",
"Capacity": "－",
"la": "34.69074302900",
"ln": "137.76251142000"
},
"geometry": {
"type": "Point",
"coordinates": [
137.76251142,
34.690743029
]
}
},
{
"type": "Feature",
"properties": {
"Name": "雇用促進住宅浜松宿舎（サン・コーポラス浜松）",
"Jusho": "静岡県浜松市南区揚子町1346",
"Capacity": "－",
"la": "34.69652334320",
"ln": "137.74452194600"
},
"geometry": {
"type": "Point",
"coordinates": [
137.744521946,
34.6965233432
]
}
},
{
"type": "Feature",
"properties": {
"Name": "五島公民館",
"Jusho": "静岡県浜松市南区福島町242-1",
"Capacity": "－",
"la": "34.66337500000",
"ln": "137.76890700000"
},
"geometry": {
"type": "Point",
"coordinates": [
137.768907,
34.663375
]
}
},
{
"type": "Feature",
"properties": {
"Name": "三方原病院Ｂ館",
"Jusho": "静岡県浜松市南区小沢渡町2195-2",
"Capacity": "－",
"la": "34.67581800000",
"ln": "137.67784200000"
},
"geometry": {
"type": "Point",
"coordinates": [
137.677842,
34.675818
]
}
},
{
"type": "Feature",
"properties": {
"Name": "市営遠州浜団地Ｃ１",
"Jusho": "静岡県浜松市南区遠州浜一丁目19",
"Capacity": "－",
"la": "34.65786098330",
"ln": "137.76470410100"
},
"geometry": {
"type": "Point",
"coordinates": [
137.764704101,
34.6578609833
]
}
},
{
"type": "Feature",
"properties": {
"Name": "市営遠州浜団地Ｃ１０",
"Jusho": "静岡県浜松市南区遠州浜四丁目7",
"Capacity": "－",
"la": "34.65526487810",
"ln": "137.77700037700"
},
"geometry": {
"type": "Point",
"coordinates": [
137.777000377,
34.6552648781
]
}
},
{
"type": "Feature",
"properties": {
"Name": "市営遠州浜団地Ｃ２",
"Jusho": "静岡県浜松市南区遠州浜一丁目18",
"Capacity": "－",
"la": "34.65810908990",
"ln": "137.76472594200"
},
"geometry": {
"type": "Point",
"coordinates": [
137.764725942,
34.6581090899
]
}
},
{
"type": "Feature",
"properties": {
"Name": "市営遠州浜団地Ｃ３",
"Jusho": "静岡県浜松市南区遠州浜一丁目17",
"Capacity": "－",
"la": "34.65836998290",
"ln": "137.76478381100"
},
"geometry": {
"type": "Point",
"coordinates": [
137.764783811,
34.6583699829
]
}
},
{
"type": "Feature",
"properties": {
"Name": "市営遠州浜団地Ｃ４",
"Jusho": "静岡県浜松市南区遠州浜一丁目16",
"Capacity": "－",
"la": "34.65856010660",
"ln": "137.76482056500"
},
"geometry": {
"type": "Point",
"coordinates": [
137.764820565,
34.6585601066
]
}
},
{
"type": "Feature",
"properties": {
"Name": "市営遠州浜団地Ｃ５",
"Jusho": "静岡県浜松市南区遠州浜四丁目11",
"Capacity": "－",
"la": "34.65484654650",
"ln": "137.77720901400"
},
"geometry": {
"type": "Point",
"coordinates": [
137.777209014,
34.6548465465
]
}
},
{
"type": "Feature",
"properties": {
"Name": "市営遠州浜団地Ｃ６",
"Jusho": "静岡県浜松市南区遠州浜四丁目8",
"Capacity": "－",
"la": "34.65536020480",
"ln": "137.77745847800"
},
"geometry": {
"type": "Point",
"coordinates": [
137.777458478,
34.6553602048
]
}
},
{
"type": "Feature",
"properties": {
"Name": "市営遠州浜団地Ｃ７",
"Jusho": "静岡県浜松市南区遠州浜四丁目6",
"Capacity": "－",
"la": "34.65544421460",
"ln": "137.77702036200"
},
"geometry": {
"type": "Point",
"coordinates": [
137.777020362,
34.6554442146
]
}
},
{
"type": "Feature",
"properties": {
"Name": "市営遠州浜団地Ｃ８",
"Jusho": "静岡県浜松市南区遠州浜四丁目5",
"Capacity": "－",
"la": "34.65551346370",
"ln": "137.77657973900"
},
"geometry": {
"type": "Point",
"coordinates": [
137.776579739,
34.6555134637
]
}
},
{
"type": "Feature",
"properties": {
"Name": "市営遠州浜団地Ｃ９",
"Jusho": "静岡県浜松市南区遠州浜四丁目4",
"Capacity": "－",
"la": "34.65532999510",
"ln": "137.77656612800"
},
"geometry": {
"type": "Point",
"coordinates": [
137.776566128,
34.6553299951
]
}
},
{
"type": "Feature",
"properties": {
"Name": "市営遠州浜団地Ｄ１",
"Jusho": "静岡県浜松市南区遠州浜一丁目15",
"Capacity": "－",
"la": "34.65883792270",
"ln": "137.76485514300"
},
"geometry": {
"type": "Point",
"coordinates": [
137.764855143,
34.6588379227
]
}
},
{
"type": "Feature",
"properties": {
"Name": "市営遠州浜団地Ｄ２",
"Jusho": "静岡県浜松市南区遠州浜四丁目12",
"Capacity": "－",
"la": "34.65475491160",
"ln": "137.77774324600"
},
"geometry": {
"type": "Point",
"coordinates": [
137.777743246,
34.6547549116
]
}
},
{
"type": "Feature",
"properties": {
"Name": "市営遠州浜団地Ｄ３",
"Jusho": "静岡県浜松市南区遠州浜四丁目9",
"Capacity": "－",
"la": "34.65502079500",
"ln": "137.77777371000"
},
"geometry": {
"type": "Point",
"coordinates": [
137.77777371,
34.655020795
]
}
},
{
"type": "Feature",
"properties": {
"Name": "市営遠州浜団地みどり４",
"Jusho": "静岡県浜松市南区遠州浜二丁目23-2",
"Capacity": "－",
"la": "34.65774627490",
"ln": "137.76226467400"
},
"geometry": {
"type": "Point",
"coordinates": [
137.762264674,
34.6577462749
]
}
},
{
"type": "Feature",
"properties": {
"Name": "市営遠州浜団地みどり５",
"Jusho": "静岡県浜松市南区遠州浜一丁目23-3",
"Capacity": "－",
"la": "34.65769200000",
"ln": "137.76265779700"
},
"geometry": {
"type": "Point",
"coordinates": [
137.762657797,
34.657692
]
}
},
{
"type": "Feature",
"properties": {
"Name": "市営遠州浜団地光３",
"Jusho": "静岡県浜松市南区遠州浜一丁目1-1",
"Capacity": "－",
"la": "34.65860034290",
"ln": "137.75932153700"
},
"geometry": {
"type": "Point",
"coordinates": [
137.759321537,
34.6586003429
]
}
},
{
"type": "Feature",
"properties": {
"Name": "市営遠州浜団地光５",
"Jusho": "静岡県浜松市南区遠州浜一丁目2-4",
"Capacity": "－",
"la": "34.65773100000",
"ln": "137.76066200000"
},
"geometry": {
"type": "Point",
"coordinates": [
137.760662,
34.657731
]
}
},
{
"type": "Feature",
"properties": {
"Name": "市営遠州浜団地光８",
"Jusho": "静岡県浜松市南区遠州浜一丁目2-1",
"Capacity": "－",
"la": "34.65836465720",
"ln": "137.76064142100"
},
"geometry": {
"type": "Point",
"coordinates": [
137.760641421,
34.6583646572
]
}
},
{
"type": "Feature",
"properties": {
"Name": "市営遠州浜団地波７",
"Jusho": "静岡県浜松市南区遠州浜四丁目16-7",
"Capacity": "－",
"la": "34.65456611220",
"ln": "137.77615240600"
},
"geometry": {
"type": "Point",
"coordinates": [
137.776152406,
34.6545661122
]
}
},
{
"type": "Feature",
"properties": {
"Name": "市営遠州浜団地波８",
"Jusho": "静岡県浜松市南区遠州浜四丁目15-1",
"Capacity": "－",
"la": "34.65443800000",
"ln": "137.77741400000"
},
"geometry": {
"type": "Point",
"coordinates": [
137.777414,
34.654438
]
}
},
{
"type": "Feature",
"properties": {
"Name": "市営小沢渡団地ちどり",
"Jusho": "静岡県浜松市南区小沢渡町1363",
"Capacity": "－",
"la": "34.68382244040",
"ln": "137.67809257700"
},
"geometry": {
"type": "Point",
"coordinates": [
137.678092577,
34.6838224404
]
}
},
{
"type": "Feature",
"properties": {
"Name": "市営中田島団地Ｃ１",
"Jusho": "静岡県浜松市南区中田島町1372",
"Capacity": "－",
"la": "34.66686770920",
"ln": "137.74085669500"
},
"geometry": {
"type": "Point",
"coordinates": [
137.740856695,
34.6668677092
]
}
},
{
"type": "Feature",
"properties": {
"Name": "市営中田島団地Ｃ１０",
"Jusho": "静岡県浜松市南区白羽町2379-2",
"Capacity": "－",
"la": "34.66633291850",
"ln": "137.73628788400"
},
"geometry": {
"type": "Point",
"coordinates": [
137.736287884,
34.6663329185
]
}
},
{
"type": "Feature",
"properties": {
"Name": "市営中田島団地Ｃ１１",
"Jusho": "静岡県浜松市南区白羽町2379-2",
"Capacity": "－",
"la": "34.66629626480",
"ln": "137.73555107800"
},
"geometry": {
"type": "Point",
"coordinates": [
137.735551078,
34.6662962648
]
}
},
{
"type": "Feature",
"properties": {
"Name": "市営中田島団地Ｃ１２",
"Jusho": "静岡県浜松市南区白羽町2785-2",
"Capacity": "－",
"la": "34.66520829500",
"ln": "137.73677619800"
},
"geometry": {
"type": "Point",
"coordinates": [
137.736776198,
34.665208295
]
}
},
{
"type": "Feature",
"properties": {
"Name": "市営中田島団地Ｃ１３",
"Jusho": "静岡県浜松市南区白羽町2785-2",
"Capacity": "－",
"la": "34.66489062520",
"ln": "137.73675243000"
},
"geometry": {
"type": "Point",
"coordinates": [
137.73675243,
34.6648906252
]
}
},
{
"type": "Feature",
"properties": {
"Name": "市営中田島団地Ｃ１５・Ｄ１５",
"Jusho": "静岡県浜松市南区白羽町2785-2",
"Capacity": "－",
"la": "34.66570678970",
"ln": "137.73542142600"
},
"geometry": {
"type": "Point",
"coordinates": [
137.735421426,
34.6657067897
]
}
},
{
"type": "Feature",
"properties": {
"Name": "市営中田島団地Ｃ１６",
"Jusho": "静岡県浜松市南区白羽町2785-2",
"Capacity": "－",
"la": "34.66540378340",
"ln": "137.73537983300"
},
"geometry": {
"type": "Point",
"coordinates": [
137.735379833,
34.6654037834
]
}
},
{
"type": "Feature",
"properties": {
"Name": "市営中田島団地Ｃ１７",
"Jusho": "静岡県浜松市南区白羽町2700-2",
"Capacity": "－",
"la": "34.66590671300",
"ln": "137.73372931700"
},
"geometry": {
"type": "Point",
"coordinates": [
137.733729317,
34.665906713
]
}
},
{
"type": "Feature",
"properties": {
"Name": "市営中田島団地Ｃ２",
"Jusho": "静岡県浜松市南区中田島町1656-2",
"Capacity": "－",
"la": "34.66467463790",
"ln": "137.73947067600"
},
"geometry": {
"type": "Point",
"coordinates": [
137.739470676,
34.6646746379
]
}
},
{
"type": "Feature",
"properties": {
"Name": "市営中田島団地Ｃ２０",
"Jusho": "静岡県浜松市南区白羽町2700-5",
"Capacity": "－",
"la": "34.66595905890",
"ln": "137.73315776600"
},
"geometry": {
"type": "Point",
"coordinates": [
137.733157766,
34.6659590589
]
}
},
{
"type": "Feature",
"properties": {
"Name": "市営中田島団地Ｃ２１",
"Jusho": "静岡県浜松市南区白羽町2700-5",
"Capacity": "－",
"la": "34.66603481010",
"ln": "137.73252494500"
},
"geometry": {
"type": "Point",
"coordinates": [
137.732524945,
34.6660348101
]
}
},
{
"type": "Feature",
"properties": {
"Name": "市営中田島団地Ｃ２２",
"Jusho": "静岡県浜松市南区白羽町2700-5",
"Capacity": "－",
"la": "34.66564872290",
"ln": "137.73301218800"
},
"geometry": {
"type": "Point",
"coordinates": [
137.733012188,
34.6656487229
]
}
},
{
"type": "Feature",
"properties": {
"Name": "市営中田島団地Ｃ２３",
"Jusho": "静岡県浜松市南区白羽町2700-5",
"Capacity": "－",
"la": "34.66573302690",
"ln": "137.73245809800"
},
"geometry": {
"type": "Point",
"coordinates": [
137.732458098,
34.6657330269
]
}
},
{
"type": "Feature",
"properties": {
"Name": "市営中田島団地Ｃ２４",
"Jusho": "静岡県浜松市南区白羽町2700-5",
"Capacity": "－",
"la": "34.66532616760",
"ln": "137.73285769600"
},
"geometry": {
"type": "Point",
"coordinates": [
137.732857696,
34.6653261676
]
}
},
{
"type": "Feature",
"properties": {
"Name": "市営中田島団地Ｃ２５",
"Jusho": "静岡県浜松市南区白羽町2700-5",
"Capacity": "－",
"la": "34.66538481410",
"ln": "137.73237045400"
},
"geometry": {
"type": "Point",
"coordinates": [
137.732370454,
34.6653848141
]
}
},
{
"type": "Feature",
"properties": {
"Name": "市営中田島団地Ｃ２６",
"Jusho": "静岡県浜松市南区白羽町2700-8",
"Capacity": "－",
"la": "34.66620736970",
"ln": "137.73160788400"
},
"geometry": {
"type": "Point",
"coordinates": [
137.731607884,
34.6662073697
]
}
},
{
"type": "Feature",
"properties": {
"Name": "市営中田島団地Ｃ２７",
"Jusho": "静岡県浜松市南区白羽町2700-8",
"Capacity": "－",
"la": "34.66629045140",
"ln": "137.73115926400"
},
"geometry": {
"type": "Point",
"coordinates": [
137.731159264,
34.6662904514
]
}
},
{
"type": "Feature",
"properties": {
"Name": "市営中田島団地Ｃ２８",
"Jusho": "静岡県浜松市南区白羽町2700-10",
"Capacity": "－",
"la": "34.66554936890",
"ln": "137.73159305800"
},
"geometry": {
"type": "Point",
"coordinates": [
137.731593058,
34.6655493689
]
}
},
{
"type": "Feature",
"properties": {
"Name": "市営中田島団地Ｃ２９",
"Jusho": "静岡県浜松市南区白羽町2700-10",
"Capacity": "－",
"la": "34.66560312810",
"ln": "137.73102857000"
},
"geometry": {
"type": "Point",
"coordinates": [
137.73102857,
34.6656031281
]
}
},
{
"type": "Feature",
"properties": {
"Name": "市営中田島団地Ｃ３",
"Jusho": "静岡県浜松市南区中田島町1656-2",
"Capacity": "－",
"la": "34.66440095090",
"ln": "137.73942314000"
},
"geometry": {
"type": "Point",
"coordinates": [
137.73942314,
34.6644009509
]
}
},
{
"type": "Feature",
"properties": {
"Name": "市営中田島団地Ｃ３０",
"Jusho": "静岡県浜松市南区白羽町2700-13",
"Capacity": "－",
"la": "34.66635061920",
"ln": "137.73053864900"
},
"geometry": {
"type": "Point",
"coordinates": [
137.730538649,
34.6663506192
]
}
},
{
"type": "Feature",
"properties": {
"Name": "市営中田島団地Ｃ３１",
"Jusho": "静岡県浜松市南区白羽町2700-13",
"Capacity": "－",
"la": "34.66642637000",
"ln": "137.73000981200"
},
"geometry": {
"type": "Point",
"coordinates": [
137.730009812,
34.66642637
]
}
},
{
"type": "Feature",
"properties": {
"Name": "市営中田島団地Ｃ３２",
"Jusho": "静岡県浜松市南区白羽町2700-13",
"Capacity": "－",
"la": "34.66604028470",
"ln": "137.73041980900"
},
"geometry": {
"type": "Point",
"coordinates": [
137.730419809,
34.6660402847
]
}
},
{
"type": "Feature",
"properties": {
"Name": "市営中田島団地Ｃ３３",
"Jusho": "静岡県浜松市南区白羽町2700-13",
"Capacity": "－",
"la": "34.66614291510",
"ln": "137.72991474100"
},
"geometry": {
"type": "Point",
"coordinates": [
137.729914741,
34.6661429151
]
}
},
{
"type": "Feature",
"properties": {
"Name": "市営中田島団地Ｃ４",
"Jusho": "静岡県浜松市南区中田島町1656-2",
"Capacity": "－",
"la": "34.66477238280",
"ln": "137.73887053600"
},
"geometry": {
"type": "Point",
"coordinates": [
137.738870536,
34.6647723828
]
}
},
{
"type": "Feature",
"properties": {
"Name": "市営中田島団地Ｃ５",
"Jusho": "静岡県浜松市南区中田島町1656-2",
"Capacity": "－",
"la": "34.66459888550",
"ln": "137.73835655400"
},
"geometry": {
"type": "Point",
"coordinates": [
137.738356554,
34.6645988855
]
}
},
{
"type": "Feature",
"properties": {
"Name": "市営中田島団地Ｃ６",
"Jusho": "静岡県浜松市南区中田島町1656-2",
"Capacity": "－",
"la": "34.66487501490",
"ln": "137.73822880200"
},
"geometry": {
"type": "Point",
"coordinates": [
137.738228802,
34.6648750149
]
}
},
{
"type": "Feature",
"properties": {
"Name": "市営中田島団地Ｃ７",
"Jusho": "静岡県浜松市南区中田島町1656-2",
"Capacity": "－",
"la": "34.66471373590",
"ln": "137.73775047200"
},
"geometry": {
"type": "Point",
"coordinates": [
137.737750472,
34.6647137359
]
}
},
{
"type": "Feature",
"properties": {
"Name": "市営中田島団地Ｃ８",
"Jusho": "静岡県浜松市南区白羽町2379-2",
"Capacity": "－",
"la": "34.66634513640",
"ln": "137.73706628400"
},
"geometry": {
"type": "Point",
"coordinates": [
137.737066284,
34.6663451364
]
}
},
{
"type": "Feature",
"properties": {
"Name": "市営中田島団地Ｄ１４",
"Jusho": "静岡県浜松市南区白羽町2785-2",
"Capacity": "－",
"la": "34.66559927150",
"ln": "137.73617011600"
},
"geometry": {
"type": "Point",
"coordinates": [
137.736170116,
34.6655992715
]
}
},
{
"type": "Feature",
"properties": {
"Name": "市営中田島団地Ｄ１８",
"Jusho": "静岡県浜松市南区白羽町2700-2",
"Capacity": "－",
"la": "34.66553528670",
"ln": "137.73393134500"
},
"geometry": {
"type": "Point",
"coordinates": [
137.733931345,
34.6655352867
]
}
},
{
"type": "Feature",
"properties": {
"Name": "市営中田島団地Ｄ１９",
"Jusho": "静岡県浜松市南区白羽町2700-2",
"Capacity": "－",
"la": "34.66558904580",
"ln": "137.73356888400"
},
"geometry": {
"type": "Point",
"coordinates": [
137.733568884,
34.6655890458
]
}
},
{
"type": "Feature",
"properties": {
"Name": "市営中田島団地Ｄ９",
"Jusho": "静岡県浜松市南区白羽町2379-2",
"Capacity": "－",
"la": "34.66603968890",
"ln": "137.73700092200"
},
"geometry": {
"type": "Point",
"coordinates": [
137.737000922,
34.6660396889
]
}
},
{
"type": "Feature",
"properties": {
"Name": "新橋グラウンド広域避難地",
"Jusho": "静岡県浜松市南区",
"Capacity": "－",
"la": "34.68327805150",
"ln": "137.71585188700"
},
"geometry": {
"type": "Point",
"coordinates": [
137.715851887,
34.6832780515
]
}
},
{
"type": "Feature",
"properties": {
"Name": "新橋トットジョイ",
"Jusho": "静岡県浜松市南区新橋町678",
"Capacity": "－",
"la": "34.68253200000",
"ln": "137.69942900000"
},
"geometry": {
"type": "Point",
"coordinates": [
137.699429,
34.682532
]
}
},
{
"type": "Feature",
"properties": {
"Name": "第二砂丘寮",
"Jusho": "静岡県浜松市南区田尻町1182",
"Capacity": "－",
"la": "34.66689350080",
"ln": "137.72320674100"
},
"geometry": {
"type": "Point",
"coordinates": [
137.723206741,
34.6668935008
]
}
},
{
"type": "Feature",
"properties": {
"Name": "中部浄化センター汚泥処理棟",
"Jusho": "静岡県浜松市南区瓜内町1825",
"Capacity": "－",
"la": "34.67987938670",
"ln": "137.72986884600"
},
"geometry": {
"type": "Point",
"coordinates": [
137.729868846,
34.6798793867
]
}
},
{
"type": "Feature",
"properties": {
"Name": "特別養護老人ホーム西島寮",
"Jusho": "静岡県浜松市南区西島町101",
"Capacity": "－",
"la": "34.67212576430",
"ln": "137.76424392700"
},
"geometry": {
"type": "Point",
"coordinates": [
137.764243927,
34.6721257643
]
}
},
{
"type": "Feature",
"properties": {
"Name": "特別養護老人ホーム南風",
"Jusho": "静岡県浜松市南区倉松町593",
"Capacity": "－",
"la": "34.67587801040",
"ln": "137.69710052100"
},
"geometry": {
"type": "Point",
"coordinates": [
137.697100521,
34.6758780104
]
}
},
{
"type": "Feature",
"properties": {
"Name": "南区役所本館",
"Jusho": "静岡県浜松市南区江之島町600-1",
"Capacity": "－",
"la": "34.66731900000",
"ln": "137.75237200000"
},
"geometry": {
"type": "Point",
"coordinates": [
137.752372,
34.667319
]
}
},
{
"type": "Feature",
"properties": {
"Name": "南荘",
"Jusho": "静岡県浜松市南区三島町788-1",
"Capacity": "－",
"la": "34.68445814360",
"ln": "137.74439422300"
},
"geometry": {
"type": "Point",
"coordinates": [
137.744394223,
34.6844581436
]
}
},
{
"type": "Feature",
"properties": {
"Name": "南嶺荘",
"Jusho": "静岡県浜松市南区寺脇町399-2",
"Capacity": "－",
"la": "34.68402013900",
"ln": "137.74591276800"
},
"geometry": {
"type": "Point",
"coordinates": [
137.745912768,
34.684020139
]
}
},
{
"type": "Feature",
"properties": {
"Name": "白脇ケアセンター",
"Jusho": "静岡県浜松市南区白羽町1424",
"Capacity": "－",
"la": "34.67859400000",
"ln": "137.72790200000"
},
"geometry": {
"type": "Point",
"coordinates": [
137.727902,
34.678594
]
}
},
{
"type": "Feature",
"properties": {
"Name": "浜松南病院",
"Jusho": "静岡県浜松市南区白羽町26",
"Capacity": "－",
"la": "34.68451547000",
"ln": "137.73935760000"
},
"geometry": {
"type": "Point",
"coordinates": [
137.7393576,
34.68451547
]
}
},
{
"type": "Feature",
"properties": {
"Name": "（旧）渋川幼稚園",
"Jusho": "静岡県浜松市北区引佐町渋川18-2",
"Capacity": "－",
"la": "34.92558699910",
"ln": "137.68633800000"
},
"geometry": {
"type": "Point",
"coordinates": [
137.686338,
34.9255869991
]
}
},
{
"type": "Feature",
"properties": {
"Name": "１区地区コミュニティ防災センター",
"Jusho": "静岡県浜松市北区細江町中川899-4",
"Capacity": "－",
"la": "34.80811300000",
"ln": "137.69156100000"
},
"geometry": {
"type": "Point",
"coordinates": [
137.691561,
34.808113
]
}
},
{
"type": "Feature",
"properties": {
"Name": "５区コミュニティ防災センター",
"Jusho": "静岡県浜松市北区引佐町井伊谷3276-2",
"Capacity": "－",
"la": "34.82594100000",
"ln": "137.67770900000"
},
"geometry": {
"type": "Point",
"coordinates": [
137.677709,
34.825941
]
}
},
{
"type": "Feature",
"properties": {
"Name": "６区コミュニティ防災センター",
"Jusho": "静岡県浜松市北区引佐町井伊谷1727-1",
"Capacity": "－",
"la": "34.82675559030",
"ln": "137.66715836200"
},
"geometry": {
"type": "Point",
"coordinates": [
137.667158362,
34.8267555903
]
}
},
{
"type": "Feature",
"properties": {
"Name": "７区地区コミュニティ防災センター",
"Jusho": "静岡県浜松市北区細江町三和2125-1",
"Capacity": "－",
"la": "34.81613352950",
"ln": "137.66698910200"
},
"geometry": {
"type": "Point",
"coordinates": [
137.666989102,
34.8161335295
]
}
},
{
"type": "Feature",
"properties": {
"Name": "８区地区コミュニティ防災センター",
"Jusho": "静岡県浜松市北区細江町中川4947-2",
"Capacity": "－",
"la": "34.80809600000",
"ln": "137.66316400000"
},
"geometry": {
"type": "Point",
"coordinates": [
137.663164,
34.808096
]
}
},
{
"type": "Feature",
"properties": {
"Name": "９区地区コミュニティ防災センター",
"Jusho": "静岡県浜松市北区細江町中川5540",
"Capacity": "－",
"la": "34.80213500000",
"ln": "137.66150000000"
},
"geometry": {
"type": "Point",
"coordinates": [
137.6615,
34.802135
]
}
},
{
"type": "Feature",
"properties": {
"Name": "伊目農業構造改善センター",
"Jusho": "静岡県浜松市北区細江町気賀3831-1",
"Capacity": "－",
"la": "34.78718106940",
"ln": "137.64567909600"
},
"geometry": {
"type": "Point",
"coordinates": [
137.645679096,
34.7871810694
]
}
},
{
"type": "Feature",
"properties": {
"Name": "引佐高等学校",
"Jusho": "静岡県浜松市北区引佐町金指1428",
"Capacity": "－",
"la": "34.81818099910",
"ln": "137.67754700000"
},
"geometry": {
"type": "Point",
"coordinates": [
137.677547,
34.8181809991
]
}
},
{
"type": "Feature",
"properties": {
"Name": "奥山グラウンド奥山体育センター",
"Jusho": "静岡県浜松市北区引佐町奥山1550-1",
"Capacity": "－",
"la": "34.84936400000",
"ln": "137.62261300000"
},
"geometry": {
"type": "Point",
"coordinates": [
137.622613,
34.849364
]
}
},
{
"type": "Feature",
"properties": {
"Name": "下村地区コミュニティ防災センター",
"Jusho": "静岡県浜松市北区細江町気賀9800-4",
"Capacity": "－",
"la": "34.80082900000",
"ln": "137.62865000000"
},
"geometry": {
"type": "Point",
"coordinates": [
137.62865,
34.800829
]
}
},
{
"type": "Feature",
"properties": {
"Name": "気賀高等学校",
"Jusho": "静岡県浜松市北区細江町広岡1",
"Capacity": "－",
"la": "34.81314699910",
"ln": "137.66304700000"
},
"geometry": {
"type": "Point",
"coordinates": [
137.663047,
34.8131469991
]
}
},
{
"type": "Feature",
"properties": {
"Name": "金指コミュニティ防災センター",
"Jusho": "静岡県浜松市北区引佐町金指1324-2",
"Capacity": "－",
"la": "34.81923533950",
"ln": "137.67920075300"
},
"geometry": {
"type": "Point",
"coordinates": [
137.679200753,
34.8192353395
]
}
},
{
"type": "Feature",
"properties": {
"Name": "刑部地区コミュニティ防災センター",
"Jusho": "静岡県浜松市北区細江町中川6700-1",
"Capacity": "－",
"la": "34.80297750690",
"ln": "137.67881430400"
},
"geometry": {
"type": "Point",
"coordinates": [
137.678814304,
34.8029775069
]
}
},
{
"type": "Feature",
"properties": {
"Name": "湖東公民館",
"Jusho": "静岡県浜松市北区細江町中川7171-98",
"Capacity": "－",
"la": "34.79144076540",
"ln": "137.67992747200"
},
"geometry": {
"type": "Point",
"coordinates": [
137.679927472,
34.7914407654
]
}
},
{
"type": "Feature",
"properties": {
"Name": "呉石地区コミュニティ防災センター",
"Jusho": "静岡県浜松市北区細江町気賀7684-1",
"Capacity": "－",
"la": "34.80781703030",
"ln": "137.64298349200"
},
"geometry": {
"type": "Point",
"coordinates": [
137.642983492,
34.8078170303
]
}
},
{
"type": "Feature",
"properties": {
"Name": "広岡地区コミュニティ防災センター",
"Jusho": "静岡県浜松市北区細江町広岡88-1",
"Capacity": "－",
"la": "34.81408600000",
"ln": "137.66007500000"
},
"geometry": {
"type": "Point",
"coordinates": [
137.660075,
34.814086
]
}
},
{
"type": "Feature",
"properties": {
"Name": "高台幼稚園",
"Jusho": "静岡県浜松市北区細江町中川7172-701",
"Capacity": "－",
"la": "34.79413000000",
"ln": "137.68537000000"
},
"geometry": {
"type": "Point",
"coordinates": [
137.68537,
34.79413
]
}
},
{
"type": "Feature",
"properties": {
"Name": "三ヶ日公民館",
"Jusho": "静岡県浜松市北区三ヶ日町三ヶ日500-1",
"Capacity": "－",
"la": "34.80310600000",
"ln": "137.55585700000"
},
"geometry": {
"type": "Point",
"coordinates": [
137.555857,
34.803106
]
}
},
{
"type": "Feature",
"properties": {
"Name": "三ヶ日高等学校",
"Jusho": "静岡県浜松市北区三ヶ日町釣78-1",
"Capacity": "－",
"la": "34.80641699910",
"ln": "137.54294200000"
},
"geometry": {
"type": "Point",
"coordinates": [
137.542942,
34.8064169991
]
}
},
{
"type": "Feature",
"properties": {
"Name": "三ヶ日地区コミュニティ防災センター",
"Jusho": "静岡県浜松市北区三ヶ日町三ヶ日613-1",
"Capacity": "－",
"la": "34.80547900000",
"ln": "137.55615500000"
},
"geometry": {
"type": "Point",
"coordinates": [
137.556155,
34.805479
]
}
},
{
"type": "Feature",
"properties": {
"Name": "三ヶ日東部地区コミュニティ防災センター",
"Jusho": "静岡県浜松市北区三ヶ日町都筑1162-56",
"Capacity": "－",
"la": "34.79403398400",
"ln": "137.58398662300"
},
"geometry": {
"type": "Point",
"coordinates": [
137.583986623,
34.794033984
]
}
},
{
"type": "Feature",
"properties": {
"Name": "三ヶ日北部地区コミュニティ防災センター",
"Jusho": "静岡県浜松市北区三ヶ日町福長388-2",
"Capacity": "－",
"la": "34.82405149800",
"ln": "137.55176281100"
},
"geometry": {
"type": "Point",
"coordinates": [
137.551762811,
34.824051498
]
}
},
{
"type": "Feature",
"properties": {
"Name": "祝田地区コミュニティ防災センター",
"Jusho": "静岡県浜松市北区細江町中川6915",
"Capacity": "－",
"la": "34.80562804490",
"ln": "137.68798226100"
},
"geometry": {
"type": "Point",
"coordinates": [
137.687982261,
34.8056280449
]
}
},
{
"type": "Feature",
"properties": {
"Name": "小野地区コミュニティ防災センター",
"Jusho": "静岡県浜松市北区細江町小野4-8",
"Capacity": "－",
"la": "34.81945482850",
"ln": "137.66148333600"
},
"geometry": {
"type": "Point",
"coordinates": [
137.661483336,
34.8194548285
]
}
},
{
"type": "Feature",
"properties": {
"Name": "上町地区コミュニティ防災センター",
"Jusho": "静岡県浜松市北区細江町気賀1007-2",
"Capacity": "－",
"la": "34.80991016730",
"ln": "137.65230960800"
},
"geometry": {
"type": "Point",
"coordinates": [
137.652309608,
34.8099101673
]
}
},
{
"type": "Feature",
"properties": {
"Name": "寸座地区コミュニティ防災センター",
"Jusho": "静岡県浜松市北区細江町気賀11100-1",
"Capacity": "－",
"la": "34.79062400000",
"ln": "137.61330800000"
},
"geometry": {
"type": "Point",
"coordinates": [
137.613308,
34.790624
]
}
},
{
"type": "Feature",
"properties": {
"Name": "清水公民館",
"Jusho": "静岡県浜松市北区細江町気賀31-2",
"Capacity": "－",
"la": "34.80894013340",
"ln": "137.65716994200"
},
"geometry": {
"type": "Point",
"coordinates": [
137.657169942,
34.8089401334
]
}
},
{
"type": "Feature",
"properties": {
"Name": "西気賀コミュニティセンター",
"Jusho": "静岡県浜松市北区細江町気賀10413-6",
"Capacity": "－",
"la": "34.80181979480",
"ln": "137.61993249100"
},
"geometry": {
"type": "Point",
"coordinates": [
137.619932491,
34.8018197948
]
}
},
{
"type": "Feature",
"properties": {
"Name": "西四村コミュニティ防災センター",
"Jusho": "静岡県浜松市北区引佐町栃窪622-6",
"Capacity": "－",
"la": "34.84055069950",
"ln": "137.64837768300"
},
"geometry": {
"type": "Point",
"coordinates": [
137.648377683,
34.8405506995
]
}
},
{
"type": "Feature",
"properties": {
"Name": "石岡地区コミュニティ防災センター",
"Jusho": "静岡県浜松市北区細江町三和523-2",
"Capacity": "－",
"la": "34.81886148570",
"ln": "137.68657288400"
},
"geometry": {
"type": "Point",
"coordinates": [
137.686572884,
34.8188614857
]
}
},
{
"type": "Feature",
"properties": {
"Name": "跡川地区コミュニティ防災センター",
"Jusho": "静岡県浜松市北区細江町気賀8935",
"Capacity": "－",
"la": "34.80697001450",
"ln": "137.63310168100"
},
"geometry": {
"type": "Point",
"coordinates": [
137.633101681,
34.8069700145
]
}
},
{
"type": "Feature",
"properties": {
"Name": "大福寺保育園（休園）",
"Jusho": "静岡県浜松市北区三ヶ日町福長70-20",
"Capacity": "－",
"la": "34.82492406730",
"ln": "137.55706836700"
},
"geometry": {
"type": "Point",
"coordinates": [
137.557068367,
34.8249240673
]
}
},
{
"type": "Feature",
"properties": {
"Name": "滝沢グラウンド",
"Jusho": "静岡県浜松市北区滝沢町646-1",
"Capacity": "－",
"la": "34.85314442980",
"ln": "137.72833068600"
},
"geometry": {
"type": "Point",
"coordinates": [
137.728330686,
34.8531444298
]
}
},
{
"type": "Feature",
"properties": {
"Name": "長根地区コミュニティ防災センター",
"Jusho": "静岡県浜松市北区三ヶ日町福長1372-9",
"Capacity": "－",
"la": "34.82544165610",
"ln": "137.53944443300"
},
"geometry": {
"type": "Point",
"coordinates": [
137.539444433,
34.8254416561
]
}
},
{
"type": "Feature",
"properties": {
"Name": "油田地区コミュニティ防災センター",
"Jusho": "静岡県浜松市北区細江町気賀1374-2",
"Capacity": "－",
"la": "34.80172100000",
"ln": "137.65440400000"
},
"geometry": {
"type": "Point",
"coordinates": [
137.654404,
34.801721
]
}
},
{
"type": "Feature",
"properties": {
"Name": "老ケ谷農業構造改善センター",
"Jusho": "静岡県浜松市北区細江町気賀3831-4",
"Capacity": "－",
"la": "34.78715681400",
"ln": "137.64543250400"
},
"geometry": {
"type": "Point",
"coordinates": [
137.645432504,
34.787156814
]
}
},
{
"type": "Feature",
"properties": {
"Name": "浦川公民館",
"Jusho": "静岡県浜松市天竜区佐久間町浦川2729",
"Capacity": "－",
"la": "35.05232395470",
"ln": "137.76187039900"
},
"geometry": {
"type": "Point",
"coordinates": [
137.761870399,
35.0523239547
]
}
},
{
"type": "Feature",
"properties": {
"Name": "下阿多古運動場",
"Jusho": "静岡県浜松市天竜区上野948",
"Capacity": "－",
"la": "34.88974159040",
"ln": "137.78054520500"
},
"geometry": {
"type": "Point",
"coordinates": [
137.780545205,
34.8897415904
]
}
},
{
"type": "Feature",
"properties": {
"Name": "佐久間高等学校（グラウンド）",
"Jusho": "静岡県浜松市天竜区佐久間町中部683-1",
"Capacity": "－",
"la": "35.07920459000",
"ln": "137.79599297100"
},
"geometry": {
"type": "Point",
"coordinates": [
137.795992971,
35.07920459
]
}
},
{
"type": "Feature",
"properties": {
"Name": "佐久間高等学校（新体育館）",
"Jusho": "静岡県浜松市天竜区佐久間町中部683-1",
"Capacity": "－",
"la": "35.07931400000",
"ln": "137.79599000000"
},
"geometry": {
"type": "Point",
"coordinates": [
137.79599,
35.079314
]
}
},
{
"type": "Feature",
"properties": {
"Name": "山香活動センター",
"Jusho": "静岡県浜松市天竜区佐久間町大井2415-1",
"Capacity": "－",
"la": "35.07944400000",
"ln": "137.84173800000"
},
"geometry": {
"type": "Point",
"coordinates": [
137.841738,
35.079444
]
}
},
{
"type": "Feature",
"properties": {
"Name": "春野気田スポーツ広場",
"Jusho": "静岡県浜松市天竜区春野町気田850-1",
"Capacity": "－",
"la": "35.00467110620",
"ln": "137.91096373500"
},
"geometry": {
"type": "Point",
"coordinates": [
137.910963735,
35.0046711062
]
}
},
{
"type": "Feature",
"properties": {
"Name": "春野熊切スポーツ広場",
"Jusho": "静岡県浜松市天竜区春野町石打松下223-1",
"Capacity": "－",
"la": "34.99959302760",
"ln": "137.93990737200"
},
"geometry": {
"type": "Point",
"coordinates": [
137.939907372,
34.9995930276
]
}
},
{
"type": "Feature",
"properties": {
"Name": "春野犬居スポーツ広場",
"Jusho": "静岡県浜松市天竜区春野町堀之内997-1",
"Capacity": "－",
"la": "34.96005660250",
"ln": "137.89607801000"
},
"geometry": {
"type": "Point",
"coordinates": [
137.89607801,
34.9600566025
]
}
},
{
"type": "Feature",
"properties": {
"Name": "春野高等学校",
"Jusho": "静岡県浜松市天竜区春野町堀之内284",
"Capacity": "－",
"la": "34.95866699910",
"ln": "137.88870700000"
},
"geometry": {
"type": "Point",
"coordinates": [
137.888707,
34.9586669991
]
}
},
{
"type": "Feature",
"properties": {
"Name": "春野防災センター",
"Jusho": "静岡県浜松市天竜区春野町宮川1467-2",
"Capacity": "－",
"la": "34.98143553850",
"ln": "137.89663936000"
},
"geometry": {
"type": "Point",
"coordinates": [
137.89663936,
34.9814355385
]
}
},
{
"type": "Feature",
"properties": {
"Name": "上阿多古公民館",
"Jusho": "静岡県浜松市天竜区西藤平1555",
"Capacity": "－",
"la": "34.91054500000",
"ln": "137.76186900000"
},
"geometry": {
"type": "Point",
"coordinates": [
137.761869,
34.910545
]
}
},
{
"type": "Feature",
"properties": {
"Name": "水窪山村開発センター",
"Jusho": "静岡県浜松市天竜区水窪町奥領家2965-1",
"Capacity": "－",
"la": "35.16470500000",
"ln": "137.86882800000"
},
"geometry": {
"type": "Point",
"coordinates": [
137.868828,
35.164705
]
}
},
{
"type": "Feature",
"properties": {
"Name": "水窪総合体育館",
"Jusho": "静岡県浜松市天竜区水窪町地頭方241-3",
"Capacity": "－",
"la": "35.15494600000",
"ln": "137.86888100000"
},
"geometry": {
"type": "Point",
"coordinates": [
137.868881,
35.154946
]
}
},
{
"type": "Feature",
"properties": {
"Name": "水窪文化会館",
"Jusho": "静岡県浜松市天竜区水窪町奥領家3274-1",
"Capacity": "－",
"la": "35.16639000000",
"ln": "137.86915100000"
},
"geometry": {
"type": "Point",
"coordinates": [
137.869151,
35.16639
]
}
},
{
"type": "Feature",
"properties": {
"Name": "水窪保健福祉センター",
"Jusho": "静岡県浜松市天竜区水窪町奥領家2980-1",
"Capacity": "－",
"la": "35.16598800000",
"ln": "137.86954500000"
},
"geometry": {
"type": "Point",
"coordinates": [
137.869545,
35.165988
]
}
},
{
"type": "Feature",
"properties": {
"Name": "天竜障害者体育館",
"Jusho": "静岡県浜松市天竜区渡ｹ島20-16",
"Capacity": "－",
"la": "34.85622321880",
"ln": "137.79342395600"
},
"geometry": {
"type": "Point",
"coordinates": [
137.793423956,
34.8562232188
]
}
},
{
"type": "Feature",
"properties": {
"Name": "天竜壬生ホール",
"Jusho": "静岡県浜松市天竜区二俣町二俣20-2",
"Capacity": "－",
"la": "34.85858600000",
"ln": "137.81592400000"
},
"geometry": {
"type": "Point",
"coordinates": [
137.815924,
34.858586
]
}
},
{
"type": "Feature",
"properties": {
"Name": "天竜二俣駅東西広場",
"Jusho": "静岡県浜松市天竜区阿蔵137-8100-3",
"Capacity": "－",
"la": "34.85971474030",
"ln": "137.81637789800"
},
"geometry": {
"type": "Point",
"coordinates": [
137.816377898,
34.8597147403
]
}
},
{
"type": "Feature",
"properties": {
"Name": "天竜林業高等学校",
"Jusho": "静岡県浜松市天竜区二俣町二俣601",
"Capacity": "－",
"la": "34.86987599910",
"ln": "137.81291200000"
},
"geometry": {
"type": "Point",
"coordinates": [
137.812912,
34.8698759991
]
}
},
{
"type": "Feature",
"properties": {
"Name": "二俣高等学校",
"Jusho": "静岡県浜松市天竜区二俣町二俣196-2",
"Capacity": "－",
"la": "34.86598799910",
"ln": "137.81743900000"
},
"geometry": {
"type": "Point",
"coordinates": [
137.817439,
34.8659879991
]
}
},
{
"type": "Feature",
"properties": {
"Name": "竜川運動場",
"Jusho": "静岡県浜松市天竜区横山町390",
"Capacity": "－",
"la": "34.94097757100",
"ln": "137.81801318400"
},
"geometry": {
"type": "Point",
"coordinates": [
137.818013184,
34.940977571
]
}
},
{
"type": "Feature",
"properties": {
"Name": "龍山健康増進センター",
"Jusho": "静岡県浜松市天竜区龍山町戸倉217-1",
"Capacity": "－",
"la": "34.96644574750",
"ln": "137.83730634800"
},
"geometry": {
"type": "Point",
"coordinates": [
137.837306348,
34.9664457475
]
}
},
{
"type": "Feature",
"properties": {
"Name": "龍山高齢者コミュニティセンター",
"Jusho": "静岡県浜松市天竜区龍山町大嶺1279-3",
"Capacity": "－",
"la": "34.99065300000",
"ln": "137.78261500000"
},
"geometry": {
"type": "Point",
"coordinates": [
137.782615,
34.990653
]
}
},
{
"type": "Feature",
"properties": {
"Name": "龍山森林文化会館",
"Jusho": "静岡県浜松市天竜区龍山町瀬尻982-2",
"Capacity": "－",
"la": "35.02315400000",
"ln": "137.83999100000"
},
"geometry": {
"type": "Point",
"coordinates": [
137.839991,
35.023154
]
}
},
{
"type": "Feature",
"properties": {
"Name": "龍山総合センター",
"Jusho": "静岡県浜松市天竜区龍山町大嶺580-1",
"Capacity": "－",
"la": "34.96949687340",
"ln": "137.82588113600"
},
"geometry": {
"type": "Point",
"coordinates": [
137.825881136,
34.9694968734
]
}
},
{
"type": "Feature",
"properties": {
"Name": "龍山保健センター",
"Jusho": "静岡県浜松市天竜区龍山町戸倉711-2",
"Capacity": "－",
"la": "34.97868723290",
"ln": "137.83071201400"
},
"geometry": {
"type": "Point",
"coordinates": [
137.830712014,
34.9786872329
]
}
},
{
"type": "Feature",
"properties": {
"Name": "龍山老人福祉センター",
"Jusho": "静岡県浜松市天竜区龍山町下平山248-2",
"Capacity": "－",
"la": "35.00846200000",
"ln": "137.84090700000"
},
"geometry": {
"type": "Point",
"coordinates": [
137.840907,
35.008462
]
}
},
{
"type": "Feature",
"properties": {
"Name": "（株）きんでん中部支社沼津営業所",
"Jusho": "静岡県沼津市",
"Capacity": "－",
"la": "35.08716960070",
"ln": "138.86785433300"
},