var o={
"type":"FeatureCollection",
"features":[
{
"type":"Feature",
"properties":{
"Name":"ＪＡパーキング協同",
"Jusho":"山梨県甲府市宝一丁目1",
"Capacity":"－",
"la":"35.66787450290",
"ln":"138.56423763600"
},
"geometry":{
"type":"Point",
"coordinates":[
138.564237636,
35.6678745029
]
}
},
{
"type":"Feature",
"properties":{
"Name":"ＮＡＣ湯村",
"Jusho":"山梨県甲府市湯村3-1-13",
"Capacity":"－",
"la":"35.68340299910",
"ln":"138.54676900000"
},
"geometry":{
"type":"Point",
"coordinates":[
138.546769,
35.6834029991
]
}
},
{
"type":"Feature",
"properties":{
"Name":"あずま太陽の家",
"Jusho":"山梨県甲府市羽黒町1272-1",
"Capacity":"－",
"la":"35.69106900000",
"ln":"138.54860200000"
},
"geometry":{
"type":"Point",
"coordinates":[
138.548602,
35.691069
]
}
},
{
"type":"Feature",
"properties":{
"Name":"エスペランサ",
"Jusho":"山梨県甲府市西高橋328-1",
"Capacity":"－",
"la":"35.63718100000",
"ln":"138.59854800000"
},
"geometry":{
"type":"Point",
"coordinates":[
138.598548,
35.637181
]
}
},
{
"type":"Feature",
"properties":{
"Name":"かえで支援学校",
"Jusho":"山梨県甲府市東光寺2-25-1",
"Capacity":"－",
"la":"35.66462900000",
"ln":"138.58737700000"
},
"geometry":{
"type":"Point",
"coordinates":[
138.587377,
35.664629
]
}
},
{
"type":"Feature",
"properties":{
"Name":"きぼうの家",
"Jusho":"山梨県甲府市羽黒町1255",
"Capacity":"－",
"la":"35.69084700000",
"ln":"138.54835200000"
},
"geometry":{
"type":"Point",
"coordinates":[
138.548352,
35.690847
]
}
},
{
"type":"Feature",
"properties":{
"Name":"コスモ",
"Jusho":"山梨県甲府市下向山町1280-1",
"Capacity":"－",
"la":"35.58912400000",
"ln":"138.58099700000"
},
"geometry":{
"type":"Point",
"coordinates":[
138.580997,
35.589124
]
}
},
{
"type":"Feature",
"properties":{
"Name":"コラニ―文化ホール（県民文化ホール）駐車場",
"Jusho":"山梨県甲府市寿町26-1",
"Capacity":"－",
"la":"35.65815774870",
"ln":"138.56133302900"
},
"geometry":{
"type":"Point",
"coordinates":[
138.561333029,
35.6581577487
]
}
},
{
"type":"Feature",
"properties":{
"Name":"サテライト特養尚古園",
"Jusho":"山梨県甲府市中央1-16-2",
"Capacity":"－",
"la":"35.65910500000",
"ln":"138.57006700000"
},
"geometry":{
"type":"Point",
"coordinates":[
138.570067,
35.659105
]
}
},
{
"type":"Feature",
"properties":{
"Name":"すみよし生活支援センター",
"Jusho":"山梨県甲府市住吉4-11-5",
"Capacity":"－",
"la":"35.63888300000",
"ln":"138.57812900000"
},
"geometry":{
"type":"Point",
"coordinates":[
138.578129,
35.638883
]
}
},
{
"type":"Feature",
"properties":{
"Name":"ダイタ駅前第一・第二駐車場",
"Jusho":"山梨県甲府市丸の内二丁目",
"Capacity":"－",
"la":"35.66613484970",
"ln":"138.56655320400"
},
"geometry":{
"type":"Point",
"coordinates":[
138.566553204,
35.6661348497
]
}
},
{
"type":"Feature",
"properties":{
"Name":"トリアス",
"Jusho":"山梨県甲府市国玉町951-1",
"Capacity":"－",
"la":"35.64632600000",
"ln":"138.59859900000"
},
"geometry":{
"type":"Point",
"coordinates":[
138.598599,
35.646326
]
}
},
{
"type":"Feature",
"properties":{
"Name":"なでしこ荘",
"Jusho":"山梨県甲府市横根町554",
"Capacity":"－",
"la":"35.65758696780",
"ln":"138.61511465400"
},
"geometry":{
"type":"Point",
"coordinates":[
138.615114654,
35.6575869678
]
}
},
{
"type":"Feature",
"properties":{
"Name":"ピース工房なかみち",
"Jusho":"山梨県甲府市右左口町1257-6",
"Capacity":"－",
"la":"35.57461100000",
"ln":"138.58368500000"
},
"geometry":{
"type":"Point",
"coordinates":[
138.583685,
35.574611
]
}
},
{
"type":"Feature",
"properties":{
"Name":"へいりん荘敷地（老人ホーム）",
"Jusho":"山梨県甲府市向町568",
"Capacity":"－",
"la":"35.64407999910",
"ln":"138.61221700000"
},
"geometry":{
"type":"Point",
"coordinates":[
138.612217,
35.6440799991
]
}
},
{
"type":"Feature",
"properties":{
"Name":"ホープステーション",
"Jusho":"山梨県甲府市富竹1-12-11",
"Capacity":"－",
"la":"35.65579900000",
"ln":"138.54717600000"
},
"geometry":{
"type":"Point",
"coordinates":[
138.547176,
35.655799
]
}
},
{
"type":"Feature",
"properties":{
"Name":"ゆうき工房",
"Jusho":"山梨県甲府市飯田1-3-19",
"Capacity":"－",
"la":"35.66952601050",
"ln":"138.55663434800"
},
"geometry":{
"type":"Point",
"coordinates":[
138.556634348,
35.6695260105
]
}
},
{
"type":"Feature",
"properties":{
"Name":"ロイヤル明石",
"Jusho":"山梨県甲府市上町2473",
"Capacity":"－",
"la":"35.63664600000",
"ln":"138.58711100000"
},
"geometry":{
"type":"Point",
"coordinates":[
138.587111,
35.636646
]
}
},
{
"type":"Feature",
"properties":{
"Name":"英和学院",
"Jusho":"山梨県甲府市",
"Capacity":"－",
"la":"35.66737900000",
"ln":"138.57551700000"
},
"geometry":{
"type":"Point",
"coordinates":[
138.575517,
35.667379
]
}
},
{
"type":"Feature",
"properties":{
"Name":"奥湯村園",
"Jusho":"山梨県甲府市羽黒町1657-5",
"Capacity":"－",
"la":"35.69268000000",
"ln":"138.55029600000"
},
"geometry":{
"type":"Point",
"coordinates":[
138.550296,
35.69268
]
}
},
{
"type":"Feature",
"properties":{
"Name":"快晴苑",
"Jusho":"山梨県甲府市大津町333",
"Capacity":"－",
"la":"35.60902500000",
"ln":"138.56385400000"
},
"geometry":{
"type":"Point",
"coordinates":[
138.563854,
35.609025
]
}
},
{
"type":"Feature",
"properties":{
"Name":"笠屋神社境内",
"Jusho":"山梨県甲府市徳行五丁目1",
"Capacity":"－",
"la":"35.65359889290",
"ln":"138.54006181900"
},
"geometry":{
"type":"Point",
"coordinates":[
138.540061819,
35.6535988929
]
}
},
{
"type":"Feature",
"properties":{
"Name":"環境センター管理棟",
"Jusho":"山梨県甲府市上町601-4",
"Capacity":"－",
"la":"35.62836399460",
"ln":"138.59624967900"
},
"geometry":{
"type":"Point",
"coordinates":[
138.596249679,
35.6283639946
]
}
},
{
"type":"Feature",
"properties":{
"Name":"教育研修所駐車場",
"Jusho":"山梨県甲府市城東一丁目12-28",
"Capacity":"－",
"la":"35.65988814430",
"ln":"138.58066305200"
},
"geometry":{
"type":"Point",
"coordinates":[
138.580663052,
35.6598881443
]
}
},
{
"type":"Feature",
"properties":{
"Name":"県営能泉駐車場",
"Jusho":"山梨県甲府市上帯那町",
"Capacity":"－",
"la":"35.73826431950",
"ln":"138.56533533400"
},
"geometry":{
"type":"Point",
"coordinates":[
138.565335334,
35.7382643195
]
}
},
{
"type":"Feature",
"properties":{
"Name":"県営飯田野球場",
"Jusho":"山梨県甲府市飯田五丁目11",
"Capacity":"－",
"la":"35.66275200000",
"ln":"138.55455600000"
},
"geometry":{
"type":"Point",
"coordinates":[
138.554556,
35.662752
]
}
},
{
"type":"Feature",
"properties":{
"Name":"県立青少年センター駐車場・グラウンド",
"Jusho":"山梨県甲府市川田町517",
"Capacity":"－",
"la":"35.65288460700",
"ln":"138.62554058900"
},
"geometry":{
"type":"Point",
"coordinates":[
138.625540589,
35.652884607
]
}
},
{
"type":"Feature",
"properties":{
"Name":"県立美術館広場",
"Jusho":"山梨県甲府市貢川一丁目4-27",
"Capacity":"－",
"la":"35.66014258000",
"ln":"138.53831853000"
},
"geometry":{
"type":"Point",
"coordinates":[
138.53831853,
35.66014258
]
}
},
{
"type":"Feature",
"properties":{
"Name":"向徳舎",
"Jusho":"山梨県甲府市向町277",
"Capacity":"－",
"la":"35.64717500000",
"ln":"138.61125100000"
},
"geometry":{
"type":"Point",
"coordinates":[
138.611251,
35.647175
]
}
},
{
"type":"Feature",
"properties":{
"Name":"甲府かわせみ苑",
"Jusho":"山梨県甲府市横根町554",
"Capacity":"－",
"la":"35.65740907910",
"ln":"138.61574440000"
},
"geometry":{
"type":"Point",
"coordinates":[
138.6157444,
35.6574090791
]
}
},
{
"type":"Feature",
"properties":{
"Name":"甲府工業高等学校",
"Jusho":"山梨県甲府市塩部二丁目7-1",
"Capacity":"－",
"la":"35.67154400000",
"ln":"138.55740700000"
},
"geometry":{
"type":"Point",
"coordinates":[
138.557407,
35.671544
]
}
},
{
"type":"Feature",
"properties":{
"Name":"甲府市医療福祉会館",
"Jusho":"山梨県甲府市",
"Capacity":"－",
"la":"35.64568605280",
"ln":"138.57322189600"
},
"geometry":{
"type":"Point",
"coordinates":[
138.573221896,
35.6456860528
]
}
},
{
"type":"Feature",
"properties":{
"Name":"甲府市玉諸福祉センター",
"Jusho":"山梨県甲府市向町568",
"Capacity":"－",
"la":"35.64348487800",
"ln":"138.61258911900"
},
"geometry":{
"type":"Point",
"coordinates":[
138.612589119,
35.643484878
]
}
},
{
"type":"Feature",
"properties":{
"Name":"甲府市貢川福祉センター",
"Jusho":"山梨県甲府市徳行3-12-1",
"Capacity":"－",
"la":"35.64738100000",
"ln":"138.54163200000"
},
"geometry":{
"type":"Point",
"coordinates":[
138.541632,
35.647381
]
}
},
{
"type":"Feature",
"properties":{
"Name":"甲府市山宮福祉センター",
"Jusho":"山梨県甲府市山宮町383-1",
"Capacity":"－",
"la":"35.69666376660",
"ln":"138.52645135700"
},
"geometry":{
"type":"Point",
"coordinates":[
138.526451357,
35.6966637666
]
}
},
{
"type":"Feature",
"properties":{
"Name":"甲府市障害者センター",
"Jusho":"山梨県甲府市東光寺1-10-25",
"Capacity":"－",
"la":"35.66136744860",
"ln":"138.58694342300"
},
"geometry":{
"type":"Point",
"coordinates":[
138.586943423,
35.6613674486
]
}
},
{
"type":"Feature",
"properties":{
"Name":"甲府市上九の湯ふれあいセンター",
"Jusho":"山梨県甲府市古関町1174",
"Capacity":"－",
"la":"35.53091045250",
"ln":"138.60991856700"
},
"geometry":{
"type":"Point",
"coordinates":[
138.609918567,
35.5309104525
]
}
},
{
"type":"Feature",
"properties":{
"Name":"甲府市相川福祉センター",
"Jusho":"山梨県甲府市古府中町6019",
"Capacity":"－",
"la":"35.69113900000",
"ln":"138.57676900000"
},
"geometry":{
"type":"Point",
"coordinates":[
138.576769,
35.691139
]
}
},
{
"type":"Feature",
"properties":{
"Name":"甲府市総合市民会館駐車場",
"Jusho":"山梨県甲府市青沼三丁目5-44",
"Capacity":"－",
"la":"35.65226592770",
"ln":"138.57605893100"
},
"geometry":{
"type":"Point",
"coordinates":[
138.576058931,
35.6522659277
]
}
},
{
"type":"Feature",
"properties":{
"Name":"甲府商科専門学校校庭",
"Jusho":"山梨県甲府市西下条町1020",
"Capacity":"－",
"la":"35.60888544920",
"ln":"138.57597643000"
},
"geometry":{
"type":"Point",
"coordinates":[
138.57597643,
35.6088854492
]
}
},
{
"type":"Feature",
"properties":{
"Name":"甲府商業高等学校",
"Jusho":"山梨県甲府市上今井町300",
"Capacity":"－",
"la":"35.62660700000",
"ln":"138.57485200000"
},
"geometry":{
"type":"Point",
"coordinates":[
138.574852,
35.626607
]
}
},
{
"type":"Feature",
"properties":{
"Name":"甲府城西高等学校",
"Jusho":"山梨県甲府市下飯田一丁目9-1",
"Capacity":"－",
"la":"35.66687800000",
"ln":"138.54635300000"
},
"geometry":{
"type":"Point",
"coordinates":[
138.546353,
35.666878
]
}
},
{
"type":"Feature",
"properties":{
"Name":"甲府浄化センター",
"Jusho":"山梨県甲府市",
"Capacity":"－",
"la":"35.59661240060",
"ln":"138.56067343800"
},
"geometry":{
"type":"Point",
"coordinates":[
138.560673438,
35.5966124006
]
}
},
{
"type":"Feature",
"properties":{
"Name":"甲府西高等学校",
"Jusho":"山梨県甲府市下飯田四丁目1-1",
"Capacity":"－",
"la":"35.66135100000",
"ln":"138.54943600000"
},
"geometry":{
"type":"Point",
"coordinates":[
138.549436,
35.661351
]
}
},
{
"type":"Feature",
"properties":{
"Name":"甲府第一高等学校",
"Jusho":"山梨県甲府市美咲二丁目13-44",
"Capacity":"－",
"la":"35.67673800000",
"ln":"138.56374000000"
},
"geometry":{
"type":"Point",
"coordinates":[
138.56374,
35.676738
]
}
},
{
"type":"Feature",
"properties":{
"Name":"甲府東高等学校",
"Jusho":"山梨県甲府市酒折一丁目17-1",
"Capacity":"－",
"la":"35.65590800000",
"ln":"138.59596000000"
},
"geometry":{
"type":"Point",
"coordinates":[
138.59596,
35.655908
]
}
},
{
"type":"Feature",
"properties":{
"Name":"甲府南ライフケア",
"Jusho":"山梨県甲府市住吉5-24-14",
"Capacity":"－",
"la":"35.63513299910",
"ln":"138.57804600000"
},
"geometry":{
"type":"Point",
"coordinates":[
138.578046,
35.6351329991
]
}
},
{
"type":"Feature",
"properties":{
"Name":"甲府南高等学校",
"Jusho":"山梨県甲府市中小河原町222",
"Capacity":"－",
"la":"35.63102300000",
"ln":"138.57382400000"
},
"geometry":{
"type":"Point",
"coordinates":[
138.573824,
35.631023
]
}
},
{
"type":"Feature",
"properties":{
"Name":"荒川緑地（音羽橋下流右岸）",
"Jusho":"山梨県甲府市荒川二丁目",
"Capacity":"－",
"la":"35.67704223060",
"ln":"138.53945497000"
},
"geometry":{
"type":"Point",
"coordinates":[
138.53945497,
35.6770422306
]
}
},
{
"type":"Feature",
"properties":{
"Name":"荒川緑地（音羽橋下流左岸）",
"Jusho":"山梨県甲府市荒川二丁目",
"Capacity":"－",
"la":"35.67761122570",
"ln":"138.53988407900"
},
"geometry":{
"type":"Point",
"coordinates":[
138.539884079,
35.6776112257
]
}
},
{
"type":"Feature",
"properties":{
"Name":"荒川緑地（新平和橋下流左岸）",
"Jusho":"山梨県甲府市伊勢四丁目",
"Capacity":"－",
"la":"35.63980830760",
"ln":"138.56387479200"
},
"geometry":{
"type":"Point",
"coordinates":[
138.563874792,
35.6398083076
]
}
},
{
"type":"Feature",
"properties":{
"Name":"荒川緑地（千秋橋下流右岸）",
"Jusho":"山梨県甲府市高畑三丁目",
"Capacity":"－",
"la":"35.64728654730",
"ln":"138.56522417600"
},
"geometry":{
"type":"Point",
"coordinates":[
138.565224176,
35.6472865473
]
}
},
{
"type":"Feature",
"properties":{
"Name":"荒川緑地（千秋橋上流右岸）",
"Jusho":"山梨県甲府市高畑一丁目",
"Capacity":"－",
"la":"35.64843202930",
"ln":"138.56533943600"
},
"geometry":{
"type":"Point",
"coordinates":[
138.565339436,
35.6484320293
]
}
},
{
"type":"Feature",
"properties":{
"Name":"荒川緑地（千秋橋上流左岸）",
"Jusho":"山梨県甲府市伊勢一丁目",
"Capacity":"－",
"la":"35.64857374020",
"ln":"138.56614957100"
},
"geometry":{
"type":"Point",
"coordinates":[
138.566149571,
35.6485737402
]
}
},
{
"type":"Feature",
"properties":{
"Name":"貢川福祉センター",
"Jusho":"山梨県甲府市徳行三丁目12-1",
"Capacity":"－",
"la":"35.64737300000",
"ln":"138.54161900000"
},
"geometry":{
"type":"Point",
"coordinates":[
138.541619,
35.647373
]
}
},
{
"type":"Feature",
"properties":{
"Name":"桜井寮",
"Jusho":"山梨県甲府市桜井町558",
"Capacity":"－",
"la":"35.65802000000",
"ln":"138.61791100000"
},
"geometry":{
"type":"Point",
"coordinates":[
138.617911,
35.65802
]
}
},
{
"type":"Feature",
"properties":{
"Name":"山宮福祉センター",
"Jusho":"山梨県甲府市山宮町383-1",
"Capacity":"－",
"la":"35.69663300000",
"ln":"138.52664600000"
},
"geometry":{
"type":"Point",
"coordinates":[
138.526646,
35.696633
]
}
},
{
"type":"Feature",
"properties":{
"Name":"山梨学院大第３駐車場",
"Jusho":"山梨県甲府市酒折二丁目",
"Capacity":"－",
"la":"35.65648069950",
"ln":"138.60252335900"
},
"geometry":{
"type":"Point",
"coordinates":[
138.602523359,
35.6564806995
]
}
},
{
"type":"Feature",
"properties":{
"Name":"山梨県立大学グラウンド池田キャンパス",
"Jusho":"山梨県甲府市池田一丁目6-1",
"Capacity":"－",
"la":"35.67148300000",
"ln":"138.54590400000"
},
"geometry":{
"type":"Point",
"coordinates":[
138.545904,
35.671483
]
}
},
{
"type":"Feature",
"properties":{
"Name":"山梨県立大学グラウンド飯田キャンパス",
"Jusho":"山梨県甲府市飯田五丁目11-1",
"Capacity":"－",
"la":"35.66380200000",
"ln":"138.55606000000"
},
"geometry":{
"type":"Point",
"coordinates":[
138.55606,
35.663802
]
}
},
{
"type":"Feature",
"properties":{
"Name":"山梨大学グラウンド（東）",
"Jusho":"山梨県甲府市大手二丁目1",
"Capacity":"－",
"la":"35.67774011280",
"ln":"138.57634070500"
},
"geometry":{
"type":"Point",
"coordinates":[
138.576340705,
35.6777401128
]
}
},
{
"type":"Feature",
"properties":{
"Name":"山梨大学グラウンド（北）",
"Jusho":"山梨県甲府市大手二丁目2",
"Capacity":"－",
"la":"35.67892232210",
"ln":"138.57791203300"
},
"geometry":{
"type":"Point",
"coordinates":[
138.577912033,
35.6789223221
]
}
},
{
"type":"Feature",
"properties":{
"Name":"市自治研修センター",
"Jusho":"山梨県甲府市相生一丁目9-7",
"Capacity":"－",
"la":"35.65646400000",
"ln":"138.56586900000"
},
"geometry":{
"type":"Point",
"coordinates":[
138.565869,
35.656464
]
}
},
{
"type":"Feature",
"properties":{
"Name":"市立図書館駐車場",
"Jusho":"山梨県甲府市城東一丁目12-33",
"Capacity":"－",
"la":"35.65973020280",
"ln":"138.58164345200"
},
"geometry":{
"type":"Point",
"coordinates":[
138.581643452,
35.6597302028
]
}
},
{
"type":"Feature",
"properties":{
"Name":"支援センターみさき",
"Jusho":"山梨県甲府市美咲1-8-5",
"Capacity":"－",
"la":"35.67442624990",
"ln":"138.56326423200"
},
"geometry":{
"type":"Point",
"coordinates":[
138.563264232,
35.6744262499
]
}
},
{
"type":"Feature",
"properties":{
"Name":"春光園",
"Jusho":"山梨県甲府市増坪町813-2",
"Capacity":"－",
"la":"35.63135800000",
"ln":"138.59564800000"
},
"geometry":{
"type":"Point",
"coordinates":[
138.595648,
35.631358
]
}
},
{
"type":"Feature",
"properties":{
"Name":"駿台甲府高等学校校庭",
"Jusho":"山梨県甲府市塩部二丁目8-1",
"Capacity":"－",
"la":"35.67048900000",
"ln":"138.55774100000"
},
"geometry":{
"type":"Point",
"coordinates":[
138.557741,
35.670489
]
}
},
{
"type":"Feature",
"properties":{
"Name":"尚古園",
"Jusho":"山梨県甲府市和田町2948-6",
"Capacity":"－",
"la":"35.68761900000",
"ln":"138.56147100000"
},
"geometry":{
"type":"Point",
"coordinates":[
138.561471,
35.687619
]
}
},
{
"type":"Feature",
"properties":{
"Name":"上九一色出張所",
"Jusho":"山梨県甲府市古関町1158",
"Capacity":"－",
"la":"35.53077899910",
"ln":"138.61006200000"
},
"geometry":{
"type":"Point",
"coordinates":[
138.610062,
35.5307789991
]
}
},
{
"type":"Feature",
"properties":{
"Name":"上曽根いきいきプラザ",
"Jusho":"山梨県甲府市",
"Capacity":"－",
"la":"35.60189081480",
"ln":"138.59808626300"
},
"geometry":{
"type":"Point",
"coordinates":[
138.598086263,
35.6018908148
]
}
},
{
"type":"Feature",
"properties":{
"Name":"西部市民センター",
"Jusho":"山梨県甲府市長松寺町12-30",
"Capacity":"－",
"la":"35.66527000000",
"ln":"138.54000700000"
},
"geometry":{
"type":"Point",
"coordinates":[
138.540007,
35.66527
]
}
},
{
"type":"Feature",
"properties":{
"Name":"青い鳥成人寮",
"Jusho":"山梨県甲府市下飯田2-10-1",
"Capacity":"－",
"la":"35.66549724120",
"ln":"138.54616715700"
},
"geometry":{
"type":"Point",
"coordinates":[
138.546167157,
35.6654972412
]
}
},
{
"type":"Feature",
"properties":{
"Name":"青葉スポーツ広場",
"Jusho":"山梨県甲府市青葉町19-1",
"Capacity":"－",
"la":"35.64305623020",
"ln":"138.58324178600"
},
"geometry":{
"type":"Point",
"coordinates":[
138.583241786,
35.6430562302
]
}
},
{
"type":"Feature",
"properties":{
"Name":"千代田荘",
"Jusho":"山梨県甲府市下帯那町3215-1",
"Capacity":"－",
"la":"35.71104830200",
"ln":"138.56190808900"
},
"geometry":{
"type":"Point",
"coordinates":[
138.561908089,
35.711048302
]
}
},
{
"type":"Feature",
"properties":{
"Name":"相川ケアセンター",
"Jusho":"山梨県甲府市塚原町359",
"Capacity":"－",
"la":"35.69398853060",
"ln":"138.56972765200"
},
"geometry":{
"type":"Point",
"coordinates":[
138.569727652,
35.6939885306
]
}
},
{
"type":"Feature",
"properties":{
"Name":"大津ケアセンター",
"Jusho":"山梨県甲府市大津町1509",
"Capacity":"－",
"la":"35.59837013600",
"ln":"138.56441171000"
},
"geometry":{
"type":"Point",
"coordinates":[
138.56441171,
35.598370136
]
}
},
{
"type":"Feature",
"properties":{
"Name":"中央卸売市場駐車場",
"Jusho":"山梨県甲府市国母六丁目5-1",
"Capacity":"－",
"la":"35.63553584180",
"ln":"138.55712216800"
},
"geometry":{
"type":"Point",
"coordinates":[
138.557122168,
35.6355358418
]
}
},
{
"type":"Feature",
"properties":{
"Name":"中央部市民センター",
"Jusho":"山梨県甲府市丸の内三丁目26-16",
"Capacity":"－",
"la":"35.66083300000",
"ln":"138.56331600000"
},
"geometry":{
"type":"Point",
"coordinates":[
138.563316,
35.660833
]
}
},
{
"type":"Feature",
"properties":{
"Name":"中道ＹＬＯ会館",
"Jusho":"山梨県甲府市",
"Capacity":"－",
"la":"35.58972500000",
"ln":"138.57760500000"
},
"geometry":{
"type":"Point",
"coordinates":[
138.577605,
35.589725
]
}
},
{
"type":"Feature",
"properties":{
"Name":"中道スポーツ広場",
"Jusho":"山梨県甲府市下向山町946",
"Capacity":"－",
"la":"35.58625340200",
"ln":"138.58864950000"
},
"geometry":{
"type":"Point",
"coordinates":[
138.5886495,
35.586253402
]
}
},
{
"type":"Feature",
"properties":{
"Name":"中道スポーツ広場体育館",
"Jusho":"山梨県甲府市下向山町946",
"Capacity":"－",
"la":"35.58548825770",
"ln":"138.58937477900"
},
"geometry":{
"type":"Point",
"coordinates":[
138.589374779,
35.5854882577
]
}
},
{
"type":"Feature",
"properties":{
"Name":"中道支所",
"Jusho":"山梨県甲府市",
"Capacity":"－",
"la":"35.58924299910",
"ln":"138.57793200000"
},
"geometry":{
"type":"Point",
"coordinates":[
138.577932,
35.5892429991
]
}
},
{
"type":"Feature",
"properties":{
"Name":"東海大学甲府高等学校校庭",
"Jusho":"山梨県甲府市金竹町1-1",
"Capacity":"－",
"la":"35.66782200000",
"ln":"138.53852100000"
},
"geometry":{
"type":"Point",
"coordinates":[
138.538521,
35.667822
]
}
},
{
"type":"Feature",
"properties":{
"Name":"東部市民センター",
"Jusho":"山梨県甲府市和戸町955-1",
"Capacity":"－",
"la":"35.65280699910",
"ln":"138.61304300000"
},
"geometry":{
"type":"Point",
"coordinates":[
138.613043,
35.6528069991
]
}
},
{
"type":"Feature",
"properties":{
"Name":"湯田高等学校里吉グラウンド",
"Jusho":"山梨県甲府市里吉二丁目7",
"Capacity":"－",
"la":"35.65066462860",
"ln":"138.59280981600"
},
"geometry":{
"type":"Point",
"coordinates":[
138.592809816,
35.6506646286
]
}
},
{
"type":"Feature",
"properties":{
"Name":"八幡神社境内",
"Jusho":"山梨県甲府市宮前町194",
"Capacity":"－",
"la":"35.67448196200",
"ln":"138.57511719300"
},
"geometry":{
"type":"Point",
"coordinates":[
138.575117193,
35.674481962
]
}
},
{
"type":"Feature",
"properties":{
"Name":"八幡神社境内",
"Jusho":"山梨県甲府市富竹三丁目4",
"Capacity":"－",
"la":"35.65718942340",
"ln":"138.54126419700"
},
"geometry":{
"type":"Point",
"coordinates":[
138.541264197,
35.6571894234
]
}
},
{
"type":"Feature",
"properties":{
"Name":"武田神社境内",
"Jusho":"山梨県甲府市古府中町2611",
"Capacity":"－",
"la":"35.68685599910",
"ln":"138.57748100000"
},
"geometry":{
"type":"Point",
"coordinates":[
138.577481,
35.6868559991
]
}
},
{
"type":"Feature",
"properties":{
"Name":"風林荘",
"Jusho":"山梨県甲府市宮原町1191",
"Capacity":"－",
"la":"35.61765405880",
"ln":"138.55723200000"
},
"geometry":{
"type":"Point",
"coordinates":[
138.557232,
35.6176540588
]
}
},
{
"type":"Feature",
"properties":{
"Name":"北東部市民センター",
"Jusho":"山梨県甲府市武田三丁目1-6",
"Capacity":"－",
"la":"35.67530600000",
"ln":"138.56977300000"
},
"geometry":{
"type":"Point",
"coordinates":[
138.569773,
35.675306
]
}
},
{
"type":"Feature",
"properties":{
"Name":"和久園",
"Jusho":"山梨県甲府市中村町4-12",
"Capacity":"－",
"la":"35.66771200000",
"ln":"138.53341000000"
},
"geometry":{
"type":"Point",
"coordinates":[
138.53341,
35.667712
]
}
},
{
"type":"Feature",
"properties":{
"Name":"南西部市民センター",
"Jusho":"山梨県甲府市国母六丁目4-2",
"Capacity":"－",
"la":"35.63717880350",
"ln":"138.55501569600"
},
"geometry":{
"type":"Point",
"coordinates":[
138.555015696,
35.6371788035
]
}
},
{
"type":"Feature",
"properties":{
"Name":"南部市民センター",
"Jusho":"山梨県甲府市下今井町15",
"Capacity":"－",
"la":"35.61418100000",
"ln":"138.57988000000"
},
"geometry":{
"type":"Point",
"coordinates":[
138.57988,
35.614181
]
}
},
{
"type":"Feature",
"properties":{
"Name":"旭町会館",
"Jusho":"山梨県富士吉田市旭3-4-1",
"Capacity":"－",
"la":"35.49816999910",
"ln":"138.79259700000"
},
"geometry":{
"type":"Point",
"coordinates":[
138.792597,
35.4981699991
]
}
},
{
"type":"Feature",
"properties":{
"Name":"下吉田コミュニティセンター",
"Jusho":"山梨県富士吉田市下吉田886",
"Capacity":"－",
"la":"35.49518500000",
"ln":"138.79546400000"
},
"geometry":{
"type":"Point",
"coordinates":[
138.795464,
35.495185
]
}
},
{
"type":"Feature",
"properties":{
"Name":"下吉田南コミュニティセンター",
"Jusho":"山梨県富士吉田市下吉田2094-3",
"Capacity":"－",
"la":"35.48609400000",
"ln":"138.80647100000"
},
"geometry":{
"type":"Point",
"coordinates":[
138.806471,
35.486094
]
}
},
{
"type":"Feature",
"properties":{
"Name":"下宿会館",
"Jusho":"山梨県富士吉田市上吉田3-14-12",
"Capacity":"－",
"la":"35.48038599910",
"ln":"138.79663900000"
},
"geometry":{
"type":"Point",
"coordinates":[
138.796639,
35.4803859991
]
}
},
{
"type":"Feature",
"properties":{
"Name":"県立ひばりが丘高等学校",
"Jusho":"山梨県富士吉田市上吉田3531",
"Capacity":"－",
"la":"35.47699200000",
"ln":"138.80552900000"
},
"geometry":{
"type":"Point",
"coordinates":[
138.805529,
35.476992
]
}
},
{
"type":"Feature",
"properties":{
"Name":"県立吉田高等学校",
"Jusho":"山梨県富士吉田市下吉田2075-1",
"Capacity":"－",
"la":"35.48515700000",
"ln":"138.80666800000"
},
"geometry":{
"type":"Point",
"coordinates":[
138.806668,
35.485157
]
}
},
{
"type":"Feature",
"properties":{
"Name":"県立富士北稜高等学校",
"Jusho":"山梨県富士吉田市新西原1-23-1",
"Capacity":"－",
"la":"35.48218500000",
"ln":"138.78994700000"
},
"geometry":{
"type":"Point",
"coordinates":[
138.789947,
35.482185
]
}
},
{
"type":"Feature",
"properties":{
"Name":"御茶屋町会館",
"Jusho":"山梨県富士吉田市下吉田2382-3",
"Capacity":"－",
"la":"35.48169999910",
"ln":"138.80987300000"
},
"geometry":{
"type":"Point",
"coordinates":[
138.809873,
35.4816999991
]
}
},
{
"type":"Feature",
"properties":{
"Name":"向原会館",
"Jusho":"山梨県富士吉田市小明見3952-6",
"Capacity":"－",
"la":"35.49485600000",
"ln":"138.83278800000"
},
"geometry":{
"type":"Point",
"coordinates":[
138.832788,
35.494856
]
}
},
{
"type":"Feature",
"properties":{
"Name":"向原富士浅間神社",
"Jusho":"山梨県富士吉田市小明見3811",
"Capacity":"－",
"la":"35.49621808400",
"ln":"138.83040384000"
},
"geometry":{
"type":"Point",
"coordinates":[
138.83040384,
35.496218084
]
}
},
{
"type":"Feature",
"properties":{
"Name":"幸町会館",
"Jusho":"山梨県富士吉田市下吉田5-14-4",
"Capacity":"－",
"la":"35.48843499910",
"ln":"138.80259800000"
},
"geometry":{
"type":"Point",
"coordinates":[
138.802598,
35.4884349991
]
}
},
{
"type":"Feature",
"properties":{
"Name":"市営熊穴団地集会場",
"Jusho":"山梨県富士吉田市上吉田4356",
"Capacity":"－",
"la":"35.47449045970",
"ln":"138.78348886100"
},
"geometry":{
"type":"Point",
"coordinates":[
138.783488861,
35.4744904597
]
}
},
{
"type":"Feature",
"properties":{
"Name":"市民会館・富士五湖文化センター",
"Jusho":"山梨県富士吉田市緑ｹ丘2-5-23",
"Capacity":"－",
"la":"35.49156600000",
"ln":"138.79629100000"
},
"geometry":{
"type":"Point",
"coordinates":[
138.796291,
35.491566
]
}
},
{
"type":"Feature",
"properties":{
"Name":"寿町会館",
"Jusho":"山梨県富士吉田市上暮地4-7-18",
"Capacity":"－",
"la":"35.51358899910",
"ln":"138.82903500000"
},
"geometry":{
"type":"Point",
"coordinates":[
138.829035,
35.5135889991
]
}
},
{
"type":"Feature",
"properties":{
"Name":"小明見会館",
"Jusho":"山梨県富士吉田市小明見1512",
"Capacity":"－",
"la":"35.49523200000",
"ln":"138.82547200000"
},
"geometry":{
"type":"Point",
"coordinates":[
138.825472,
35.495232
]
}
},
{
"type":"Feature",
"properties":{
"Name":"松山会館",
"Jusho":"山梨県富士吉田市松山3-17-3",
"Capacity":"－",
"la":"35.48504799910",
"ln":"138.78455600000"
},
"geometry":{
"type":"Point",
"coordinates":[
138.784556,
35.4850479991
]
}
},
{
"type":"Feature",
"properties":{
"Name":"松尾神社",
"Jusho":"山梨県富士吉田市松山2-10-18",
"Capacity":"－",
"la":"35.48648138270",
"ln":"138.79555287000"
},
"geometry":{
"type":"Point",
"coordinates":[
138.79555287,
35.4864813827
]
}
},
{
"type":"Feature",
"properties":{
"Name":"鐘山総合スポーツセンター",
"Jusho":"山梨県富士吉田市上吉田6200",
"Capacity":"－",
"la":"35.46453300000",
"ln":"138.81272600000"
},
"geometry":{
"type":"Point",
"coordinates":[
138.812726,
35.464533
]
}
},
{
"type":"Feature",
"properties":{
"Name":"上吉田コミュニティセンター",
"Jusho":"山梨県富士吉田市上吉田4-9-11",
"Capacity":"－",
"la":"35.47877500000",
"ln":"138.79367800000"
},
"geometry":{
"type":"Point",
"coordinates":[
138.793678,
35.478775
]
}
},
{
"type":"Feature",
"properties":{
"Name":"上宿会館",
"Jusho":"山梨県富士吉田市上吉田5434-1",
"Capacity":"－",
"la":"35.47141199910",
"ln":"138.78912000000"
},
"geometry":{
"type":"Point",
"coordinates":[
138.78912,
35.4714119991
]
}
},
{
"type":"Feature",
"properties":{
"Name":"上暮地コミュニティセンター",
"Jusho":"山梨県富士吉田市上暮地4-16-15",
"Capacity":"－",
"la":"35.51650200000",
"ln":"138.83142400000"
},
"geometry":{
"type":"Point",
"coordinates":[
138.831424,
35.516502
]
}
},
{
"type":"Feature",
"properties":{
"Name":"新屋会館",
"Jusho":"山梨県富士吉田市新屋173-1",
"Capacity":"－",
"la":"35.46941900000",
"ln":"138.79849300000"
},
"geometry":{
"type":"Point",
"coordinates":[
138.798493,
35.469419
]
}
},
{
"type":"Feature",
"properties":{
"Name":"新町会館",
"Jusho":"山梨県富士吉田市新倉168-2",
"Capacity":"－",
"la":"35.49657999910",
"ln":"138.80225900000"
},
"geometry":{
"type":"Point",
"coordinates":[
138.802259,
35.4965799991
]
}
},
{
"type":"Feature",
"properties":{
"Name":"西町会館",
"Jusho":"山梨県富士吉田市下吉田1-8-32",
"Capacity":"－",
"la":"35.49432400000",
"ln":"138.80563400000"
},
"geometry":{
"type":"Point",
"coordinates":[
138.805634,
35.494324
]
}
},
{
"type":"Feature",
"properties":{
"Name":"青少年センター",
"Jusho":"山梨県富士吉田市上吉田4433-1",
"Capacity":"－",
"la":"35.47719147990",
"ln":"138.77787029200"
},
"geometry":{
"type":"Point",
"coordinates":[
138.777870292,
35.4771914799
]
}
},
{
"type":"Feature",
"properties":{
"Name":"浅間町会館",
"Jusho":"山梨県富士吉田市新倉80-1",
"Capacity":"－",
"la":"35.49923899910",
"ln":"138.79727100000"
},
"geometry":{
"type":"Point",
"coordinates":[
138.797271,
35.4992389991
]
}
},
{
"type":"Feature",
"properties":{
"Name":"大明見会館",
"Jusho":"山梨県富士吉田市大明見1-2",
"Capacity":"－",
"la":"35.48808000000",
"ln":"138.82028100000"
},
"geometry":{
"type":"Point",
"coordinates":[
138.820281,
35.48808
]
}
},
{
"type":"Feature",
"properties":{
"Name":"大明見小室浅間神社",
"Jusho":"山梨県富士吉田市大明見148",
"Capacity":"－",
"la":"35.48413029270",
"ln":"138.81909130400"
},
"geometry":{
"type":"Point",
"coordinates":[
138.819091304,
35.4841302927
]
}
},
{
"type":"Feature",
"properties":{
"Name":"第一保育園",
"Jusho":"山梨県富士吉田市下吉田990",
"Capacity":"－",
"la":"35.49485100000",
"ln":"138.80083500000"
},
"geometry":{
"type":"Point",
"coordinates":[
138.800835,
35.494851
]
}
},
{
"type":"Feature",
"properties":{
"Name":"第五保育園",
"Jusho":"山梨県富士吉田市新屋1236",
"Capacity":"－",
"la":"35.46593700000",
"ln":"138.79672500000"
},
"geometry":{
"type":"Point",
"coordinates":[
138.796725,
35.465937
]
}
},
{
"type":"Feature",
"properties":{
"Name":"第三保育園",
"Jusho":"山梨県富士吉田市下吉田3346",
"Capacity":"－",
"la":"35.48732400000",
"ln":"138.81411100000"
},
"geometry":{
"type":"Point",
"coordinates":[
138.814111,
35.487324
]
}
},
{
"type":"Feature",
"properties":{
"Name":"第四保育園",
"Jusho":"山梨県富士吉田市松山4-11-27",
"Capacity":"－",
"la":"35.48674000000",
"ln":"138.79203000000"
},
"geometry":{
"type":"Point",
"coordinates":[
138.79203,
35.48674
]
}
},
{
"type":"Feature",
"properties":{
"Name":"第二保育園",
"Jusho":"山梨県富士吉田市大明見1720-1",
"Capacity":"－",
"la":"35.48671300000",
"ln":"138.82225000000"
},
"geometry":{
"type":"Point",
"coordinates":[
138.82225,
35.486713
]
}
},
{
"type":"Feature",
"properties":{
"Name":"第六保育園",
"Jusho":"山梨県富士吉田市中曽根1-10-1",
"Capacity":"－",
"la":"35.48390700000",
"ln":"138.80025200000"
},
"geometry":{
"type":"Point",
"coordinates":[
138.800252,
35.483907
]
}
},
{
"type":"Feature",
"properties":{
"Name":"中央会館",
"Jusho":"山梨県富士吉田市下吉田2-21-39",
"Capacity":"－",
"la":"35.48964099910",
"ln":"138.80537900000"
},
"geometry":{
"type":"Point",
"coordinates":[
138.805379,
35.4896409991
]
}
},
{
"type":"Feature",
"properties":{
"Name":"中曽根会館",
"Jusho":"山梨県富士吉田市中曽根2-9-28",
"Capacity":"－",
"la":"35.48256900000",
"ln":"138.80244300000"
},
"geometry":{
"type":"Point",
"coordinates":[
138.802443,
35.482569
]
}
},
{
"type":"Feature",
"properties":{
"Name":"中村会館",
"Jusho":"山梨県富士吉田市下吉田3-12-9",
"Capacity":"－",
"la":"35.49220899910",
"ln":"138.80301800000"
},
"geometry":{
"type":"Point",
"coordinates":[
138.803018,
35.4922089991
]
}
},
{
"type":"Feature",
"properties":{
"Name":"仲町会館",
"Jusho":"山梨県富士吉田市下吉田1-10-5",
"Capacity":"－",
"la":"35.49524199910",
"ln":"138.80688800000"
},
"geometry":{
"type":"Point",
"coordinates":[
138.806888,
35.4952419991
]
}
},
{
"type":"Feature",
"properties":{
"Name":"天神社",
"Jusho":"山梨県富士吉田市下吉田2-29-37",
"Capacity":"－",
"la":"35.48922824790",
"ln":"138.80626000000"
},
"geometry":{
"type":"Point",
"coordinates":[
138.80626,
35.4892282479
]
}
},
{
"type":"Feature",
"properties":{
"Name":"東町会館",
"Jusho":"山梨県富士吉田市下吉田2814",
"Capacity":"－",
"la":"35.49244100000",
"ln":"138.81246600000"
},
"geometry":{
"type":"Point",
"coordinates":[
138.812466,
35.492441
]
}
},
{
"type":"Feature",
"properties":{
"Name":"白糸町会",
"Jusho":"山梨県富士吉田市上暮地7-1-16",
"Capacity":"－",
"la":"35.51797999910",
"ln":"138.83107600000"
},
"geometry":{
"type":"Point",
"coordinates":[
138.831076,
35.5179799991
]
}
},
{
"type":"Feature",
"properties":{
"Name":"富士見町会館",
"Jusho":"山梨県富士吉田市下吉田5389-1",
"Capacity":"－",
"la":"35.49928899910",
"ln":"138.81184800000"
},
"geometry":{
"type":"Point",
"coordinates":[
138.811848,
35.4992889991
]
}
},
{
"type":"Feature",
"properties":{
"Name":"富士山アリーナ",
"Jusho":"山梨県富士吉田市新屋1936",
"Capacity":"－",
"la":"35.45966708290",
"ln":"138.80250303600"
},
"geometry":{
"type":"Point",
"coordinates":[
138.802503036,
35.4596670829
]
}
},
{
"type":"Feature",
"properties":{
"Name":"北口本宮冨士浅間神社",
"Jusho":"山梨県富士吉田市上吉田5558",
"Capacity":"－",
"la":"35.47105484940",
"ln":"138.79274307900"
},
"geometry":{
"type":"Point",
"coordinates":[
138.792743079,
35.4710548494
]
}
},
{
"type":"Feature",
"properties":{
"Name":"明見コミュニティセンター",
"Jusho":"山梨県富士吉田市大明見4549-4",
"Capacity":"－",
"la":"35.49122700000",
"ln":"138.81808400000"
},
"geometry":{
"type":"Point",
"coordinates":[
138.818084,
35.491227
]
}
},
{
"type":"Feature",
"properties":{
"Name":"竜ケ丘会館",
"Jusho":"山梨県富士吉田市竜ｹ丘3-4-33",
"Capacity":"－",
"la":"35.49119832590",
"ln":"138.78963666100"
},
"geometry":{
"type":"Point",
"coordinates":[
138.789636661,
35.4911983259
]
}
},
{
"type":"Feature",
"properties":{
"Name":"アピオプラザ駐車場",
"Jusho":"山梨県都留市",
"Capacity":"－",
"la":"35.59251206160",
"ln":"138.92778036300"
},
"geometry":{
"type":"Point",
"coordinates":[
138.927780363,
35.5925120616
]
}
},
{
"type":"Feature",
"properties":{
"Name":"パチンコ寿楽駐車場",
"Jusho":"山梨県都留市",
"Capacity":"－",
"la":"35.58951661690",
"ln":"138.93214622200"
},
"geometry":{
"type":"Point",
"coordinates":[
138.932146222,
35.5895166169
]
}
},
{
"type":"Feature",
"properties":{
"Name":"よっちゃばれ広場",
"Jusho":"山梨県都留市",
"Capacity":"－",
"la":"35.54898786790",
"ln":"138.94873490300"
},
"geometry":{
"type":"Point",
"coordinates":[
138.948734903,
35.5489878679
]
}
},
{
"type":"Feature",
"properties":{
"Name":"稲村神社境内",
"Jusho":"山梨県都留市",
"Capacity":"－",
"la":"35.58688423930",
"ln":"138.92546209200"
},
"geometry":{
"type":"Point",
"coordinates":[
138.925462092,
35.5868842393
]
}
},
{
"type":"Feature",
"properties":{
"Name":"割烹奧駐車場",
"Jusho":"山梨県都留市",
"Capacity":"－",
"la":"35.55854878500",
"ln":"138.90951947500"
},
"geometry":{
"type":"Point",
"coordinates":[
138.909519475,
35.558548785
]
}
},
{
"type":"Feature",
"properties":{
"Name":"㈱タイヤセンター小林駐車場",
"Jusho":"山梨県都留市",
"Capacity":"－",
"la":"35.56023206960",
"ln":"138.91142210000"
},
"geometry":{
"type":"Point",
"coordinates":[
138.9114221,
35.5602320696
]
}
},
{
"type":"Feature",
"properties":{
"Name":"久武志神社境内",
"Jusho":"山梨県都留市",
"Capacity":"－",
"la":"35.57276816770",
"ln":"138.91726678900"
},
"geometry":{
"type":"Point",
"coordinates":[
138.917266789,
35.5727681677
]
}
},
{
"type":"Feature",
"properties":{
"Name":"元富士精工広場",
"Jusho":"山梨県都留市",
"Capacity":"－",
"la":"35.53936660720",
"ln":"138.88685920900"
},
"geometry":{
"type":"Point",
"coordinates":[
138.886859209,
35.5393666072
]
}
},
{
"type":"Feature",
"properties":{
"Name":"佐藤保駐車場",
"Jusho":"山梨県都留市",
"Capacity":"－",
"la":"35.55929846430",
"ln":"138.91124713400"
},
"geometry":{
"type":"Point",
"coordinates":[
138.911247134,
35.5592984643
]
}
},
{
"type":"Feature",
"properties":{
"Name":"三町亭駐車場",
"Jusho":"山梨県都留市",
"Capacity":"－",
"la":"35.55573773130",
"ln":"138.90884676100"
},
"geometry":{
"type":"Point",
"coordinates":[
138.908846761,
35.5557377313
]
}
},
{
"type":"Feature",
"properties":{
"Name":"鹿留９１－５・９１－６番地（広場）",
"Jusho":"山梨県都留市",
"Capacity":"－",
"la":"35.53068123260",
"ln":"138.87130337700"
},
"geometry":{
"type":"Point",
"coordinates":[
138.871303377,
35.5306812326
]
}
},
{
"type":"Feature",
"properties":{
"Name":"住吉球場",
"Jusho":"山梨県都留市法能333",
"Capacity":"3000",
"la":"35.54435539720",
"ln":"138.91228397500"
},
"geometry":{
"type":"Point",
"coordinates":[
138.912283975,
35.5443553972
]
}
},
{
"type":"Feature",
"properties":{
"Name":"畳屋上駐車場",
"Jusho":"山梨県都留市",
"Capacity":"－",
"la":"35.55898925530",
"ln":"138.91096313900"
},
"geometry":{
"type":"Point",
"coordinates":[
138.910963139,
35.5589892553
]
}
},
{
"type":"Feature",
"properties":{
"Name":"川棚営農指導センター",
"Jusho":"山梨県都留市川棚809",
"Capacity":"200",
"la":"35.55265499910",
"ln":"138.90254500000"
},
"geometry":{
"type":"Point",
"coordinates":[
138.902545,
35.5526549991
]
}
},
{
"type":"Feature",
"properties":{
"Name":"大戸医院前駐車場",
"Jusho":"山梨県都留市",
"Capacity":"－",
"la":"35.55440538000",
"ln":"138.90932940000"
},
"geometry":{
"type":"Point",
"coordinates":[
138.9093294,
35.55440538
]
}
},
{
"type":"Feature",
"properties":{
"Name":"大平自治会館駐車場",
"Jusho":"山梨県都留市",
"Capacity":"－",
"la":"35.57147260750",
"ln":"138.98882155500"
},
"geometry":{
"type":"Point",
"coordinates":[
138.988821555,
35.5714726075
]
}
},
{
"type":"Feature",
"properties":{
"Name":"谷村工業高等学校屋体",
"Jusho":"山梨県都留市上谷5-7-1",
"Capacity":"2000",
"la":"35.54443099910",
"ln":"138.90232300000"
},
"geometry":{
"type":"Point",
"coordinates":[
138.902323,
35.5444309991
]
}
},
{
"type":"Feature",
"properties":{
"Name":"団地内駐車場",
"Jusho":"山梨県都留市",
"Capacity":"－",
"la":"35.59467588410",
"ln":"138.92781361900"
},
"geometry":{
"type":"Point",
"coordinates":[
138.927813619,
35.5946758841
]
}
},
{
"type":"Feature",
"properties":{
"Name":"中村製作所広場",
"Jusho":"山梨県都留市",
"Capacity":"－",
"la":"35.53986932200",
"ln":"138.88430629900"
},
"geometry":{
"type":"Point",
"coordinates":[
138.884306299,
35.539869322
]
}
},
{
"type":"Feature",
"properties":{
"Name":"都留市市民総合体育館",
"Jusho":"山梨県都留市田原三丁目8-5",
"Capacity":"1000",
"la":"35.53666999910",
"ln":"138.89604700000"
},
"geometry":{
"type":"Point",
"coordinates":[
138.896047,
35.5366699991
]
}
},
{
"type":"Feature",
"properties":{
"Name":"都留文科大学グラウンド",
"Jusho":"山梨県都留市田原3丁目8番1号",
"Capacity":"2000",
"la":"35.53771410940",
"ln":"138.89668471000"
},
"geometry":{
"type":"Point",
"coordinates":[
138.89668471,
35.5377141094
]
}
},
{
"type":"Feature",
"properties":{
"Name":"白山神社",
"Jusho":"山梨県都留市",
"Capacity":"－",
"la":"35.56500448780",
"ln":"138.90888498800"
},
"geometry":{
"type":"Point",
"coordinates":[
138.908884988,
35.5650044878
]
}
},
{
"type":"Feature",
"properties":{
"Name":"防災倉庫前",
"Jusho":"山梨県都留市",
"Capacity":"－",
"la":"35.53028076820",
"ln":"138.90680471800"
},
"geometry":{
"type":"Point",
"coordinates":[
138.906804718,
35.5302807682
]
}
},
{
"type":"Feature",
"properties":{
"Name":"与縄営農指導センター",
"Jusho":"山梨県都留市盛里134番地の1",
"Capacity":"700",
"la":"35.56269900000",
"ln":"138.94360500000"
},
"geometry":{
"type":"Point",
"coordinates":[
138.943605,
35.562699
]
}
},
{
"type":"Feature",
"properties":{
"Name":"用津院",
"Jusho":"山梨県都留市",
"Capacity":"－",
"la":"35.56294312850",
"ln":"138.89640579300"
},
"geometry":{
"type":"Point",
"coordinates":[
138.896405793,
35.5629431285
]
}
},
{
"type":"Feature",
"properties":{
"Name":"オーチャードヴィレッジ・フフ",
"Jusho":"山梨県山梨市牧丘町倉科7190",
"Capacity":"－",
"la":"35.75841139660",
"ln":"138.68605359400"
},
"geometry":{
"type":"Point",
"coordinates":[
138.686053594,
35.7584113966
]
}
},
{
"type":"Feature",
"properties":{
"Name":"コミュニティ広場",
"Jusho":"山梨県山梨市牧丘町西保下1110番地",
"Capacity":"－",
"la":"35.73872499680",
"ln":"138.68190190600"
},
"geometry":{
"type":"Point",
"coordinates":[
138.681901906,
35.7387249968
]
}
},
{
"type":"Feature",
"properties":{
"Name":"ろう学校体育館",
"Jusho":"山梨県山梨市大野1009",
"Capacity":"－",
"la":"35.67382500000",
"ln":"138.67367700000"
},
"geometry":{
"type":"Point",
"coordinates":[
138.673677,
35.673825
]
}
},
{
"type":"Feature",
"properties":{
"Name":"加納岩公民館",
"Jusho":"山梨県山梨市上神内川387-1",
"Capacity":"－",
"la":"35.68287800000",
"ln":"138.68810800000"
},
"geometry":{
"type":"Point",
"coordinates":[
138.688108,
35.682878
]
}
},
{
"type":"Feature",
"properties":{
"Name":"花かげの湯",
"Jusho":"山梨県山梨市牧丘町窪平453-1",
"Capacity":"－",
"la":"35.73666221960",
"ln":"138.71377200000"
},
"geometry":{
"type":"Point",
"coordinates":[
138.713772,
35.7366622196
]
}
},
{
"type":"Feature",
"properties":{
"Name":"岩手公民館",
"Jusho":"山梨県山梨市東1734-1",
"Capacity":"－",
"la":"35.71502700000",
"ln":"138.69695700000"
},
"geometry":{
"type":"Point",
"coordinates":[
138.696957,
35.715027
]
}
},
{
"type":"Feature",
"properties":{
"Name":"後屋敷公民館",
"Jusho":"山梨県山梨市三ヶ所870-1",
"Capacity":"－",
"la":"35.68883900000",
"ln":"138.70491500000"
},
"geometry":{
"type":"Point",
"coordinates":[
138.704915,
35.688839
]
}
},
{
"type":"Feature",
"properties":{
"Name":"広瀬地区集会所",
"Jusho":"山梨県山梨市三富川浦1819-189",
"Capacity":"－",
"la":"35.85060718370",
"ln":"138.75873495600"
},
"geometry":{
"type":"Point",
"coordinates":[
138.758734956,
35.8506071837
]
}
},
{
"type":"Feature",
"properties":{
"Name":"三富基幹集落センター",
"Jusho":"山梨県山梨市三富川浦262",
"Capacity":"－",
"la":"35.79319243500",
"ln":"138.73886583700"
},
"geometry":{
"type":"Point",
"coordinates":[
138.738865837,
35.793192435
]
}
},
{
"type":"Feature",
"properties":{
"Name":"三富川浦スポーツ広場",
"Jusho":"山梨県山梨市",
"Capacity":"－",
"la":"35.78872623340",
"ln":"138.73817540900"
},
"geometry":{
"type":"Point",
"coordinates":[
138.738175409,
35.7887262334
]
}
},
{
"type":"Feature",
"properties":{
"Name":"三富保育園",
"Jusho":"山梨県山梨市三富下荻原120",
"Capacity":"－",
"la":"35.77109200000",
"ln":"138.73786300000"
},
"geometry":{
"type":"Point",
"coordinates":[
138.737863,
35.771092
]
}
},
{
"type":"Feature",
"properties":{
"Name":"山梨公民館",
"Jusho":"山梨県山梨市落合1-7",
"Capacity":"－",
"la":"35.68422100000",
"ln":"138.66530500000"
},
"geometry":{
"type":"Point",
"coordinates":[
138.665305,
35.684221
]
}
},
{
"type":"Feature",
"properties":{
"Name":"山梨市民会館",
"Jusho":"山梨県山梨市万力1830",
"Capacity":"－",
"la":"35.69333979990",
"ln":"138.68228323200"
},
"geometry":{
"type":"Point",
"coordinates":[
138.682283232,
35.6933397999
]
}
},
{
"type":"Feature",
"properties":{
"Name":"市民スポーツ広場",
"Jusho":"山梨県山梨市",
"Capacity":"－",
"la":"35.70962838870",
"ln":"138.67454693900"
},
"geometry":{
"type":"Point",
"coordinates":[
138.674546939,
35.7096283887
]
}
},
{
"type":"Feature",
"properties":{
"Name":"西保保育園",
"Jusho":"山梨県山梨市牧丘町西保中1943",
"Capacity":"－",
"la":"35.74526100000",
"ln":"138.65536900000"
},
"geometry":{
"type":"Point",
"coordinates":[
138.655369,
35.745261
]
}
},
{
"type":"Feature",
"properties":{
"Name":"川浦公民館",
"Jusho":"山梨県山梨市三富川浦1394",
"Capacity":"－",
"la":"35.81292144110",
"ln":"138.75269539700"
},
"geometry":{
"type":"Point",
"coordinates":[
138.752695397,
35.8129214411
]
}
},
{
"type":"Feature",
"properties":{
"Name":"中牧多目的集会施設",
"Jusho":"山梨県山梨市牧丘町西保下2230",
"Capacity":"－",
"la":"35.74218199910",
"ln":"138.69179800000"
},
"geometry":{
"type":"Point",
"coordinates":[
138.691798,
35.7421819991
]
}
},
{
"type":"Feature",
"properties":{
"Name":"道の駅まきおか",
"Jusho":"山梨県山梨市牧丘町室伏2120",
"Capacity":"－",
"la":"35.75447164420",
"ln":"138.71845118800"
},
"geometry":{
"type":"Point",
"coordinates":[
138.718451188,
35.7544716442
]
}
},
{
"type":"Feature",
"properties":{
"Name":"徳和地区多目的集会施設",
"Jusho":"山梨県山梨市三富徳和628",
"Capacity":"－",
"la":"35.79079439360",
"ln":"138.72559374500"
},
"geometry":{
"type":"Point",
"coordinates":[
138.725593745,
35.7907943936
]
}
},
{
"type":"Feature",
"properties":{
"Name":"日下部公民館",
"Jusho":"山梨県山梨市小原東577",
"Capacity":"－",
"la":"35.69902100000",
"ln":"138.69653500000"
},
"geometry":{
"type":"Point",
"coordinates":[
138.696535,
35.699021
]
}
},
{
"type":"Feature",
"properties":{
"Name":"日川公民館",
"Jusho":"山梨県山梨市歌田596",
"Capacity":"－",
"la":"35.66560500000",
"ln":"138.68930100000"
},
"geometry":{
"type":"Point",
"coordinates":[
138.689301,
35.665605
]
}
},
{
"type":"Feature",
"properties":{
"Name":"日川高校体育館",
"Jusho":"山梨県山梨市一町田中1062",
"Capacity":"－",
"la":"35.66346600000",
"ln":"138.68339800000"
},
"geometry":{
"type":"Point",
"coordinates":[
138.683398,
35.663466
]
}
},
{
"type":"Feature",
"properties":{
"Name":"八幡公民館",
"Jusho":"山梨県山梨市市川1220",
"Capacity":"－",
"la":"35.71027048760",
"ln":"138.67495279300"
},
"geometry":{
"type":"Point",
"coordinates":[
138.674952793,
35.7102704876
]
}
},
{
"type":"Feature",
"properties":{
"Name":"牧丘町コミュニティセンター",
"Jusho":"山梨県山梨市牧丘町窪平56",
"Capacity":"－",
"la":"35.74017458360",
"ln":"138.71434792700"
},
"geometry":{
"type":"Point",
"coordinates":[
138.714347927,
35.7401745836
]
}
},
{
"type":"Feature",
"properties":{
"Name":"柳平分校",
"Jusho":"山梨県山梨市牧丘町柳平43",
"Capacity":"－",
"la":"35.81027100000",
"ln":"138.65463100000"
},
"geometry":{
"type":"Point",
"coordinates":[
138.654631,
35.810271
]
}
},
{
"type":"Feature",
"properties":{
"Name":"杣口保育園",
"Jusho":"山梨県山梨市牧丘町杣口1474",
"Capacity":"－",
"la":"35.76560300000",
"ln":"138.70379800000"
},
"geometry":{
"type":"Point",
"coordinates":[
138.703798,
35.765603
]
}
},
{
"type":"Feature",
"properties":{
"Name":"笹子公民館（西部ふれあいセンター）",
"Jusho":"山梨県大月市",
"Capacity":"－",
"la":"35.60375199910",
"ln":"138.82758300000"
},
"geometry":{
"type":"Point",
"coordinates":[
138.827583,
35.6037519991
]
}
},
{
"type":"Feature",
"properties":{
"Name":"猿橋公民館桂台分館",
"Jusho":"山梨県大月市",
"Capacity":"－",
"la":"35.61033821430",
"ln":"138.97068049000"
},
"geometry":{
"type":"Point",
"coordinates":[
138.97068049,
35.6103382143
]
}
},
{
"type":"Feature",
"properties":{
"Name":"猿橋公民館小沢分館",
"Jusho":"山梨県大月市",
"Capacity":"－",
"la":"35.59272063660",
"ln":"138.96685716100"
},
"geometry":{
"type":"Point",
"coordinates":[
138.966857161,
35.5927206366
]
}
},
{
"type":"Feature",
"properties":{
"Name":"猿橋公民館殿上分館",
"Jusho":"山梨県大月市",
"Capacity":"－",
"la":"35.61450530440",
"ln":"138.96770709000"
},
"geometry":{
"type":"Point",
"coordinates":[
138.96770709,
35.6145053044
]
}
},
{
"type":"Feature",
"properties":{
"Name":"猿橋公民館藤崎分館",
"Jusho":"山梨県大月市",
"Capacity":"－",
"la":"35.60448741170",
"ln":"138.99405883700"
},
"geometry":{
"type":"Point",
"coordinates":[
138.994058837,
35.6044874117
]
}
},
{
"type":"Feature",
"properties":{
"Name":"間明野集会所",
"Jusho":"山梨県大月市",
"Capacity":"－",
"la":"35.63154942380",
"ln":"138.89298049000"
},
"geometry":{
"type":"Point",
"coordinates":[
138.89298049,
35.6315494238
]
}
},
{
"type":"Feature",
"properties":{
"Name":"旧奈良子保育所",
"Jusho":"山梨県大月市七保町奈良子11-1",
"Capacity":"－",
"la":"35.66077900000",
"ln":"138.95009300000"
},
"geometry":{
"type":"Point",
"coordinates":[
138.950093,
35.660779
]
}
},
{
"type":"Feature",
"properties":{
"Name":"七保公民館浅川分館",
"Jusho":"山梨県大月市",
"Capacity":"－",
"la":"35.65409841900",
"ln":"138.98915974100"
},
"geometry":{
"type":"Point",
"coordinates":[
138.989159741,
35.654098419
]
}
},
{
"type":"Feature",
"properties":{
"Name":"総合福祉センター",
"Jusho":"山梨県大月市大月町花咲10",
"Capacity":"－",
"la":"35.60457100000",
"ln":"138.92716100000"
},
"geometry":{
"type":"Point",
"coordinates":[
138.927161,
35.604571
]
}
},
{
"type":"Feature",
"properties":{
"Name":"大月市民会館",
"Jusho":"山梨県大月市御太刀2-11-22",
"Capacity":"－",
"la":"35.61586753810",
"ln":"138.94918837900"
},
"geometry":{
"type":"Point",
"coordinates":[
138.949188379,
35.6158675381
]
}
},
{
"type":"Feature",
"properties":{
"Name":"大月短期大学附属高等学校",
"Jusho":"山梨県大月市御太刀1-16-2",
"Capacity":"－",
"la":"35.61284000000",
"ln":"138.94664900000"
},
"geometry":{
"type":"Point",
"coordinates":[
138.946649,
35.61284
]
}
},
{
"type":"Feature",
"properties":{
"Name":"スカイタウン公民館広場",
"Jusho":"山梨県韮崎市竜岡町下條南割1616-9",
"Capacity":"－",
"la":"35.67451531000",
"ln":"138.47566898400"
},
"geometry":{
"type":"Point",
"coordinates":[
138.475668984,
35.67451531
]
}
},
{
"type":"Feature",
"properties":{
"Name":"ふれあい広場",
"Jusho":"山梨県韮崎市穂坂町宮久保3757",
"Capacity":"－",
"la":"35.73890976400",
"ln":"138.47851536800"
},
"geometry":{
"type":"Point",
"coordinates":[
138.478515368,
35.738909764
]
}
},
{
"type":"Feature",
"properties":{
"Name":"旭スポーツ広場",
"Jusho":"山梨県韮崎市旭町上條北割3879-1",
"Capacity":"－",
"la":"35.68840423340",
"ln":"138.43802929700"
},
"geometry":{
"type":"Point",
"coordinates":[
138.438029297,
35.6884042334
]
}
},
{
"type":"Feature",
"properties":{
"Name":"旭公民館・旭屋内運動場",
"Jusho":"山梨県韮崎市旭町上條北割3879-1",
"Capacity":"－",
"la":"35.68884699910",
"ln":"138.43778700000"
},
"geometry":{
"type":"Point",
"coordinates":[
138.437787,
35.6888469991
]
}
},
{
"type":"Feature",
"properties":{
"Name":"伊藤窪公民館広場",
"Jusho":"山梨県韮崎市穴山町3421",
"Capacity":"－",
"la":"35.75301086280",
"ln":"138.42472841500"
},
"geometry":{
"type":"Point",
"coordinates":[
138.424728415,
35.7530108628
]
}
},
{
"type":"Feature",
"properties":{
"Name":"一ツ谷公民館広場",
"Jusho":"山梨県韮崎市一ﾂ谷1922",
"Capacity":"－",
"la":"35.71894709010",
"ln":"138.43536605800"
},
"geometry":{
"type":"Point",
"coordinates":[
138.435366058,
35.7189470901
]
}
},
{
"type":"Feature",
"properties":{
"Name":"円野公民館",
"Jusho":"山梨県韮崎市円野町下円井1199-3",
"Capacity":"－",
"la":"35.76033200000",
"ln":"138.39741800000"
},
"geometry":{
"type":"Point",
"coordinates":[
138.397418,
35.760332
]
}
},
{
"type":"Feature",
"properties":{
"Name":"下円井公民館広場",
"Jusho":"山梨県韮崎市円野町下円井176",
"Capacity":"－",
"la":"35.75368005190",
"ln":"138.40017667100"
},
"geometry":{
"type":"Point",
"coordinates":[
138.400176671,
35.7536800519
]
}
},
{
"type":"Feature",
"properties":{
"Name":"下條中割公民館広場",
"Jusho":"山梨県韮崎市大草町下條中割275-1",
"Capacity":"－",
"la":"35.67813271970",
"ln":"138.45431233700"
},
"geometry":{
"type":"Point",
"coordinates":[
138.454312337,
35.6781327197
]
}
},
{
"type":"Feature",
"properties":{
"Name":"夏目公民館広場",
"Jusho":"山梨県韮崎市穴山町4134",
"Capacity":"－",
"la":"35.74935955210",
"ln":"138.41546434800"
},
"geometry":{
"type":"Point",
"coordinates":[
138.415464348,
35.7493595521
]
}
},
{
"type":"Feature",
"properties":{
"Name":"久保公民館広場",
"Jusho":"山梨県韮崎市穴山町1397",
"Capacity":"－",
"la":"35.76451071280",
"ln":"138.42404099700"
},
"geometry":{
"type":"Point",
"coordinates":[
138.424040997,
35.7645107128
]
}
},
{
"type":"Feature",
"properties":{
"Name":"金山神社境内",
"Jusho":"山梨県韮崎市旭町上條北割2132",
"Capacity":"－",
"la":"35.69482680730",
"ln":"138.43644330400"
},
"geometry":{
"type":"Point",
"coordinates":[
138.436443304,
35.6948268073
]
}
},
{
"type":"Feature",
"properties":{
"Name":"駒井公民館広場",
"Jusho":"山梨県韮崎市藤井町駒井3016-1",
"Capacity":"－",
"la":"35.73685070850",
"ln":"138.44673489500"
},
"geometry":{
"type":"Point",
"coordinates":[
138.446734895,
35.7368507085
]
}
},
{
"type":"Feature",
"properties":{
"Name":"穴山公民館",
"Jusho":"山梨県韮崎市穴山町4914-1",
"Capacity":"－",
"la":"35.75603799910",
"ln":"138.41685500000"
},
"geometry":{
"type":"Point",
"coordinates":[
138.416855,
35.7560379991
]
}
},
{
"type":"Feature",
"properties":{
"Name":"県営住宅集会場広場",
"Jusho":"山梨県韮崎市穂坂町宮久保465-1",
"Capacity":"－",
"la":"35.72144615200",
"ln":"138.46974209900"
},
"geometry":{
"type":"Point",
"coordinates":[
138.469742099,
35.721446152
]
}
},
{
"type":"Feature",
"properties":{
"Name":"原公民館広場",
"Jusho":"山梨県韮崎市穂坂町三ﾂ沢3242-2",
"Capacity":"－",
"la":"35.71699666250",
"ln":"138.48285650900"
},
"geometry":{
"type":"Point",
"coordinates":[
138.482856509,
35.7169966625
]
}
},
{
"type":"Feature",
"properties":{
"Name":"雇用促進住宅広場",
"Jusho":"山梨県韮崎市下祖母井2086-3",
"Capacity":"－",
"la":"35.72455676390",
"ln":"138.42950993400"
},
"geometry":{
"type":"Point",
"coordinates":[
138.429509934,
35.7245567639
]
}
},
{
"type":"Feature",
"properties":{
"Name":"御杉公民館広場",
"Jusho":"山梨県韮崎市清哲町樋口246-2",
"Capacity":"－",
"la":"35.71309825520",
"ln":"138.42421098500"
},
"geometry":{
"type":"Point",
"coordinates":[
138.424210985,
35.7130982552
]
}
},
{
"type":"Feature",
"properties":{
"Name":"坂の上公民館広場",
"Jusho":"山梨県韮崎市竜岡町下條東割918-1",
"Capacity":"－",
"la":"35.68257018500",
"ln":"138.46268960600"
},
"geometry":{
"type":"Point",
"coordinates":[
138.462689606,
35.682570185
]
}
},
{
"type":"Feature",
"properties":{
"Name":"山口こども遊園地",
"Jusho":"山梨県韮崎市旭町上條北割2332-1",
"Capacity":"－",
"la":"35.69337484270",
"ln":"138.43293357800"
},
"geometry":{
"type":"Point",
"coordinates":[
138.432933578,
35.6933748427
]
}
},
{
"type":"Feature",
"properties":{
"Name":"山寺チビッコ広場",
"Jusho":"山梨県韮崎市旭町上條南割3512",
"Capacity":"－",
"la":"35.67744339760",
"ln":"138.43623105300"
},
"geometry":{
"type":"Point",
"coordinates":[
138.436231053,
35.6774433976
]
}
},
{
"type":"Feature",
"properties":{
"Name":"市営住宅集会場広場",
"Jusho":"山梨県韮崎市円野町下円井603",
"Capacity":"－",
"la":"35.76032322020",
"ln":"138.40060622900"
},
"geometry":{
"type":"Point",
"coordinates":[
138.400606229,
35.7603232202
]
}
},
{
"type":"Feature",
"properties":{
"Name":"市営祖母石団地集会所",
"Jusho":"山梨県韮崎市下祖母石2086-1",
"Capacity":"－",
"la":"35.72478628360",
"ln":"138.43038846400"
},
"geometry":{
"type":"Point",
"coordinates":[
138.430388464,
35.7247862836
]
}
},
{
"type":"Feature",
"properties":{
"Name":"市営総合運動場（グラウンド）",
"Jusho":"山梨県韮崎市本町四丁目9-2",
"Capacity":"－",
"la":"35.69926500000",
"ln":"138.45927000000"
},
"geometry":{
"type":"Point",
"coordinates":[
138.45927,
35.699265
]
}
},
{
"type":"Feature",
"properties":{
"Name":"市役所庁舎広場",
"Jusho":"山梨県韮崎市水神一丁目3-1",
"Capacity":"－",
"la":"35.70929316830",
"ln":"138.44602615700"
},
"geometry":{
"type":"Point",
"coordinates":[
138.446026157,
35.7092931683
]
}
},
{
"type":"Feature",
"properties":{
"Name":"若尾公民館広場",
"Jusho":"山梨県韮崎市大草町若尾792",
"Capacity":"－",
"la":"35.69820165120",
"ln":"138.44359266800"
},
"geometry":{
"type":"Point",
"coordinates":[
138.443592668,
35.6982016512
]
}
},
{
"type":"Feature",
"properties":{
"Name":"住宅集会場広場",
"Jusho":"山梨県韮崎市大草町若尾110",
"Capacity":"－",
"la":"35.70573008840",
"ln":"138.44153482900"
},
"geometry":{
"type":"Point",
"coordinates":[
138.441534829,
35.7057300884
]
}
},
{
"type":"Feature",
"properties":{
"Name":"重久公民館広場",
"Jusho":"山梨県韮崎市穴山町6578-2",
"Capacity":"－",
"la":"35.76335792700",
"ln":"138.41061340100"
},
"geometry":{
"type":"Point",
"coordinates":[
138.410613401,
35.763357927
]
}
},
{
"type":"Feature",
"properties":{
"Name":"勝手神社境内",
"Jusho":"山梨県韮崎市岩下988",
"Capacity":"－",
"la":"35.71200200000",
"ln":"138.45840300000"
},
"geometry":{
"type":"Point",
"coordinates":[
138.458403,
35.712002
]
}
},
{
"type":"Feature",
"properties":{
"Name":"上の原チビッコ広場",
"Jusho":"山梨県韮崎市穂坂町宮久保2472",
"Capacity":"－",
"la":"35.72856386430",
"ln":"138.45713525700"
},
"geometry":{
"type":"Point",
"coordinates":[
138.457135257,
35.7285638643
]
}
},
{
"type":"Feature",
"properties":{
"Name":"上ノ山公民館広場",
"Jusho":"山梨県韮崎市上ﾉ山846-1",
"Capacity":"－",
"la":"35.71053274220",
"ln":"138.46591994200"
},
"geometry":{
"type":"Point",
"coordinates":[
138.465919942,
35.7105327422
]
}
},
{
"type":"Feature",
"properties":{
"Name":"上円井スポーツ広場",
"Jusho":"山梨県韮崎市円野町上円井2459-1",
"Capacity":"－",
"la":"35.77048594810",
"ln":"138.40012319500"
},
"geometry":{
"type":"Point",
"coordinates":[
138.400123195,
35.7704859481
]
}
},
{
"type":"Feature",
"properties":{
"Name":"上今井公民館広場",
"Jusho":"山梨県韮崎市穂坂町上今井1448-1",
"Capacity":"－",
"la":"35.73378428270",
"ln":"138.49857577900"
},
"geometry":{
"type":"Point",
"coordinates":[
138.498575779,
35.7337842827
]
}
},
{
"type":"Feature",
"properties":{
"Name":"上野公民館広場",
"Jusho":"山梨県韮崎市藤井町駒井848",
"Capacity":"－",
"la":"35.73140888260",
"ln":"138.43631456300"
},
"geometry":{
"type":"Point",
"coordinates":[
138.436314563,
35.7314088826
]
}
},
{
"type":"Feature",
"properties":{
"Name":"神山スポーツ広場",
"Jusho":"山梨県韮崎市神山町北宮地926-1",
"Capacity":"－",
"la":"35.70547742030",
"ln":"138.42541351400"
},
"geometry":{
"type":"Point",
"coordinates":[
138.425413514,
35.7054774203
]
}
},
{
"type":"Feature",
"properties":{
"Name":"清哲スポーツ広場",
"Jusho":"山梨県韮崎市清哲町青木2283",
"Capacity":"－",
"la":"35.72269415180",
"ln":"138.41645002700"
},
"geometry":{
"type":"Point",
"coordinates":[
138.416450027,
35.7226941518
]
}
},
{
"type":"Feature",
"properties":{
"Name":"清哲公民館",
"Jusho":"山梨県韮崎市清哲町青木2309-1",
"Capacity":"－",
"la":"35.72285984780",
"ln":"138.41604962100"
},
"geometry":{
"type":"Point",
"coordinates":[
138.416049621,
35.7228598478
]
}
},
{
"type":"Feature",
"properties":{
"Name":"青木公民館広場",
"Jusho":"山梨県韮崎市清哲町青木1347",
"Capacity":"－",
"la":"35.72767359470",
"ln":"138.41402031500"
},
"geometry":{
"type":"Point",
"coordinates":[
138.414020315,
35.7276735947
]
}
},
{
"type":"Feature",
"properties":{
"Name":"石水公民館広場",
"Jusho":"山梨県韮崎市穴山町2697-3",
"Capacity":"－",
"la":"35.74913900000",
"ln":"138.42516000000"
},
"geometry":{
"type":"Point",
"coordinates":[
138.42516,
35.749139
]
}
},
{
"type":"Feature",
"properties":{
"Name":"折居チビッコ広場",
"Jusho":"山梨県韮崎市清哲町折居831",
"Capacity":"－",
"la":"35.73340735270",
"ln":"138.40940821600"
},
"geometry":{
"type":"Point",
"coordinates":[
138.409408216,
35.7334073527
]
}
},
{
"type":"Feature",
"properties":{
"Name":"泉勝院広場",
"Jusho":"山梨県韮崎市神山町武田786",
"Capacity":"－",
"la":"35.71093417520",
"ln":"138.42770287200"
},
"geometry":{
"type":"Point",
"coordinates":[
138.427702872,
35.7109341752
]
}
},
{
"type":"Feature",
"properties":{
"Name":"祖母石公民館広場",
"Jusho":"山梨県韮崎市下祖母石370",
"Capacity":"－",
"la":"35.73009622160",
"ln":"138.42482808300"
},
"geometry":{
"type":"Point",
"coordinates":[
138.424828083,
35.7300962216
]
}
},
{
"type":"Feature",
"properties":{
"Name":"鍛冶屋公会堂広場",
"Jusho":"山梨県韮崎市旭町上條中割1905-3",
"Capacity":"－",
"la":"35.68200900000",
"ln":"138.43836639900"
},
"geometry":{
"type":"Point",
"coordinates":[
138.438366399,
35.682009
]
}
},
{
"type":"Feature",
"properties":{
"Name":"中田公民館",
"Jusho":"山梨県韮崎市中田町中條490-1",
"Capacity":"－",
"la":"35.74365000000",
"ln":"138.43684400000"
},
"geometry":{
"type":"Point",
"coordinates":[
138.436844,
35.74365
]
}
},
{
"type":"Feature",
"properties":{
"Name":"中條上野公民館広場",
"Jusho":"山梨県韮崎市中田町中條4308",
"Capacity":"－",
"la":"35.73623034080",
"ln":"138.43055175500"
},
"geometry":{
"type":"Point",
"coordinates":[
138.430551755,
35.7362303408
]
}
},
{
"type":"Feature",
"properties":{
"Name":"長久保公民館広場",
"Jusho":"山梨県韮崎市穂坂町長久保358-1",
"Capacity":"－",
"la":"35.72245924880",
"ln":"138.49402857700"
},
"geometry":{
"type":"Point",
"coordinates":[
138.494028577,
35.7224592488
]
}
},
{
"type":"Feature",
"properties":{
"Name":"鳥の小池公民館広場",
"Jusho":"山梨県韮崎市穂坂町宮久保316-1",
"Capacity":"－",
"la":"35.72599492880",
"ln":"138.47384811800"
},
"geometry":{
"type":"Point",
"coordinates":[
138.473848118,
35.7259949288
]
}
},
{
"type":"Feature",
"properties":{
"Name":"天王社境内",
"Jusho":"山梨県韮崎市藤井町坂井472",
"Capacity":"－",
"la":"35.72754832290",
"ln":"138.43842672400"
},
"geometry":{
"type":"Point",
"coordinates":[
138.438426724,
35.7275483229
]
}
},
{
"type":"Feature",
"properties":{
"Name":"鍋山チビッコ広場",
"Jusho":"山梨県韮崎市神山町鍋山2021-1",
"Capacity":"－",
"la":"35.70020134970",
"ln":"138.42804450800"
},
"geometry":{
"type":"Point",
"coordinates":[
138.428044508,
35.7002013497
]
}
},
{
"type":"Feature",
"properties":{
"Name":"南割公民館広場",
"Jusho":"山梨県韮崎市旭町上條南割2667-1",
"Capacity":"－",
"la":"35.67172866090",
"ln":"138.44057656600"
},
"geometry":{
"type":"Point",
"coordinates":[
138.440576566,
35.6717286609
]
}
},
{
"type":"Feature",
"properties":{
"Name":"日之城公民館広場",
"Jusho":"山梨県韮崎市穂坂町三之蔵4347-1",
"Capacity":"－",
"la":"35.73598938310",
"ln":"138.46166810100"
},
"geometry":{
"type":"Point",
"coordinates":[
138.461668101,
35.7359893831
]
}
},
{
"type":"Feature",
"properties":{
"Name":"韮崎工業高等学校",
"Jusho":"山梨県韮崎市竜岡町若尾新田50-1",
"Capacity":"－",
"la":"35.70009500000",
"ln":"138.45033500000"
},
"geometry":{
"type":"Point",
"coordinates":[
138.450335,
35.700095
]
}
},
{
"type":"Feature",
"properties":{
"Name":"韮崎高等学校",
"Jusho":"山梨県韮崎市若宮三丁目2-1",
"Capacity":"－",
"la":"35.71492600000",
"ln":"138.45102900000"
},
"geometry":{
"type":"Point",
"coordinates":[
138.451029,
35.714926
]
}
},
{
"type":"Feature",
"properties":{
"Name":"韮崎市健康ふれあいセンター",
"Jusho":"山梨県韮崎市中田町中條1800-1",
"Capacity":"－",
"la":"35.74781154120",
"ln":"138.43779345400"
},
"geometry":{
"type":"Point",
"coordinates":[
138.437793454,
35.7478115412
]
}
},
{
"type":"Feature",
"properties":{
"Name":"韮崎市文化ホール",
"Jusho":"山梨県韮崎市藤井町坂井205",
"Capacity":"－",
"la":"35.72812499910",
"ln":"138.44382300000"
},
"geometry":{
"type":"Point",
"coordinates":[
138.443823,
35.7281249991
]
}
},
{
"type":"Feature",
"properties":{
"Name":"韮崎児童センター",
"Jusho":"山梨県韮崎市本町二丁目1-7",
"Capacity":"－",
"la":"35.70768600000",
"ln":"138.45263200000"
},
"geometry":{
"type":"Point",
"coordinates":[
138.452632,
35.707686
]
}
},
{
"type":"Feature",
"properties":{
"Name":"白山社境内",
"Jusho":"山梨県韮崎市旭町上條北割996-1",
"Capacity":"－",
"la":"35.69616001090",
"ln":"138.43987025900"
},
"geometry":{
"type":"Point",
"coordinates":[
138.439870259,
35.6961600109
]
}
},
{
"type":"Feature",
"properties":{
"Name":"富士見ケ丘公民館広場",
"Jusho":"山梨県韮崎市富士見ヶ丘二丁目1",
"Capacity":"－",
"la":"35.71295247410",
"ln":"138.44637715000"
},
"geometry":{
"type":"Point",
"coordinates":[
138.44637715,
35.7129524741
]
}
},
{
"type":"Feature",
"properties":{
"Name":"穂坂公民館",
"Jusho":"山梨県韮崎市穂坂町宮久保6196-1",
"Capacity":"－",
"la":"35.73413353610",
"ln":"138.48139501200"
},
"geometry":{
"type":"Point",
"coordinates":[
138.481395012,
35.7341335361
]
}
},
{
"type":"Feature",
"properties":{
"Name":"宝積寺境内",
"Jusho":"山梨県韮崎市穂坂町三之蔵5163-1",
"Capacity":"－",
"la":"35.74379189310",
"ln":"138.47527966700"
},
"geometry":{
"type":"Point",
"coordinates":[
138.475279667,
35.7437918931
]
}
},
{
"type":"Feature",
"properties":{
"Name":"宝蔵寺境内",
"Jusho":"山梨県韮崎市円野町入戸野957-1",
"Capacity":"－",
"la":"35.74209593620",
"ln":"138.40492892300"
},
"geometry":{
"type":"Point",
"coordinates":[
138.404928923,
35.7420959362
]
}
},
{
"type":"Feature",
"properties":{
"Name":"北西児童センター",
"Jusho":"山梨県韮崎市清哲町青木1078-1",
"Capacity":"－",
"la":"35.72875799910",
"ln":"138.41744700000"
},
"geometry":{
"type":"Point",
"coordinates":[
138.417447,
35.7287579991
]
}
},
{
"type":"Feature",
"properties":{
"Name":"柳平公民館広場",
"Jusho":"山梨県韮崎市穂坂町柳平414-1",
"Capacity":"－",
"la":"35.74764500000",
"ln":"138.49196300000"
},
"geometry":{
"type":"Point",
"coordinates":[
138.491963,
35.747645
]
}
},
{
"type":"Feature",
"properties":{
"Name":"竜岡スポーツ広場",
"Jusho":"山梨県韮崎市竜岡町下條南割1007",
"Capacity":"－",
"la":"35.67862244000",
"ln":"138.46547141500"
},
"geometry":{
"type":"Point",
"coordinates":[
138.465471415,
35.67862244
]
}
},
{
"type":"Feature",
"properties":{
"Name":"竜岡公民館・竜岡体育館",
"Jusho":"山梨県韮崎市竜岡町下條南割1007",
"Capacity":"－",
"la":"35.67884000000",
"ln":"138.46612600000"
},
"geometry":{
"type":"Point",
"coordinates":[
138.466126,
35.67884
]
}
},
{
"type":"Feature",
"properties":{
"Name":"萬松寺境内",
"Jusho":"山梨県韮崎市中田町小田川638",
"Capacity":"－",
"la":"35.75601202770",
"ln":"138.43211772200"
},
"geometry":{
"type":"Point",
"coordinates":[
138.432117722,
35.7560120277
]
}
},
{
"type":"Feature",
"properties":{
"Name":"チロル学園",
"Jusho":"山梨県南ｱﾙﾌﾟｽ市芦安芦倉1008",
"Capacity":"－",
"la":"35.63774101760",
"ln":"138.37030007200"
},
"geometry":{
"type":"Point",
"coordinates":[
138.370300072,
35.6377410176
]
}
},
{
"type":"Feature",
"properties":{
"Name":"芦安健康管理センター",
"Jusho":"山梨県南ｱﾙﾌﾟｽ市芦安芦倉518",
"Capacity":"－",
"la":"35.63783301820",
"ln":"138.38032989600"
},
"geometry":{
"type":"Point",
"coordinates":[
138.380329896,
35.6378330182
]
}
},
{
"type":"Feature",
"properties":{
"Name":"芦安山岳館",
"Jusho":"山梨県南ｱﾙﾌﾟｽ市芦安芦倉1570",
"Capacity":"－",
"la":"35.63316176480",
"ln":"138.36103067700"
},
"geometry":{
"type":"Point",
"coordinates":[
138.361030677,
35.6331617648
]
}
},
{
"type":"Feature",
"properties":{
"Name":"巨摩高等学校",
"Jusho":"山梨県南ｱﾙﾌﾟｽ市小笠原1500-2",
"Capacity":"－",
"la":"35.61616200000",
"ln":"138.46897300000"
},
"geometry":{
"type":"Point",
"coordinates":[
138.468973,
35.616162
]
}
},
{
"type":"Feature",
"properties":{
"Name":"甲西体育センター",
"Jusho":"山梨県南ｱﾙﾌﾟｽ市宮沢413-3",
"Capacity":"－",
"la":"35.58085100000",
"ln":"138.47076600000"
},
"geometry":{
"type":"Point",
"coordinates":[
138.470766,
35.580851
]
}
},
{
"type":"Feature",
"properties":{
"Name":"甲西保健福祉センター",
"Jusho":"山梨県南ｱﾙﾌﾟｽ市古市場323",
"Capacity":"－",
"la":"35.59077551210",
"ln":"138.46833597700"
},
"geometry":{
"type":"Point",
"coordinates":[
138.468335977,
35.5907755121
]
}
},
{
"type":"Feature",
"properties":{
"Name":"山梨県育精福祉センター",
"Jusho":"山梨県南ｱﾙﾌﾟｽ市有野3303-2",
"Capacity":"－",
"la":"35.66395600000",
"ln":"138.44102700000"
},
"geometry":{
"type":"Point",
"coordinates":[
138.441027,
35.663956
]
}
},
{
"type":"Feature",
"properties":{
"Name":"青少年児童センター",
"Jusho":"山梨県南ｱﾙﾌﾟｽ市山寺258-1",
"Capacity":"－",
"la":"35.60841767630",
"ln":"138.45717144700"
},
"geometry":{
"type":"Point",
"coordinates":[
138.457171447,
35.6084176763
]
}
},
{
"type":"Feature",
"properties":{
"Name":"働く婦人の家",
"Jusho":"山梨県南ｱﾙﾌﾟｽ市吉田753-1",
"Capacity":"－",
"la":"35.62147809620",
"ln":"138.47797813000"
},
"geometry":{
"type":"Point",
"coordinates":[
138.47797813,
35.6214780962
]
}
},
{
"type":"Feature",
"properties":{
"Name":"白根高等学校",
"Jusho":"山梨県南ｱﾙﾌﾟｽ市上今諏訪1180",
"Capacity":"－",
"la":"35.64293600000",
"ln":"138.49408200000"
},
"geometry":{
"type":"Point",
"coordinates":[
138.494082,
35.642936
]
}
},
{
"type":"Feature",
"properties":{
"Name":"白根東保育所",
"Jusho":"山梨県南ｱﾙﾌﾟｽ市西野1394",
"Capacity":"－",
"la":"35.64246400000",
"ln":"138.48844300000"
},
"geometry":{
"type":"Point",
"coordinates":[
138.488443,
35.642464
]
}
},
{
"type":"Feature",
"properties":{
"Name":"落合創造館アミカル",
"Jusho":"山梨県南ｱﾙﾌﾟｽ市湯沢1035-5",
"Capacity":"－",
"la":"35.58565666460",
"ln":"138.44914288200"
},
"geometry":{
"type":"Point",
"coordinates":[
138.449142882,
35.5856566646
]
}
},
{
"type":"Feature",
"properties":{
"Name":"下八巻ゲートボール場",
"Jusho":"山梨県北杜市",
"Capacity":"－",
"la":"35.83387391650",
"ln":"138.47585541700"
},
"geometry":{
"type":"Point",
"coordinates":[
138.475855417,
35.8338739165
]
}
},
{
"type":"Feature",
"properties":{
"Name":"下和田バス停広場",
"Jusho":"山梨県北杜市",
"Capacity":"－",
"la":"35.78871657170",
"ln":"138.40590296700"
},
"geometry":{
"type":"Point",
"coordinates":[
138.405902967,
35.7887165717
]
}
},
{
"type":"Feature",
"properties":{
"Name":"下和田公民館下和田分館",
"Jusho":"山梨県北杜市",
"Capacity":"－",
"la":"35.78900099910",
"ln":"138.40581000000"
},
"geometry":{
"type":"Point",
"coordinates":[
138.40581,
35.7890009991
]
}
},
{
"type":"Feature",
"properties":{
"Name":"花水ちびっこ広場",
"Jusho":"山梨県北杜市",
"Capacity":"－",
"la":"35.81245680370",
"ln":"138.34605731600"
},
"geometry":{
"type":"Point",
"coordinates":[
138.346057316,
35.8124568037
]
}
},
{
"type":"Feature",
"properties":{
"Name":"高根地区公民館下黒沢分館",
"Jusho":"山梨県北杜市",
"Capacity":"－",
"la":"35.80385399910",
"ln":"138.40548500000"
},
"geometry":{
"type":"Point",
"coordinates":[
138.405485,
35.8038539991
]
}
},
{
"type":"Feature",
"properties":{
"Name":"高根町デイサービスセンター",
"Jusho":"山梨県北杜市高根町箕輪新町50",
"Capacity":"－",
"la":"35.83265399910",
"ln":"138.43118900000"
},
"geometry":{
"type":"Point",
"coordinates":[
138.431189,
35.8326539991
]
}
},
{
"type":"Feature",
"properties":{
"Name":"小淵沢町デイサービスセンター",
"Jusho":"山梨県北杜市小淵沢町6266",
"Capacity":"－",
"la":"35.86260581550",
"ln":"138.30283443700"
},
"geometry":{
"type":"Point",
"coordinates":[
138.302834437,
35.8626058155
]
}
},
{
"type":"Feature",
"properties":{
"Name":"須玉地区江草公民館",
"Jusho":"山梨県北杜市",
"Capacity":"－",
"la":"35.82476343150",
"ln":"138.46446548200"
},
"geometry":{
"type":"Point",
"coordinates":[
138.464465482,
35.8247634315
]
}
},
{
"type":"Feature",
"properties":{
"Name":"須玉地区江草公民館岩下分館",
"Jusho":"山梨県北杜市",
"Capacity":"－",
"la":"35.83727037710",
"ln":"138.49291553700"
},
"geometry":{
"type":"Point",
"coordinates":[
138.492915537,
35.8372703771
]
}
},
{
"type":"Feature",
"properties":{
"Name":"須玉町デイサービスセンター",
"Jusho":"山梨県北杜市須玉町藤田799-1",
"Capacity":"－",
"la":"35.77937699910",
"ln":"138.42825500000"
},
"geometry":{
"type":"Point",
"coordinates":[
138.428255,
35.7793769991
]
}
},
{
"type":"Feature",
"properties":{
"Name":"大泉町デイサービスセンター",
"Jusho":"山梨県北杜市大泉町谷戸1880",
"Capacity":"－",
"la":"35.86041299910",
"ln":"138.37940400000"
},
"geometry":{
"type":"Point",
"coordinates":[
138.379404,
35.8604129991
]
}
},
{
"type":"Feature",
"properties":{
"Name":"大内ちびっこ広場",
"Jusho":"山梨県北杜市",
"Capacity":"－",
"la":"35.75896322670",
"ln":"138.45435617500"
},
"geometry":{
"type":"Point",
"coordinates":[
138.454356175,
35.7589632267
]
}
},
{
"type":"Feature",
"properties":{
"Name":"大武川スポーツ広場",
"Jusho":"山梨県北杜市",
"Capacity":"－",
"la":"35.88495947200",
"ln":"138.24644401700"
},
"geometry":{
"type":"Point",
"coordinates":[
138.246444017,
35.884959472
]
}
},
{
"type":"Feature",
"properties":{
"Name":"白州町デイサービスセンター",
"Jusho":"山梨県北杜市白州町大武川344-19",
"Capacity":"－",
"la":"35.87802243090",
"ln":"138.25917882500"
},
"geometry":{
"type":"Point",
"coordinates":[
138.259178825,
35.8780224309
]
}
},
{
"type":"Feature",
"properties":{
"Name":"武川町デイサービスセンター",
"Jusho":"山梨県北杜市武川町牧原1322",
"Capacity":"－",
"la":"35.78351300750",
"ln":"138.37870207200"
},
"geometry":{
"type":"Point",
"coordinates":[
138.378702072,
35.7835130075
]
}
},
{
"type":"Feature",
"properties":{
"Name":"北杜市江草広場",
"Jusho":"山梨県北杜市",
"Capacity":"－",
"la":"35.83405089920",
"ln":"138.49833089700"
},
"geometry":{
"type":"Point",
"coordinates":[
138.498330897,
35.8340508992
]
}
},
{
"type":"Feature",
"properties":{
"Name":"北杜市高根ゲートボール場",
"Jusho":"山梨県北杜市高根町村山北割100",
"Capacity":"91",
"la":"35.84287162060",
"ln":"138.42640079400"
},
"geometry":{
"type":"Point",
"coordinates":[
138.426400794,
35.8428716206
]
}
},
{
"type":"Feature",
"properties":{
"Name":"北杜市高根テニスコート",
"Jusho":"山梨県北杜市高根町村山北割100",
"Capacity":"423",
"la":"35.84154928750",
"ln":"138.42610355300"
},
"geometry":{
"type":"Point",
"coordinates":[
138.426103553,
35.8415492875
]
}
},
{
"type":"Feature",
"properties":{
"Name":"北杜市高根清里スポーツ広場",
"Jusho":"山梨県北杜市高根町浅川267",
"Capacity":"664",
"la":"35.89719149360",
"ln":"138.44758577100"
},
"geometry":{
"type":"Point",
"coordinates":[
138.447585771,
35.8971914936
]
}
},
{
"type":"Feature",
"properties":{
"Name":"北杜市高根総合グラウンド",
"Jusho":"山梨県北杜市高根町村山北割100",
"Capacity":"2069",
"la":"35.84214376090",
"ln":"138.42708675000"
},
"geometry":{
"type":"Point",
"coordinates":[
138.42708675,
35.8421437609
]
}
},
{
"type":"Feature",
"properties":{
"Name":"北杜市高根体育館",
"Jusho":"山梨県北杜市高根町村山北割111",
"Capacity":"481",
"la":"35.84336300000",
"ln":"138.42809200000"
},
"geometry":{
"type":"Point",
"coordinates":[
138.428092,
35.843363
]
}
},
{
"type":"Feature",
"properties":{
"Name":"北杜市高根保健センター",
"Jusho":"山梨県北杜市高根町箕輪697",
"Capacity":"－",
"la":"35.83236171560",
"ln":"138.43097083600"
},
"geometry":{
"type":"Point",
"coordinates":[
138.430970836,
35.8323617156
]
}
},
{
"type":"Feature",
"properties":{
"Name":"北杜市小淵沢総合スポーツセンター体育館",
"Jusho":"山梨県北杜市小淵沢町2161",
"Capacity":"1895",
"la":"35.86376900000",
"ln":"138.30863800000"
},
"geometry":{
"type":"Point",
"coordinates":[
138.308638,
35.863769
]
}
},
{
"type":"Feature",
"properties":{
"Name":"北杜市小淵沢東スポーツセンターグラウンド",
"Jusho":"山梨県北杜市小淵沢町上笹尾1240",
"Capacity":"1037",
"la":"35.84689121740",
"ln":"138.32847567800"
},
"geometry":{
"type":"Point",
"coordinates":[
138.328475678,
35.8468912174
]
}
},
{
"type":"Feature",
"properties":{
"Name":"北杜市小淵沢東スポーツセンター体育館",
"Jusho":"山梨県北杜市小淵沢町上笹尾1240",
"Capacity":"102",
"la":"35.84791299910",
"ln":"138.32930500000"
},
"geometry":{
"type":"Point",
"coordinates":[
138.329305,
35.8479129991
]
}
},
{
"type":"Feature",
"properties":{
"Name":"北杜市小淵沢保健センター",
"Jusho":"山梨県北杜市小淵沢町6266",
"Capacity":"－",
"la":"35.86276000300",
"ln":"138.30308000000"
},
"geometry":{
"type":"Point",
"coordinates":[
138.30308,
35.862760003
]
}
},
{
"type":"Feature",
"properties":{
"Name":"北杜市須玉のろしの里ふれあい広場",
"Jusho":"山梨県北杜市須玉町若神子395",
"Capacity":"510",
"la":"35.79693300560",
"ln":"138.42867290800"
},
"geometry":{
"type":"Point",
"coordinates":[
138.428672908,
35.7969330056
]
}
},
{
"type":"Feature",
"properties":{
"Name":"北杜市須玉総合体育館",
"Jusho":"山梨県北杜市須玉町大蔵734",
"Capacity":"718",
"la":"35.78079479040",
"ln":"138.42467539200"
},
"geometry":{
"type":"Point",
"coordinates":[
138.424675392,
35.7807947904
]
}
},
{
"type":"Feature",
"properties":{
"Name":"北杜市大泉体育館",
"Jusho":"山梨県北杜市大泉町谷戸1915",
"Capacity":"360",
"la":"35.85819700000",
"ln":"138.37880400000"
},
"geometry":{
"type":"Point",
"coordinates":[
138.378804,
35.858197
]
}
},
{
"type":"Feature",
"properties":{
"Name":"北杜市長坂高齢者体力づくりセンター",
"Jusho":"山梨県北杜市長坂町長坂上条2233",
"Capacity":"－",
"la":"35.82511546950",
"ln":"138.37455989000"
},
"geometry":{
"type":"Point",
"coordinates":[
138.37455989,
35.8251154695
]
}
},
{
"type":"Feature",
"properties":{
"Name":"北杜市白州総合運動場",
"Jusho":"山梨県北杜市白州町白須7458-2",
"Capacity":"2506",
"la":"35.82743201450",
"ln":"138.31428963000"
},
"geometry":{
"type":"Point",
"coordinates":[
138.31428963,
35.8274320145
]
}
},
{
"type":"Feature",
"properties":{
"Name":"北杜市白州体育館",
"Jusho":"山梨県北杜市白州町鳥原2913-208",
"Capacity":"605",
"la":"35.82669799910",
"ln":"138.31040600000"
},
"geometry":{
"type":"Point",
"coordinates":[
138.310406,
35.8266979991
]
}
},
{
"type":"Feature",
"properties":{
"Name":"北杜市白州福祉会館",
"Jusho":"山梨県北杜市",
"Capacity":"－",
"la":"35.87803699910",
"ln":"138.25876600000"
},
"geometry":{
"type":"Point",
"coordinates":[
138.258766,
35.8780369991
]
}
},
{
"type":"Feature",
"properties":{
"Name":"北杜市武川体育館",
"Jusho":"山梨県北杜市武川町三吹2218",
"Capacity":"204",
"la":"35.78565300000",
"ln":"138.37357100000"
},
"geometry":{
"type":"Point",
"coordinates":[
138.373571,
35.785653
]
}
},
{
"type":"Feature",
"properties":{
"Name":"北杜市武川保健センター",
"Jusho":"山梨県北杜市",
"Capacity":"－",
"la":"35.78497503260",
"ln":"138.37570927500"
},
"geometry":{
"type":"Point",
"coordinates":[
138.375709275,
35.7849750326
]
}
},
{
"type":"Feature",
"properties":{
"Name":"北杜市明野テニスコート",
"Jusho":"山梨県北杜市明野町上手8303",
"Capacity":"138",
"la":"35.76952829290",
"ln":"138.44282722200"
},
"geometry":{
"type":"Point",
"coordinates":[
138.442827222,
35.7695282929
]
}
},
{
"type":"Feature",
"properties":{
"Name":"北杜市明野多目的屋内運動場",
"Jusho":"山梨県北杜市明野町上手8304",
"Capacity":"181",
"la":"35.76938896700",
"ln":"138.44262453400"
},
"geometry":{
"type":"Point",
"coordinates":[
138.442624534,
35.769388967
]
}
},
{
"type":"Feature",
"properties":{
"Name":"北杜市立甲陵高校体育館",
"Jusho":"山梨県北杜市長坂町長坂上条2003",
"Capacity":"1413",
"la":"35.82538300000",
"ln":"138.37800200000"
},
"geometry":{
"type":"Point",
"coordinates":[
138.378002,
35.825383
]
}
},
{
"type":"Feature",
"properties":{
"Name":"明野ゆうゆうふれあい館",
"Jusho":"山梨県北杜市明野町浅尾新田1499-1",
"Capacity":"－",
"la":"35.78597200000",
"ln":"138.43961700000"
},
"geometry":{
"type":"Point",
"coordinates":[
138.439617,
35.785972
]
}
},
{
"type":"Feature",
"properties":{
"Name":"明野地区公民館上神取分館",
"Jusho":"山梨県北杜市",
"Capacity":"－",
"la":"35.79459200000",
"ln":"138.43796800000"
},
"geometry":{
"type":"Point",
"coordinates":[
138.437968,
35.794592
]
}
},
{
"type":"Feature",
"properties":{
"Name":"明野地区公民館中込分館",
"Jusho":"山梨県北杜市",
"Capacity":"－",
"la":"35.77584299910",
"ln":"138.45023300000"
},
"geometry":{
"type":"Point",
"coordinates":[
138.450233,
35.7758429991
]
}
},
{
"type":"Feature",
"properties":{
"Name":"１９号館前遊園地",
"Jusho":"山梨県甲斐市",
"Capacity":"－",
"la":"35.63335544460",
"ln":"138.53015600000"
},
"geometry":{
"type":"Point",
"coordinates":[
138.530156,
35.6333554446
]
}
},
{
"type":"Feature",
"properties":{
"Name":"ＪＡ青果物集荷所広場",
"Jusho":"山梨県甲斐市",
"Capacity":"－",
"la":"35.65001893380",
"ln":"138.51656747200"
},
"geometry":{
"type":"Point",
"coordinates":[
138.516567472,
35.6500189338
]
}
},
{
"type":"Feature",
"properties":{
"Name":"ＪＲ竜王駅前広場",
"Jusho":"山梨県甲斐市",
"Capacity":"－",
"la":"35.66836783480",
"ln":"138.51963280200"
},
"geometry":{
"type":"Point",
"coordinates":[
138.519632802,
35.6683678348
]
}
},
{
"type":"Feature",
"properties":{
"Name":"いこいの広場",
"Jusho":"山梨県甲斐市",
"Capacity":"－",
"la":"35.66675094390",
"ln":"138.51991803100"
},
"geometry":{
"type":"Point",
"coordinates":[
138.519918031,
35.6667509439
]
}
},
{
"type":"Feature",
"properties":{
"Name":"エル機材（株）入口広場",
"Jusho":"山梨県甲斐市",
"Capacity":"－",
"la":"35.68815459110",
"ln":"138.50556591400"
},
"geometry":{
"type":"Point",
"coordinates":[
138.505565914,
35.6881545911
]
}
},
{
"type":"Feature",
"properties":{
"Name":"さつき野区公会堂広場",
"Jusho":"山梨県甲斐市",
"Capacity":"－",
"la":"35.67657182160",
"ln":"138.52066563300"
},
"geometry":{
"type":"Point",
"coordinates":[
138.520665633,
35.6765718216
]
}
},
{
"type":"Feature",
"properties":{
"Name":"しきしま幼稚園",
"Jusho":"山梨県甲斐市中下条1839",
"Capacity":"－",
"la":"35.67765400000",
"ln":"138.53007700000"
},
"geometry":{
"type":"Point",
"coordinates":[
138.530077,
35.677654
]
}
},
{
"type":"Feature",
"properties":{
"Name":"ちびっ子広場",
"Jusho":"山梨県甲斐市",
"Capacity":"－",
"la":"35.67344122030",
"ln":"138.51837578400"
},
"geometry":{
"type":"Point",
"coordinates":[
138.518375784,
35.6734412203
]
}
},
{
"type":"Feature",
"properties":{
"Name":"つくし野公民館",
"Jusho":"山梨県甲斐市",
"Capacity":"－",
"la":"35.69035236260",
"ln":"138.48997413400"
},
"geometry":{
"type":"Point",
"coordinates":[
138.489974134,
35.6903523626
]
}
},
{
"type":"Feature",
"properties":{
"Name":"ファミリーマート敷島松島団地店駐車場",
"Jusho":"山梨県甲斐市",
"Capacity":"－",
"la":"35.67744881130",
"ln":"138.52199408500"
},
"geometry":{
"type":"Point",
"coordinates":[
138.521994085,
35.6774488113
]
}
},
{
"type":"Feature",
"properties":{
"Name":"ペットフィールド駐車場",
"Jusho":"山梨県甲斐市",
"Capacity":"－",
"la":"35.67755934360",
"ln":"138.52469812400"
},
"geometry":{
"type":"Point",
"coordinates":[
138.524698124,
35.6775593436
]
}
},
{
"type":"Feature",
"properties":{
"Name":"よむよむ駐車場",
"Jusho":"山梨県甲斐市",
"Capacity":"－",
"la":"35.67978423080",
"ln":"138.52629109100"
},
"geometry":{
"type":"Point",
"coordinates":[
138.526291091,
35.6797842308
]
}
},
{
"type":"Feature",
"properties":{
"Name":"安寺区公民館",
"Jusho":"山梨県甲斐市",
"Capacity":"－",
"la":"35.75420136690",
"ln":"138.53189653500"
},
"geometry":{
"type":"Point",
"coordinates":[
138.531896535,
35.7542013669
]
}
},
{
"type":"Feature",
"properties":{
"Name":"宇北公民館前広場",
"Jusho":"山梨県甲斐市",
"Capacity":"－",
"la":"35.69763588630",
"ln":"138.47631072500"
},
"geometry":{
"type":"Point",
"coordinates":[
138.476310725,
35.6976358863
]
}
},
{
"type":"Feature",
"properties":{
"Name":"塩崎町公民館広場",
"Jusho":"山梨県甲斐市",
"Capacity":"－",
"la":"35.69045811020",
"ln":"138.47818723900"
},
"geometry":{
"type":"Point",
"coordinates":[
138.478187239,
35.6904581102
]
}
},
{
"type":"Feature",
"properties":{
"Name":"下今井公民館",
"Jusho":"山梨県甲斐市",
"Capacity":"－",
"la":"35.68326762500",
"ln":"138.49748012900"
},
"geometry":{
"type":"Point",
"coordinates":[
138.497480129,
35.683267625
]
}
},
{
"type":"Feature",
"properties":{
"Name":"下今井自性院境内",
"Jusho":"山梨県甲斐市",
"Capacity":"－",
"la":"35.68294656660",
"ln":"138.49822099800"
},
"geometry":{
"type":"Point",
"coordinates":[
138.498220998,
35.6829465666
]
}
},
{
"type":"Feature",
"properties":{
"Name":"下志田公民館",
"Jusho":"山梨県甲斐市",
"Capacity":"－",
"la":"35.68912260420",
"ln":"138.48315411400"
},
"geometry":{
"type":"Point",
"coordinates":[
138.483154114,
35.6891226042
]
}
},
{
"type":"Feature",
"properties":{
"Name":"下宿公民館",
"Jusho":"山梨県甲斐市",
"Capacity":"－",
"la":"35.68677918670",
"ln":"138.50494766100"
},
"geometry":{
"type":"Point",
"coordinates":[
138.504947661,
35.6867791867
]
}
},
{
"type":"Feature",
"properties":{
"Name":"下菅口区公民館",
"Jusho":"山梨県甲斐市",
"Capacity":"－",
"la":"35.74837422140",
"ln":"138.52994143800"
},
"geometry":{
"type":"Point",
"coordinates":[
138.529941438,
35.7483742214
]
}
},
{
"type":"Feature",
"properties":{
"Name":"下八幡３区公民館庭",
"Jusho":"山梨県甲斐市",
"Capacity":"－",
"la":"35.64038927530",
"ln":"138.52387120500"
},
"geometry":{
"type":"Point",
"coordinates":[
138.523871205,
35.6403892753
]
}
},
{
"type":"Feature",
"properties":{
"Name":"笠石公民館",
"Jusho":"山梨県甲斐市",
"Capacity":"－",
"la":"35.70780680370",
"ln":"138.48471641100"
},
"geometry":{
"type":"Point",
"coordinates":[
138.484716411,
35.7078068037
]
}
},
{
"type":"Feature",
"properties":{
"Name":"観音堂広場",
"Jusho":"山梨県甲斐市",
"Capacity":"－",
"la":"35.73696798590",
"ln":"138.55262687800"
},
"geometry":{
"type":"Point",
"coordinates":[
138.552626878,
35.7369679859
]
}
},
{
"type":"Feature",
"properties":{
"Name":"希望ヶ丘公民館広場",
"Jusho":"山梨県甲斐市",
"Capacity":"－",
"la":"35.67728773970",
"ln":"138.51357888000"
},
"geometry":{
"type":"Point",
"coordinates":[
138.51357888,
35.6772877397
]
}
},
{
"type":"Feature",
"properties":{
"Name":"吉沢地域ふれあい館",
"Jusho":"山梨県甲斐市吉沢245",
"Capacity":"－",
"la":"35.71465600000",
"ln":"138.54134400000"
},
"geometry":{
"type":"Point",
"coordinates":[
138.541344,
35.714656
]
}
},
{
"type":"Feature",
"properties":{
"Name":"吉沢地域ふれあい館広場",
"Jusho":"山梨県甲斐市",
"Capacity":"－",
"la":"35.71490981280",
"ln":"138.54158965600"
},
"geometry":{
"type":"Point",
"coordinates":[
138.541589656,
35.7149098128
]
}
},
{
"type":"Feature",
"properties":{
"Name":"玉川西区公会堂前広場",
"Jusho":"山梨県甲斐市",
"Capacity":"－",
"la":"35.63434959290",
"ln":"138.52096177300"
},
"geometry":{
"type":"Point",
"coordinates":[
138.520961773,
35.6343495929
]
}
},
{
"type":"Feature",
"properties":{
"Name":"玉川団地２区集会所広場",
"Jusho":"山梨県甲斐市",
"Capacity":"－",
"la":"35.63278501710",
"ln":"138.53022206600"
},
"geometry":{
"type":"Point",
"coordinates":[
138.530222066,
35.6327850171
]
}
},
{
"type":"Feature",
"properties":{
"Name":"玉川東区集落集会所前",
"Jusho":"山梨県甲斐市",
"Capacity":"－",
"la":"35.63439554350",
"ln":"138.52500694800"
},
"geometry":{
"type":"Point",
"coordinates":[
138.525006948,
35.6343955435
]
}
},
{
"type":"Feature",
"properties":{
"Name":"金剛地公民館前広場",
"Jusho":"山梨県甲斐市",
"Capacity":"－",
"la":"35.69560513890",
"ln":"138.47213260400"
},
"geometry":{
"type":"Point",
"coordinates":[
138.472132604,
35.6956051389
]
}
},
{
"type":"Feature",
"properties":{
"Name":"金山神社境内",
"Jusho":"山梨県甲斐市",
"Capacity":"－",
"la":"35.69438138810",
"ln":"138.50073238000"
},
"geometry":{
"type":"Point",
"coordinates":[
138.50073238,
35.6943813881
]
}
},
{
"type":"Feature",
"properties":{
"Name":"金山神社広場",
"Jusho":"山梨県甲斐市",
"Capacity":"－",
"la":"35.68930055540",
"ln":"138.51577057100"
},
"geometry":{
"type":"Point",
"coordinates":[
138.515770571,
35.6893005554
]
}
},
{
"type":"Feature",
"properties":{
"Name":"金比羅神社",
"Jusho":"山梨県甲斐市",
"Capacity":"－",
"la":"35.69681591630",
"ln":"138.49988592600"
},
"geometry":{
"type":"Point",
"coordinates":[
138.499885926,
35.6968159163
]
}
},
{
"type":"Feature",
"properties":{
"Name":"駒沢公民館",
"Jusho":"山梨県甲斐市",
"Capacity":"－",
"la":"35.70600199210",
"ln":"138.46840722800"
},
"geometry":{
"type":"Point",
"coordinates":[
138.468407228,
35.7060019921
]
}
},
{
"type":"Feature",
"properties":{
"Name":"駒沢壮蚕所",
"Jusho":"山梨県甲斐市",
"Capacity":"－",
"la":"35.70528003040",
"ln":"138.46893586500"
},
"geometry":{
"type":"Point",
"coordinates":[
138.468935865,
35.7052800304
]
}
},
{
"type":"Feature",
"properties":{
"Name":"月林公会堂広場",
"Jusho":"山梨県甲斐市",
"Capacity":"－",
"la":"35.63569421390",
"ln":"138.51790640800"
},
"geometry":{
"type":"Point",
"coordinates":[
138.517906408,
35.6356942139
]
}
},
{
"type":"Feature",
"properties":{
"Name":"県立明生学園庭",
"Jusho":"山梨県甲斐市竜王2175",
"Capacity":"－",
"la":"35.66128900000",
"ln":"138.50436000000"
},
"geometry":{
"type":"Point",
"coordinates":[
138.50436,
35.661289
]
}
},
{
"type":"Feature",
"properties":{
"Name":"玄広寺境内",
"Jusho":"山梨県甲斐市",
"Capacity":"－",
"la":"35.66037703570",
"ln":"138.52910918300"
},
"geometry":{
"type":"Point",
"coordinates":[
138.529109183,
35.6603770357
]
}
},
{
"type":"Feature",
"properties":{
"Name":"光彩工芸駐車場",
"Jusho":"山梨県甲斐市",
"Capacity":"－",
"la":"35.68476447990",
"ln":"138.51152920200"
},
"geometry":{
"type":"Point",
"coordinates":[
138.511529202,
35.6847644799
]
}
},
{
"type":"Feature",
"properties":{
"Name":"光照寺境内",
"Jusho":"山梨県甲斐市",
"Capacity":"－",
"la":"35.69011548390",
"ln":"138.48610569400"
},
"geometry":{
"type":"Point",
"coordinates":[
138.486105694,
35.6901154839
]
}
},
{
"type":"Feature",
"properties":{
"Name":"高原団地公民館",
"Jusho":"山梨県甲斐市",
"Capacity":"－",
"la":"35.69218524300",
"ln":"138.50214965900"
},
"geometry":{
"type":"Point",
"coordinates":[
138.502149659,
35.692185243
]
}
},
{
"type":"Feature",
"properties":{
"Name":"高山台公民館広場",
"Jusho":"山梨県甲斐市",
"Capacity":"－",
"la":"35.68346144640",
"ln":"138.50475017000"
},
"geometry":{
"type":"Point",
"coordinates":[
138.50475017,
35.6834614464
]
}
},
{
"type":"Feature",
"properties":{
"Name":"三社神社境内",
"Jusho":"山梨県甲斐市",
"Capacity":"－",
"la":"35.66857052660",
"ln":"138.50227157200"
},
"geometry":{
"type":"Point",
"coordinates":[
138.502271572,
35.6685705266
]
}
},
{
"type":"Feature",
"properties":{
"Name":"山梨県農業大学校双葉分校",
"Jusho":"山梨県甲斐市",
"Capacity":"－",
"la":"35.68118849250",
"ln":"138.48830795900"
},
"geometry":{
"type":"Point",
"coordinates":[
138.488307959,
35.6811884925
]
}
},
{
"type":"Feature",
"properties":{
"Name":"山縣神社前",
"Jusho":"山梨県甲斐市",
"Capacity":"－",
"la":"35.65775899680",
"ln":"138.52229842900"
},
"geometry":{
"type":"Point",
"coordinates":[
138.522298429,
35.6577589968
]
}
},
{
"type":"Feature",
"properties":{
"Name":"蚕業試験場",
"Jusho":"山梨県甲斐市",
"Capacity":"－",
"la":"35.70634695590",
"ln":"138.49390441700"
},
"geometry":{
"type":"Point",
"coordinates":[
138.493904417,
35.7063469559
]
}
},
{
"type":"Feature",
"properties":{
"Name":"獅子平集いの家広場",
"Jusho":"山梨県甲斐市",
"Capacity":"－",
"la":"35.74076525010",
"ln":"138.53190394100"
},
"geometry":{
"type":"Point",
"coordinates":[
138.531903941,
35.7407652501
]
}
},
{
"type":"Feature",
"properties":{
"Name":"寺前公民館広場",
"Jusho":"山梨県甲斐市",
"Capacity":"－",
"la":"35.68053199930",
"ln":"138.52447663800"
},
"geometry":{
"type":"Point",
"coordinates":[
138.524476638,
35.6805319993
]
}
},
{
"type":"Feature",
"properties":{
"Name":"漆戸区公会堂",
"Jusho":"山梨県甲斐市",
"Capacity":"－",
"la":"35.73707428360",
"ln":"138.52551930700"
},
"geometry":{
"type":"Point",
"coordinates":[
138.525519307,
35.7370742836
]
}
},
{
"type":"Feature",
"properties":{
"Name":"小川区公民館",
"Jusho":"山梨県甲斐市",
"Capacity":"－",
"la":"35.77782424670",
"ln":"138.53479762100"
},
"geometry":{
"type":"Point",
"coordinates":[
138.534797621,
35.7778242467
]
}
},
{
"type":"Feature",
"properties":{
"Name":"松島団地区公民館広場",
"Jusho":"山梨県甲斐市",
"Capacity":"－",
"la":"35.68029499870",
"ln":"138.51865411600"
},
"geometry":{
"type":"Point",
"coordinates":[
138.518654116,
35.6802949987
]
}
},
{
"type":"Feature",
"properties":{
"Name":"菖蒲沢グラウンド広場",
"Jusho":"山梨県甲斐市",
"Capacity":"－",
"la":"35.70988113370",
"ln":"138.49021532200"
},
"geometry":{
"type":"Point",
"coordinates":[
138.490215322,
35.7098811337
]
}
},
{
"type":"Feature",
"properties":{
"Name":"菖蒲沢公民館",
"Jusho":"山梨県甲斐市",
"Capacity":"－",
"la":"35.70863549240",
"ln":"138.49076167700"
},
"geometry":{
"type":"Point",
"coordinates":[
138.490761677,
35.7086354924
]
}
},
{
"type":"Feature",
"properties":{
"Name":"上篠原地区集落集会所前",
"Jusho":"山梨県甲斐市",
"Capacity":"－",
"la":"35.65818549610",
"ln":"138.51643121800"
},
"geometry":{
"type":"Point",
"coordinates":[
138.516431218,
35.6581854961
]
}
},
{
"type":"Feature",
"properties":{
"Name":"上宿公民館広場",
"Jusho":"山梨県甲斐市",
"Capacity":"－",
"la":"35.68862382850",
"ln":"138.50212961600"
},
"geometry":{
"type":"Point",
"coordinates":[
138.502129616,
35.6886238285
]
}
},
{
"type":"Feature",
"properties":{
"Name":"上菅口区公会堂",
"Jusho":"山梨県甲斐市",
"Capacity":"－",
"la":"35.75097286580",
"ln":"138.52692719400"
},
"geometry":{
"type":"Point",
"coordinates":[
138.526927194,
35.7509728658
]
}
},
{
"type":"Feature",
"properties":{
"Name":"常照院境内",
"Jusho":"山梨県甲斐市",
"Capacity":"－",
"la":"35.64525185440",
"ln":"138.52031370200"
},
"geometry":{
"type":"Point",
"coordinates":[
138.520313702,
35.6452518544
]
}
},
{
"type":"Feature",
"properties":{
"Name":"新田公民館広場",
"Jusho":"山梨県甲斐市",
"Capacity":"－",
"la":"35.70405416690",
"ln":"138.49652808000"
},
"geometry":{
"type":"Point",
"coordinates":[
138.49652808,
35.7040541669
]
}
},
{
"type":"Feature",
"properties":{
"Name":"神の湯入り口広場",
"Jusho":"山梨県甲斐市",
"Capacity":"－",
"la":"35.68281807030",
"ln":"138.51646243600"
},
"geometry":{
"type":"Point",
"coordinates":[
138.516462436,
35.6828180703
]
}
},
{
"type":"Feature",
"properties":{
"Name":"神明神社",
"Jusho":"山梨県甲斐市",
"Capacity":"－",
"la":"35.71064327880",
"ln":"138.49993054200"
},
"geometry":{
"type":"Point",
"coordinates":[
138.499930542,
35.7106432788
]
}
},
{
"type":"Feature",
"properties":{
"Name":"神明神社境内",
"Jusho":"山梨県甲斐市",
"Capacity":"－",
"la":"35.66066989880",
"ln":"138.52473649600"
},
"geometry":{
"type":"Point",
"coordinates":[
138.524736496,
35.6606698988
]
}
},
{
"type":"Feature",
"properties":{
"Name":"諏訪神社境内",
"Jusho":"山梨県甲斐市",
"Capacity":"－",
"la":"35.64870030190",
"ln":"138.53029855200"
},
"geometry":{
"type":"Point",
"coordinates":[
138.530298552,
35.6487003019
]
}
},
{
"type":"Feature",
"properties":{
"Name":"清川地域ふれあい館",
"Jusho":"山梨県甲斐市上福沢124",
"Capacity":"－",
"la":"35.76358600000",
"ln":"138.53564100000"
},
"geometry":{
"type":"Point",
"coordinates":[
138.535641,
35.763586
]
}
},
{
"type":"Feature",
"properties":{
"Name":"清川地域ふれあい館広場",
"Jusho":"山梨県甲斐市",
"Capacity":"－",
"la":"35.76323574670",
"ln":"138.53613273900"
},
"geometry":{
"type":"Point",
"coordinates":[
138.536132739,
35.7632357467
]
}
},
{
"type":"Feature",
"properties":{
"Name":"青竜寺境内",
"Jusho":"山梨県甲斐市",
"Capacity":"－",
"la":"35.69323364880",
"ln":"138.49891266900"
},
"geometry":{
"type":"Point",
"coordinates":[
138.498912669,
35.6932336488
]
}
},
{
"type":"Feature",
"properties":{
"Name":"赤坂稲荷神社境内",
"Jusho":"山梨県甲斐市",
"Capacity":"－",
"la":"35.67304233180",
"ln":"138.51178509700"
},
"geometry":{
"type":"Point",
"coordinates":[
138.511785097,
35.6730423318
]
}
},
{
"type":"Feature",
"properties":{
"Name":"船形神社境内",
"Jusho":"山梨県甲斐市",
"Capacity":"－",
"la":"35.69150742360",
"ln":"138.47911291000"
},
"geometry":{
"type":"Point",
"coordinates":[
138.47911291,
35.6915074236
]
}
},
{
"type":"Feature",
"properties":{
"Name":"前屋区公民館",
"Jusho":"山梨県甲斐市",
"Capacity":"－",
"la":"35.74922176750",
"ln":"138.53913716700"
},
"geometry":{
"type":"Point",
"coordinates":[
138.539137167,
35.7492217675
]
}
},
{
"type":"Feature",
"properties":{
"Name":"双葉響ヶ丘団地集会所広場",
"Jusho":"山梨県甲斐市",
"Capacity":"－",
"la":"35.68290307620",
"ln":"138.51289904800"
},
"geometry":{
"type":"Point",
"coordinates":[
138.512899048,
35.6829030762
]
}
},
{
"type":"Feature",
"properties":{
"Name":"双葉響ヶ丘販売センター",
"Jusho":"山梨県甲斐市",
"Capacity":"－",
"la":"35.68159742100",
"ln":"138.50932871200"
},
"geometry":{
"type":"Point",
"coordinates":[
138.509328712,
35.681597421
]
}
},
{
"type":"Feature",
"properties":{
"Name":"双葉西保育園",
"Jusho":"山梨県甲斐市宇津谷4542",
"Capacity":"－",
"la":"35.69354100000",
"ln":"138.47680500000"
},
"geometry":{
"type":"Point",
"coordinates":[
138.476805,
35.693541
]
}
},
{
"type":"Feature",
"properties":{
"Name":"双葉体育館",
"Jusho":"山梨県甲斐市宇津谷2220",
"Capacity":"－",
"la":"35.70223200000",
"ln":"138.48492100000"
},
"geometry":{
"type":"Point",
"coordinates":[
138.484921,
35.702232
]
}
},
{
"type":"Feature",
"properties":{
"Name":"双葉東公民館広場",
"Jusho":"山梨県甲斐市",
"Capacity":"－",
"la":"35.69539324770",
"ln":"138.49823819700"
},
"geometry":{
"type":"Point",
"coordinates":[
138.498238197,
35.6953932477
]
}
},
{
"type":"Feature",
"properties":{
"Name":"双葉保健福祉センター",
"Jusho":"山梨県甲斐市",
"Capacity":"－",
"la":"35.68951583860",
"ln":"138.49982896900"
},
"geometry":{
"type":"Point",
"coordinates":[
138.499828969,
35.6895158386
]
}
},
{
"type":"Feature",
"properties":{
"Name":"打返公民館",
"Jusho":"山梨県甲斐市",
"Capacity":"－",
"la":"35.73432016970",
"ln":"138.52122789900"
},
"geometry":{
"type":"Point",
"coordinates":[
138.521227899,
35.7343201697
]
}
},
{
"type":"Feature",
"properties":{
"Name":"大屋敷公民館広場",
"Jusho":"山梨県甲斐市",
"Capacity":"－",
"la":"35.68570093030",
"ln":"138.50859333400"
},
"geometry":{
"type":"Point",
"coordinates":[
138.508593334,
35.6857009303
]
}
},
{
"type":"Feature",
"properties":{
"Name":"大下条南ちびっ子広場",
"Jusho":"山梨県甲斐市",
"Capacity":"－",
"la":"35.66782495580",
"ln":"138.52598157000"
},
"geometry":{
"type":"Point",
"coordinates":[
138.52598157,
35.6678249558
]
}
},
{
"type":"Feature",
"properties":{
"Name":"大久保区公民館北ちびっ子広場",
"Jusho":"山梨県甲斐市",
"Capacity":"－",
"la":"35.69366055200",
"ln":"138.51172452200"
},
"geometry":{
"type":"Point",
"coordinates":[
138.511724522,
35.693660552
]
}
},
{
"type":"Feature",
"properties":{
"Name":"大山祇命神示教会駐車場",
"Jusho":"山梨県甲斐市",
"Capacity":"－",
"la":"35.68208152520",
"ln":"138.50062220700"
},
"geometry":{
"type":"Point",
"coordinates":[
138.500622207,
35.6820815252
]
}
},
{
"type":"Feature",
"properties":{
"Name":"大慈院境内",
"Jusho":"山梨県甲斐市",
"Capacity":"－",
"la":"35.66464923640",
"ln":"138.50495370600"
},
"geometry":{
"type":"Point",
"coordinates":[
138.504953706,
35.6646492364
]
}
},
{
"type":"Feature",
"properties":{
"Name":"大明神分校校庭",
"Jusho":"山梨県甲斐市",
"Capacity":"－",
"la":"35.77352761240",
"ln":"138.50987790200"
},
"geometry":{
"type":"Point",
"coordinates":[
138.509877902,
35.7735276124
]
}
},
{
"type":"Feature",
"properties":{
"Name":"滝坂公民館",
"Jusho":"山梨県甲斐市",
"Capacity":"－",
"la":"35.68449722710",
"ln":"138.51463628000"
},
"geometry":{
"type":"Point",
"coordinates":[
138.51463628,
35.6844972271
]
}
},
{
"type":"Feature",
"properties":{
"Name":"滝坂遊園地",
"Jusho":"山梨県甲斐市",
"Capacity":"－",
"la":"35.68538436420",
"ln":"138.51380700800"
},
"geometry":{
"type":"Point",
"coordinates":[
138.513807008,
35.6853843642
]
}
},
{
"type":"Feature",
"properties":{
"Name":"滝沢公民館",
"Jusho":"山梨県甲斐市",
"Capacity":"－",
"la":"35.70097349010",
"ln":"138.46912620000"
},
"geometry":{
"type":"Point",
"coordinates":[
138.4691262,
35.7009734901
]
}
},
{
"type":"Feature",
"properties":{
"Name":"竪町公民館広場",
"Jusho":"山梨県甲斐市",
"Capacity":"－",
"la":"35.68439103540",
"ln":"138.52817258800"
},
"geometry":{
"type":"Point",
"coordinates":[
138.528172588,
35.6843910354
]
}
},
{
"type":"Feature",
"properties":{
"Name":"団地内駐車場",
"Jusho":"山梨県甲斐市",
"Capacity":"－",
"la":"35.69108678760",
"ln":"138.48878413200"
},
"geometry":{
"type":"Point",
"coordinates":[
138.488784132,
35.6910867876
]
}
},
{
"type":"Feature",
"properties":{
"Name":"田中団地駐車場",
"Jusho":"山梨県甲斐市",
"Capacity":"－",
"la":"35.64445166090",
"ln":"138.52659372400"
},
"geometry":{
"type":"Point",
"coordinates":[
138.526593724,
35.6444516609
]
}
},
{
"type":"Feature",
"properties":{
"Name":"田畑公民館",
"Jusho":"山梨県甲斐市",
"Capacity":"－",
"la":"35.69263767260",
"ln":"138.47607094300"
},
"geometry":{
"type":"Point",
"coordinates":[
138.476070943,
35.6926376726
]
}
},
{
"type":"Feature",
"properties":{
"Name":"田畑団地内駐車場",
"Jusho":"山梨県甲斐市",
"Capacity":"－",
"la":"35.69394980690",
"ln":"138.47578790400"
},
"geometry":{
"type":"Point",
"coordinates":[
138.475787904,
35.6939498069
]
}
},
{
"type":"Feature",
"properties":{
"Name":"登美団地公民館",
"Jusho":"山梨県甲斐市",
"Capacity":"－",
"la":"35.67928170590",
"ln":"138.51707109900"
},
"geometry":{
"type":"Point",
"coordinates":[
138.517071099,
35.6792817059
]
}
},
{
"type":"Feature",
"properties":{
"Name":"土肥一守宅駐車場",
"Jusho":"山梨県甲斐市",
"Capacity":"－",
"la":"35.71198230620",
"ln":"138.52476601100"
},
"geometry":{
"type":"Point",
"coordinates":[
138.524766011,
35.7119823062
]
}
},
{
"type":"Feature",
"properties":{
"Name":"東町公会堂前",
"Jusho":"山梨県甲斐市",
"Capacity":"－",
"la":"35.68271073160",
"ln":"138.53049493500"
},
"geometry":{
"type":"Point",
"coordinates":[
138.530494935,
35.6827107316
]
}
},
{
"type":"Feature",
"properties":{
"Name":"桃花の街集会所",
"Jusho":"山梨県甲斐市",
"Capacity":"－",
"la":"35.68153279090",
"ln":"138.51222570600"
},
"geometry":{
"type":"Point",
"coordinates":[
138.512225706,
35.6815327909
]
}
},
{
"type":"Feature",
"properties":{
"Name":"藤の木区公民館",
"Jusho":"山梨県甲斐市",
"Capacity":"－",
"la":"35.72675342470",
"ln":"138.52676970700"
},
"geometry":{
"type":"Point",
"coordinates":[
138.526769707,
35.7267534247
]
}
},
{
"type":"Feature",
"properties":{
"Name":"働く婦人の家前",
"Jusho":"山梨県甲斐市",
"Capacity":"－",
"la":"35.64456200000",
"ln":"138.53322500000"
},
"geometry":{
"type":"Point",
"coordinates":[
138.533225,
35.644562
]
}
},
{
"type":"Feature",
"properties":{
"Name":"日本航空学園",
"Jusho":"山梨県甲斐市",
"Capacity":"－",
"la":"35.68240299910",
"ln":"138.48130400000"
},
"geometry":{
"type":"Point",
"coordinates":[
138.481304,
35.6824029991
]
}
},
{
"type":"Feature",
"properties":{
"Name":"農産物集出荷場",
"Jusho":"山梨県甲斐市",
"Capacity":"－",
"la":"35.69361595090",
"ln":"138.48780526300"
},
"geometry":{
"type":"Point",
"coordinates":[
138.487805263,
35.6936159509
]
}
},
{
"type":"Feature",
"properties":{
"Name":"農林高校校庭",
"Jusho":"山梨県甲斐市西八幡4533",
"Capacity":"－",
"la":"35.63491000000",
"ln":"138.51021900000"
},
"geometry":{
"type":"Point",
"coordinates":[
138.510219,
35.63491
]
}
},
{
"type":"Feature",
"properties":{
"Name":"八王子神社境内",
"Jusho":"山梨県甲斐市",
"Capacity":"－",
"la":"35.64161461120",
"ln":"138.52062707300"
},
"geometry":{
"type":"Point",
"coordinates":[
138.520627073,
35.6416146112
]
}
},
{
"type":"Feature",
"properties":{
"Name":"敷島プリント東側駐車場",
"Jusho":"山梨県甲斐市",
"Capacity":"－",
"la":"35.68466726130",
"ln":"138.53276900800"
},
"geometry":{
"type":"Point",
"coordinates":[
138.532769008,
35.6846672613
]
}
},
{
"type":"Feature",
"properties":{
"Name":"敷島宿舎協会駐車場",
"Jusho":"山梨県甲斐市",
"Capacity":"－",
"la":"35.68250641360",
"ln":"138.52317238100"
},
"geometry":{
"type":"Point",
"coordinates":[
138.523172381,
35.6825064136
]
}
},
{
"type":"Feature",
"properties":{
"Name":"敷島総合文化会館駐車場",
"Jusho":"山梨県甲斐市",
"Capacity":"－",
"la":"35.68842215840",
"ln":"138.52231097000"
},
"geometry":{
"type":"Point",
"coordinates":[
138.52231097,
35.6884221584
]
}
},
{
"type":"Feature",
"properties":{
"Name":"敷島竪町区公民館",
"Jusho":"山梨県甲斐市",
"Capacity":"－",
"la":"35.68451692810",
"ln":"138.52829626100"
},
"geometry":{
"type":"Point",
"coordinates":[
138.528296261,
35.6845169281
]
}
},
{
"type":"Feature",
"properties":{
"Name":"敷島保育園駐車場",
"Jusho":"山梨県甲斐市",
"Capacity":"－",
"la":"35.68212814040",
"ln":"138.52341947100"
},
"geometry":{
"type":"Point",
"coordinates":[
138.523419471,
35.6821281404
]
}
},
{
"type":"Feature",
"properties":{
"Name":"平見城公民館",
"Jusho":"山梨県甲斐市",
"Capacity":"－",
"la":"35.78664755970",
"ln":"138.53475456700"
},
"geometry":{
"type":"Point",
"coordinates":[
138.534754567,
35.7866475597
]
}
},
{
"type":"Feature",
"properties":{
"Name":"米沢公民館広場",
"Jusho":"山梨県甲斐市",
"Capacity":"－",
"la":"35.70864172580",
"ln":"138.48020660200"
},
"geometry":{
"type":"Point",
"coordinates":[
138.480206602,
35.7086417258
]
}
},
{
"type":"Feature",
"properties":{
"Name":"宝勝寺広場",
"Jusho":"山梨県甲斐市",
"Capacity":"－",
"la":"35.77011822740",
"ln":"138.53230005300"
},
"geometry":{
"type":"Point",
"coordinates":[
138.532300053,
35.7701182274
]
}
},
{
"type":"Feature",
"properties":{
"Name":"法久寺庭",
"Jusho":"山梨県甲斐市",
"Capacity":"－",
"la":"35.65272903710",
"ln":"138.52820345200"
},
"geometry":{
"type":"Point",
"coordinates":[
138.528203452,
35.6527290371
]
}
},
{
"type":"Feature",
"properties":{
"Name":"睦沢地域ふれあい館",
"Jusho":"山梨県甲斐市亀沢3687",
"Capacity":"－",
"la":"35.72006100000",
"ln":"138.52591800000"
},
"geometry":{
"type":"Point",
"coordinates":[
138.525918,
35.720061
]
}
},
{
"type":"Feature",
"properties":{
"Name":"本興寺",
"Jusho":"山梨県甲斐市",
"Capacity":"－",
"la":"35.67335738340",
"ln":"138.53333141100"
},
"geometry":{
"type":"Point",
"coordinates":[
138.533331411,
35.6733573834
]
}
},
{
"type":"Feature",
"properties":{
"Name":"万才東公民館庭",
"Jusho":"山梨県甲斐市",
"Capacity":"－",
"la":"35.64820212660",
"ln":"138.53343715600"
},
"geometry":{
"type":"Point",
"coordinates":[
138.533437156,
35.6482021266
]
}
},
{
"type":"Feature",
"properties":{
"Name":"妙善寺境内",
"Jusho":"山梨県甲斐市",
"Capacity":"－",
"la":"35.69307406220",
"ln":"138.47655031300"
},
"geometry":{
"type":"Point",
"coordinates":[
138.476550313,
35.6930740622
]
}
},
{
"type":"Feature",
"properties":{
"Name":"藍色の街集会所",
"Jusho":"山梨県甲斐市",
"Capacity":"－",
"la":"35.68331620710",
"ln":"138.50993558400"
},
"geometry":{
"type":"Point",
"coordinates":[
138.509935584,
35.6833162071
]
}
},
{
"type":"Feature",
"properties":{
"Name":"竜王１区公会堂庭",
"Jusho":"山梨県甲斐市",
"Capacity":"－",
"la":"35.66758203250",
"ln":"138.50293740600"
},
"geometry":{
"type":"Point",
"coordinates":[
138.502937406,
35.6675820325
]
}
},
{
"type":"Feature",
"properties":{
"Name":"竜王２区公会堂庭",
"Jusho":"山梨県甲斐市",
"Capacity":"－",
"la":"35.66436103580",
"ln":"138.50402657300"
},
"geometry":{
"type":"Point",
"coordinates":[
138.504026573,
35.6643610358
]
}
},
{
"type":"Feature",
"properties":{
"Name":"竜王４区公会堂庭",
"Jusho":"山梨県甲斐市",
"Capacity":"－",
"la":"35.66391703660",
"ln":"138.50939054300"
},
"geometry":{
"type":"Point",
"coordinates":[
138.509390543,
35.6639170366
]
}
},
{
"type":"Feature",
"properties":{
"Name":"竜王西保育園庭",
"Jusho":"山梨県甲斐市竜王1671",
"Capacity":"－",
"la":"35.66587700000",
"ln":"138.50716400000"
},
"geometry":{
"type":"Point",
"coordinates":[
138.507164,
35.665877
]
}
},
{
"type":"Feature",
"properties":{
"Name":"竜王仲町公会堂東側広場",
"Jusho":"山梨県甲斐市",
"Capacity":"－",
"la":"35.66283013520",
"ln":"138.51928999100"
},
"geometry":{
"type":"Point",
"coordinates":[
138.519289991,
35.6628301352
]
}
},
{
"type":"Feature",
"properties":{
"Name":"竜王南部公民館",
"Jusho":"山梨県甲斐市西八幡1976-1",
"Capacity":"－",
"la":"35.63751600000",
"ln":"138.52391500000"
},
"geometry":{
"type":"Point",
"coordinates":[
138.523915,
35.637516
]
}
},
{
"type":"Feature",
"properties":{
"Name":"竜王北保育園園庭",
"Jusho":"山梨県甲斐市竜王新町653",
"Capacity":"－",
"la":"35.67082100000",
"ln":"138.51666200000"
},
"geometry":{
"type":"Point",
"coordinates":[
138.516662,
35.670821
]
}
},
{
"type":"Feature",
"properties":{
"Name":"竜泉院境内",
"Jusho":"山梨県甲斐市",
"Capacity":"－",
"la":"35.68870715920",
"ln":"138.50303796300"
},
"geometry":{
"type":"Point",
"coordinates":[
138.503037963,
35.6887071592
]
}
},
{
"type":"Feature",
"properties":{
"Name":"竜蔵院境内",
"Jusho":"山梨県甲斐市",
"Capacity":"－",
"la":"35.68534904310",
"ln":"138.51595616700"
},
"geometry":{
"type":"Point",
"coordinates":[
138.515956167,
35.6853490431
]
}
},
{
"type":"Feature",
"properties":{
"Name":"冷間区集会所庭",
"Jusho":"山梨県甲斐市",
"Capacity":"－",
"la":"35.63752035270",
"ln":"138.52580057000"
},
"geometry":{
"type":"Point",
"coordinates":[
138.52580057,
35.6375203527
]
}
},
{
"type":"Feature",
"properties":{
"Name":"老人憩いの家広場",
"Jusho":"山梨県甲斐市",
"Capacity":"－",
"la":"35.72120991880",
"ln":"138.54856613100"
},
"geometry":{
"type":"Point",
"coordinates":[
138.548566131,
35.7212099188
]
}
},
{
"type":"Feature",
"properties":{
"Name":"かすがい西保育所",
"Jusho":"山梨県笛吹市春日居町熊野堂243-3",
"Capacity":"405",
"la":"35.67040700000",
"ln":"138.65065100000"
},
"geometry":{
"type":"Point",
"coordinates":[
138.650651,
35.670407
]
}
},
{
"type":"Feature",
"properties":{
"Name":"石和スコレーセンター",
"Jusho":"山梨県笛吹市石和町広瀬626-1",
"Capacity":"5361",
"la":"35.63437758810",
"ln":"138.62941711800"
},
"geometry":{
"type":"Point",
"coordinates":[
138.629417118,
35.6343775881
]
}
},
{
"type":"Feature",
"properties":{
"Name":"みさかの湯",
"Jusho":"山梨県笛吹市御坂町成田2200",
"Capacity":"1186",
"la":"35.63838996300",
"ln":"138.64413800000"
},
"geometry":{
"type":"Point",
"coordinates":[
138.644138,
35.638389963
]
}
},
{
"type":"Feature",
"properties":{
"Name":"芦川ふれあいプラザ",
"Jusho":"山梨県笛吹市芦川町鶯宿466-1",
"Capacity":"－",
"la":"35.54905400000",
"ln":"138.65245900000"
},
"geometry":{
"type":"Point",
"coordinates":[
138.652459,
35.549054
]
}
},
{
"type":"Feature",
"properties":{
"Name":"一宮児童館・保健センター",
"Jusho":"山梨県笛吹市一宮町末木798-1",
"Capacity":"－",
"la":"35.64688419980",
"ln":"138.69053330400"
},
"geometry":{
"type":"Point",
"coordinates":[
138.690533304,
35.6468841998
]
}
},
{
"type":"Feature",
"properties":{
"Name":"駅前公民館",
"Jusho":"山梨県笛吹市石和町松本222-112",
"Capacity":"－",
"la":"35.65691336450",
"ln":"138.63258334800"
},
"geometry":{
"type":"Point",
"coordinates":[
138.632583348,
35.6569133645
]
}
},
{
"type":"Feature",
"properties":{
"Name":"間門公民館",
"Jusho":"山梨県笛吹市境川町寺尾112-1",
"Capacity":"95",
"la":"35.59377857120",
"ln":"138.58875630100"
},
"geometry":{
"type":"Point",
"coordinates":[
138.588756301,
35.5937785712
]
}
},