var akita = {"type":"FeatureCollection","features":[
{"type":"Feature","geometry":{"type":"Point","coordinates":[140.0699755202,39.7781039073]},"properties":{"Name":"雇用促進住宅　緑ヶ丘宿舎（1号棟から2号棟まで〔2階から4階までの廊下と階段および踊り場〕）","Jusho":"秋田県秋田市飯島緑丘町11-１","洪水":"","がけ崩れ、土石流及び地滑り":"","高潮":"","地震":"","津波":"◎","大規模な火事":"","内水氾濫":"","火山現象":"","指定避難所との重複":"","備考":""}},
{"type":"Feature","geometry":{"type":"Point","coordinates":[140.0647262442,39.7540599841]},"properties":{"Name":"雇用促進住宅　土崎宿舎（1号棟から３号棟まで〔3階から5階までの階段と踊り場〕）","Jusho":"秋田県秋田市土崎港西2-12-48","洪水":"","がけ崩れ、土石流及び地滑り":"","高潮":"","地震":"","津波":"◎","大規模な火事":"","内水氾濫":"","火山現象":"","指定避難所との重複":"","備考":""}},
{"type":"Feature","geometry":{"type":"Point","coordinates":[140.0680344558,39.7545080606]},"properties":{"Name":"社会福祉法人はまなす会ケアハウス土崎（3階から8階までのホール、屋外階段と踊り場）","Jusho":"秋田県秋田市土崎港中央3-4-40","洪水":"","がけ崩れ、土石流及び地滑り":"","高潮":"","地震":"","津波":"◎","大規模な火事":"","内水氾濫":"","火山現象":"","指定避難所との重複":"","備考":""}},
{"type":"Feature","geometry":{"type":"Point","coordinates":[140.0685121202,39.7535783225]},"properties":{"Name":"医療法人正和会五十嵐記念病院在宅総合ケアセンター（病院屋上、ケアセンター屋上）","Jusho":"秋田県秋田市土崎港中央1-17-23","洪水":"","がけ崩れ、土石流及び地滑り":"","高潮":"","地震":"","津波":"◎","大規模な火事":"","内水氾濫":"","火山現象":"","指定避難所との重複":"","備考":""}},
{"type":"Feature","geometry":{"type":"Point","coordinates":[140.0725530000,39.7597410800]},"properties":{"Name":"土崎聖書キリスト教会グローリアチャペル（3階ホールと和室）","Jusho":"秋田県秋田市土崎港中央6-16-34","洪水":"","がけ崩れ、土石流及び地滑り":"","高潮":"","地震":"","津波":"◎","大規模な火事":"","内水氾濫":"","火山現象":"","指定避難所との重複":"","備考":""}},
{"type":"Feature","geometry":{"type":"Point","coordinates":[140.0727090000,39.7585092500]},"properties":{"Name":"土崎マンション（3階から4階までの通路）","Jusho":"秋田県秋田市土崎港中央6-16-17","洪水":"","がけ崩れ、土石流及び地滑り":"","高潮":"","地震":"","津波":"◎","大規模な火事":"","内水氾濫":"","火山現象":"","指定避難所との重複":"","備考":""}},
{"type":"Feature","geometry":{"type":"Point","coordinates":[140.0720451000,39.7532247368]},"properties":{"Name":"医療法人運忠会土崎病院介護老人保健施設なぎさ（病院外来棟屋上、6階ベランダ）","Jusho":"秋田県秋田市土崎港中央4-4-26","洪水":"","がけ崩れ、土石流及び地滑り":"","高潮":"","地震":"","津波":"◎","大規模な火事":"","内水氾濫":"","火山現象":"","指定避難所との重複":"","備考":""}},
{"type":"Feature","geometry":{"type":"Point","coordinates":[140.0884254000,39.7191173000]},"properties":{"Name":"秋田県ＪＡビル（3階から10階までの廊下、3階から9階までのエレベータホールおよび屋上）","Jusho":"秋田県秋田市八橋南2-10-16","洪水":"","がけ崩れ、土石流及び地滑り":"","高潮":"","地震":"","津波":"◎","大規模な火事":"","内水氾濫":"","火山現象":"","指定避難所との重複":"","備考":""}},
{"type":"Feature","geometry":{"type":"Point","coordinates":[140.0864258000,39.7141649800]},"properties":{"Name":"秋田県赤十字血液センター（3階会議室）","Jusho":"秋田県秋田市川尻町字大川反233-186","洪水":"","がけ崩れ、土石流及び地滑り":"","高潮":"","地震":"","津波":"◎","大規模な火事":"","内水氾濫":"","火山現象":"","指定避難所との重複":"","備考":""}},
{"type":"Feature","geometry":{"type":"Point","coordinates":[140.0840966000,39.7115668100]},"properties":{"Name":"株式会社ユアテック秋田支社（3階から5階までの通路と室内階段および踊り場）","Jusho":"秋田県秋田市川尻町字大川反233-9","洪水":"","がけ崩れ、土石流及び地滑り":"","高潮":"","地震":"","津波":"◎","大規模な火事":"","内水氾濫":"","火山現象":"","指定避難所との重複":"","備考":""}},
{"type":"Feature","geometry":{"type":"Point","coordinates":[140.1074531798,39.6991249326]},"properties":{"Name":"株式会社さわやか倶楽部介護付有料老人ホームさわやか桜弐番館（3階から4階までの通路と食堂）","Jusho":"秋田県秋田市卸町1-10-3","洪水":"","がけ崩れ、土石流及び地滑り":"","高潮":"","地震":"","津波":"◎","大規模な火事":"","内水氾濫":"","火山現象":"","指定避難所との重複":"","備考":""}},
{"type":"Feature","geometry":{"type":"Point","coordinates":[140.1081674835,39.7016442380]},"properties":{"Name":"天然温泉グランスパホテルこまち立体駐車場（3階、屋上）","Jusho":"秋田県秋田市卸町1-2-3","洪水":"","がけ崩れ、土石流及び地滑り":"","高潮":"","地震":"","津波":"◎","大規模な火事":"","内水氾濫":"","火山現象":"","指定避難所との重複":"","備考":""}},
{"type":"Feature","geometry":{"type":"Point","coordinates":[140.0904295000,39.7131571500]},"properties":{"Name":"ドジャース食品館屋上駐車場（屋上駐車場）","Jusho":"秋田県秋田市川尻大川町8-25","洪水":"","がけ崩れ、土石流及び地滑り":"","高潮":"","地震":"","津波":"◎","大規模な火事":"","内水氾濫":"","火山現象":"","指定避難所との重複":"","備考":""}},
{"type":"Feature","geometry":{"type":"Point","coordinates":[140.0903641000,39.7143468100]},"properties":{"Name":"フォレストヒルズ山王（3階から4階までの共通通路）","Jusho":"秋田県秋田市山王沼田町10-33","洪水":"","がけ崩れ、土石流及び地滑り":"","高潮":"","地震":"","津波":"◎","大規模な火事":"","内水氾濫":"","火山現象":"","指定避難所との重複":"","備考":""}},
{"type":"Feature","geometry":{"type":"Point","coordinates":[140.0594417423,39.7688982152]},"properties":{"Name":"株式会社　ジーンズエムシーディ物流棟・工場棟（屋上）","Jusho":"秋田県秋田市土崎港相染町字浜ナシ山17-3","洪水":"","がけ崩れ、土石流及び地滑り":"","高潮":"","地震":"","津波":"◎","大規模な火事":"","内水氾濫":"","火山現象":"","指定避難所との重複":"","備考":""}},
{"type":"Feature","geometry":{"type":"Point","coordinates":[140.0925080558,39.7178358106]},"properties":{"Name":"秋田県児童会館（2階から3階までのホールと各室）","Jusho":"秋田県秋田市山王中島町1-2","洪水":"","がけ崩れ、土石流及び地滑り":"","高潮":"","地震":"","津波":"◎","大規模な火事":"","内水氾濫":"","火山現象":"","指定避難所との重複":"","備考":""}},
{"type":"Feature","geometry":{"type":"Point","coordinates":[140.0738323067,39.7694314729]},"properties":{"Name":"秋田県職員港北新町公舎（2階から3階までの階段と踊り場）","Jusho":"秋田県秋田市港北新町10-１","洪水":"","がけ崩れ、土石流及び地滑り":"","高潮":"","地震":"","津波":"◎","大規模な火事":"","内水氾濫":"","火山現象":"","指定避難所との重複":"","備考":""}},
{"type":"Feature","geometry":{"type":"Point","coordinates":[140.1002610405,39.7166464872]},"properties":{"Name":"山王プレスビル（2階、3階、屋上の屋外施設および踊り場等）","Jusho":"秋田県秋田市山王六丁目１-13","洪水":"","がけ崩れ、土石流及び地滑り":"","高潮":"","地震":"","津波":"◎","大規模な火事":"","内水氾濫":"","火山現象":"","指定避難所との重複":"","備考":""}},
{"type":"Feature","geometry":{"type":"Point","coordinates":[140.0655265970,39.7633921987]},"properties":{"Name":"秋田県営土崎港住宅（3階から4階までの階段と踊り場）","Jusho":"秋田県秋田市土崎港相染町字中谷地47-２ほか","洪水":"","がけ崩れ、土石流及び地滑り":"","高潮":"","地震":"","津波":"◎","大規模な火事":"","内水氾濫":"","火山現象":"","指定避難所との重複":"","備考":""}},
{"type":"Feature","geometry":{"type":"Point","coordinates":[140.0637597000,39.7538008100]},"properties":{"Name":"ホテルルートイン秋田土崎（4階から8階までの通路）","Jusho":"秋田県秋田市土崎港西2-12-30","洪水":"","がけ崩れ、土石流及び地滑り":"","高潮":"","地震":"","津波":"◎","大規模な火事":"","内水氾濫":"","火山現象":"","指定避難所との重複":"","備考":""}},
{"type":"Feature","geometry":{"type":"Point","coordinates":[140.0593804810,39.7901148279]},"properties":{"Name":"医療法人久盛会秋田緑ヶ丘病院　第二、第三駐車場","Jusho":"秋田県秋田市飯島字堀川地内","洪水":"","がけ崩れ、土石流及び地滑り":"","高潮":"","地震":"","津波":"◎","大規模な火事":"","内水氾濫":"","火山現象":"","指定避難所との重複":"","備考":""}},
{"type":"Feature","geometry":{"type":"Point","coordinates":[140.0636309828,39.7749836026]},"properties":{"Name":"宗教法人雲祥院霊園および山林","Jusho":"秋田県秋田市飯島穀丁地内","洪水":"","がけ崩れ、土石流及び地滑り":"","高潮":"","地震":"","津波":"◎","大規模な火事":"","内水氾濫":"","火山現象":"","指定避難所との重複":"","備考":""}},
{"type":"Feature","geometry":{"type":"Point","coordinates":[140.0726076460,39.7479460781]},"properties":{"Name":"イオンリテール株式会社イオン土崎港店敷地","Jusho":"秋田県秋田市土崎港南2地内","洪水":"","がけ崩れ、土石流及び地滑り":"","高潮":"","地震":"","津波":"◎","大規模な火事":"","内水氾濫":"","火山現象":"","指定避難所との重複":"","備考":""}},
{"type":"Feature","geometry":{"type":"Point","coordinates":[140.0805164000,39.7307931300]},"properties":{"Name":"秋田県青少年交流センター駐車場","Jusho":"秋田県秋田市寺内神屋敷地内","洪水":"","がけ崩れ、土石流及び地滑り":"","高潮":"","地震":"","津波":"◎","大規模な火事":"","内水氾濫":"","火山現象":"","指定避難所との重複":"","備考":""}},
{"type":"Feature","geometry":{"type":"Point","coordinates":[140.0791126933,39.7186666035]},"properties":{"Name":"秋田カントリークラブコース内、クラブ前駐車場","Jusho":"秋田県秋田市新屋字砂奴寄地内","洪水":"","がけ崩れ、土石流及び地滑り":"","高潮":"","地震":"","津波":"◎","大規模な火事":"","内水氾濫":"","火山現象":"","指定避難所との重複":"","備考":""}},
{"type":"Feature","geometry":{"type":"Point","coordinates":[140.0743187000,39.7176816800]},"properties":{"Name":"向浜運動広場内旧運転練習場","Jusho":"秋田県秋田市新屋字砂奴寄地内ほか","洪水":"","がけ崩れ、土石流及び地滑り":"","高潮":"","地震":"","津波":"◎","大規模な火事":"","内水氾濫":"","火山現象":"","指定避難所との重複":"","備考":""}},
{"type":"Feature","geometry":{"type":"Point","coordinates":[140.0741191159,39.7091454132]},"properties":{"Name":"国土交通省秋田防災ステーション敷地","Jusho":"秋田県秋田市新屋町字天秤野地内","洪水":"","がけ崩れ、土石流及び地滑り":"","高潮":"","地震":"","津波":"◎","大規模な火事":"","内水氾濫":"","火山現象":"","指定避難所との重複":"","備考":""}},
{"type":"Feature","geometry":{"type":"Point","coordinates":[140.0896400503,39.6997920849]},"properties":{"Name":"割山自動車教習所コース部敷地","Jusho":"秋田県秋田市新屋割山町地内","洪水":"","がけ崩れ、土石流及び地滑り":"","高潮":"","地震":"","津波":"◎","大規模な火事":"","内水氾濫":"","火山現象":"","指定避難所との重複":"","備考":""}},
{"type":"Feature","geometry":{"type":"Point","coordinates":[140.0786403019,39.6895111502]},"properties":{"Name":"秋田県立栗田養護学校グラウンド","Jusho":"秋田県秋田市新屋栗田町地内","洪水":"","がけ崩れ、土石流及び地滑り":"","高潮":"","地震":"","津波":"◎","大規模な火事":"","内水氾濫":"","火山現象":"","指定避難所との重複":"","備考":""}},
{"type":"Feature","geometry":{"type":"Point","coordinates":[140.0702765000,39.6646241500]},"properties":{"Name":"もしもしピット秋田市はまなす広場","Jusho":"秋田県秋田市浜田字滝ノ元地内","洪水":"","がけ崩れ、土石流及び地滑り":"","高潮":"","地震":"","津波":"◎","大規模な火事":"","内水氾濫":"","火山現象":"","指定避難所との重複":"","備考":""}},
{"type":"Feature","geometry":{"type":"Point","coordinates":[140.0700233000,39.6534872200]},"properties":{"Name":"医療法人緑陽会笠松病院敷地","Jusho":"秋田県秋田市浜田字藍ノ原地内","洪水":"","がけ崩れ、土石流及び地滑り":"","高潮":"","地震":"","津波":"◎","大規模な火事":"","内水氾濫":"","火山現象":"","指定避難所との重複":"","備考":""}},
{"type":"Feature","geometry":{"type":"Point","coordinates":[140.0679431270,39.6301497296]},"properties":{"Name":"長浜地区運動公園","Jusho":"秋田県秋田市下浜長浜字藤木台・兜森地内","洪水":"","がけ崩れ、土石流及び地滑り":"","高潮":"","地震":"","津波":"◎","大規模な火事":"","内水氾濫":"","火山現象":"","指定避難所との重複":"","備考":""}},
{"type":"Feature","geometry":{"type":"Point","coordinates":[140.0648925000,39.6180782200]},"properties":{"Name":"下浜旧ゲートボール場","Jusho":"秋田県秋田市下浜羽川字横長根地内","洪水":"","がけ崩れ、土石流及び地滑り":"","高潮":"","地震":"","津波":"◎","大規模な火事":"","内水氾濫":"","火山現象":"","指定避難所との重複":"","備考":""}},
{"type":"Feature","geometry":{"type":"Point","coordinates":[140.0701895926,39.6036510457]},"properties":{"Name":"羽川岩城地区周辺山林","Jusho":"秋田県秋田市下浜羽川字岩城地内","洪水":"","がけ崩れ、土石流及び地滑り":"","高潮":"","地震":"","津波":"◎","大規模な火事":"","内水氾濫":"","火山現象":"","指定避難所との重複":"","備考":""}},
{"type":"Feature","geometry":{"type":"Point","coordinates":[140.0960894000,39.6683602800]},"properties":{"Name":"秋田県立新屋高等学校野球場・陸上競技場","Jusho":"秋田県秋田市豊岩石田坂字鎌塚地内","洪水":"◎","がけ崩れ、土石流及び地滑り":"◎","高潮":"","地震":"◎","津波":"◎","大規模な火事":"","内水氾濫":"","火山現象":"","指定避難所との重複":"","備考":""}},
{"type":"Feature","geometry":{"type":"Point","coordinates":[140.0725450804,39.6421060638]},"properties":{"Name":"桂根グラウンドゴルフ場","Jusho":"秋田県秋田市下浜桂根字大台地内","洪水":"","がけ崩れ、土石流及び地滑り":"","高潮":"","地震":"","津波":"◎","大規模な火事":"","内水氾濫":"","火山現象":"","指定避難所との重複":"","備考":""}},
{"type":"Feature","geometry":{"type":"Point","coordinates":[140.0782590638,39.6017433383]},"properties":{"Name":"珠林寺　墓地駐車場","Jusho":"秋田県秋田市下浜羽川字寺ノ下地内","洪水":"","がけ崩れ、土石流及び地滑り":"","高潮":"","地震":"","津波":"◎","大規模な火事":"","内水氾濫":"","火山現象":"","指定避難所との重複":"","備考":""}},
{"type":"Feature","geometry":{"type":"Point","coordinates":[140.0813678000,39.6066238300]},"properties":{"Name":"八幡神社境内","Jusho":"秋田県秋田市下浜羽川字家ノ腰地内","洪水":"","がけ崩れ、土石流及び地滑り":"","高潮":"","地震":"","津波":"◎","大規模な火事":"","内水氾濫":"","火山現象":"","指定避難所との重複":"","備考":""}},
{"type":"Feature","geometry":{"type":"Point","coordinates":[140.0789034907,39.7734165879]},"properties":{"Name":"秋田工業高等専門学校グラウンド","Jusho":"秋田県秋田市飯島文京町地内","洪水":"◎","がけ崩れ、土石流及び地滑り":"◎","高潮":"","地震":"◎","津波":"◎","大規模な火事":"","内水氾濫":"","火山現象":"","指定避難所との重複":"","備考":""}},
{"type":"Feature","geometry":{"type":"Point","coordinates":[140.0724614626,39.6112539944]},"properties":{"Name":"コスモ工機株式会社　秋田工場敷地","Jusho":"秋田県秋田市下浜羽川字五郎池地内","洪水":"","がけ崩れ、土石流及び地滑り":"","高潮":"","地震":"","津波":"◎","大規模な火事":"","内水氾濫":"","火山現象":"","指定避難所との重複":"","備考":""}},
{"type":"Feature","geometry":{"type":"Point","coordinates":[140.0664174000,39.7562977700]},"properties":{"Name":"チャレンジオフィスあきた（3階〔大小多目的室、通路〕、屋上）","Jusho":"秋田県秋田市土崎港西3-9-15","洪水":"","がけ崩れ、土石流及び地滑り":"","高潮":"","地震":"","津波":"◎","大規模な火事":"","内水氾濫":"","火山現象":"","指定避難所との重複":"","備考":""}},
{"type":"Feature","geometry":{"type":"Point","coordinates":[140.0832332309,39.7283522955]},"properties":{"Name":"秋田市環境部庁舎（2階屋上部分、3階ホール）","Jusho":"秋田県秋田市寺内蛭根3-24-3","洪水":"","がけ崩れ、土石流及び地滑り":"","高潮":"","地震":"","津波":"◎","大規模な火事":"","内水氾濫":"","火山現象":"","指定避難所との重複":"","備考":""}},
{"type":"Feature","geometry":{"type":"Point","coordinates":[140.1012003712,39.7092799941]},"properties":{"Name":"秋田市営川尻住宅（1号棟から7号棟まで〔2階から5階までの階段および踊り場〕）","Jusho":"秋田県秋田市川尻上野町１","洪水":"","がけ崩れ、土石流及び地滑り":"","高潮":"","地震":"","津波":"◎","大規模な火事":"","内水氾濫":"","火山現象":"","指定避難所との重複":"","備考":""}},
{"type":"Feature","geometry":{"type":"Point","coordinates":[140.1032201356,39.6871278808]},"properties":{"Name":"牛島清水町市営住宅（1号棟から3号棟まで〔3階から4階までの廊下と階段および踊り場〕）","Jusho":"秋田県秋田市牛島西4-29","洪水":"","がけ崩れ、土石流及び地滑り":"","高潮":"","地震":"","津波":"◎","大規模な火事":"","内水氾濫":"","火山現象":"","指定避難所との重複":"","備考":""}},
{"type":"Feature","geometry":{"type":"Point","coordinates":[140.0740467909,39.6672540295]},"properties":{"Name":"大森山公園","Jusho":"秋田県秋田市浜田地内","洪水":"","がけ崩れ、土石流及び地滑り":"","高潮":"","地震":"","津波":"◎","大規模な火事":"","内水氾濫":"","火山現象":"","指定避難所との重複":"","備考":""}},
{"type":"Feature","geometry":{"type":"Point","coordinates":[140.0822248245,39.7399950615]},"properties":{"Name":"高清水公園","Jusho":"秋田県秋田市寺内大畑地内","洪水":"","がけ崩れ、土石流及び地滑り":"","高潮":"","地震":"","津波":"◎","大規模な火事":"","内水氾濫":"","火山現象":"","指定避難所との重複":"","備考":""}},
{"type":"Feature","geometry":{"type":"Point","coordinates":[140.0551342877,39.7883730738]},"properties":{"Name":"飯島老人いこいの家敷地","Jusho":"秋田県秋田市飯島字堀川地内","洪水":"","がけ崩れ、土石流及び地滑り":"","高潮":"","地震":"","津波":"◎","大規模な火事":"","内水氾濫":"","火山現象":"","指定避難所との重複":"","備考":""}},
{"type":"Feature","geometry":{"type":"Point","coordinates":[140.0761084663,39.7629860222]},"properties":{"Name":"港北小学校（校舎3階教室と廊下）","Jusho":"秋田県秋田市土崎港北4-6-1","洪水":"","がけ崩れ、土石流及び地滑り":"","高潮":"","地震":"","津波":"◎","大規模な火事":"","内水氾濫":"","火山現象":"","指定避難所との重複":"","備考":""}},
{"type":"Feature","geometry":{"type":"Point","coordinates":[140.0761665251,39.7592372291]},"properties":{"Name":"土崎中学校（校舎2階から3階までの教室と廊下）","Jusho":"秋田県秋田市土崎港北1-3-1","洪水":"","がけ崩れ、土石流及び地滑り":"","高潮":"","地震":"","津波":"◎","大規模な火事":"","内水氾濫":"","火山現象":"","指定避難所との重複":"","備考":""}},
{"type":"Feature","geometry":{"type":"Point","coordinates":[140.0717771191,39.7551124744]},"properties":{"Name":"土崎小学校（校舎3階教室と廊下および屋上）","Jusho":"秋田県秋田市土崎港中央3-1-78","洪水":"","がけ崩れ、土石流及び地滑り":"","高潮":"","地震":"","津波":"◎","大規模な火事":"","内水氾濫":"","火山現象":"","指定避難所との重複":"","備考":""}},
{"type":"Feature","geometry":{"type":"Point","coordinates":[140.0958036944,39.7116813800]},"properties":{"Name":"川尻小学校（校舎3階教室と廊下）","Jusho":"秋田県秋田市川尻みよし町8-31","洪水":"","がけ崩れ、土石流及び地滑り":"","高潮":"","地震":"","津波":"◎","大規模な火事":"","内水氾濫":"","火山現象":"","指定避難所との重複":"","備考":""}},
{"type":"Feature","geometry":{"type":"Point","coordinates":[140.1136674749,39.6886004878]},"properties":{"Name":"大住小学校（校舎3階教室と廊下）","Jusho":"秋田県秋田市仁井田字西潟敷33","洪水":"","がけ崩れ、土石流及び地滑り":"","高潮":"","地震":"","津波":"◎","大規模な火事":"","内水氾濫":"","火山現象":"","指定避難所との重複":"","備考":""}},
{"type":"Feature","geometry":{"type":"Point","coordinates":[140.0890128479,39.6850916938]},"properties":{"Name":"秋田西中学校（校舎3階教室と廊下、塔屋1階部分）","Jusho":"秋田県秋田市新屋大川町19-75","洪水":"","がけ崩れ、土石流及び地滑り":"","高潮":"","地震":"","津波":"◎","大規模な火事":"","内水氾濫":"","火山現象":"","指定避難所との重複":"","備考":""}},
{"type":"Feature","geometry":{"type":"Point","coordinates":[140.0965400847,39.7322156875]},"properties":{"Name":"八橋小学校（校舎2階〔普通教室、学習室、多目的ホールおよび廊下〕、3階〔普通教室、多目的ホールおよび廊下〕）","Jusho":"秋田県秋田市八橋大沼町7-１","洪水":"","がけ崩れ、土石流及び地滑り":"","高潮":"","地震":"","津波":"◎","大規模な火事":"","内水氾濫":"","火山現象":"","指定避難所との重複":"","備考":""}},
{"type":"Feature","geometry":{"type":"Point","coordinates":[140.0731105466,39.7786768702]},"properties":{"Name":"飯島小学校校庭・グラウンド","Jusho":"秋田県秋田市飯島鼠田2-2-1","洪水":"","がけ崩れ、土石流及び地滑り":"","高潮":"","地震":"","津波":"◎","大規模な火事":"","内水氾濫":"","火山現象":"","指定避難所との重複":"","備考":""}},
{"type":"Feature","geometry":{"type":"Point","coordinates":[140.0767071000,39.7503313400]},"properties":{"Name":"土崎南小学校グラウンド","Jusho":"秋田県秋田市土崎港東1-6-39","洪水":"◎","がけ崩れ、土石流及び地滑り":"◎","高潮":"","地震":"◎","津波":"◎","大規模な火事":"","内水氾濫":"","火山現象":"","指定避難所との重複":"","備考":""}},
{"type":"Feature","geometry":{"type":"Point","coordinates":[140.0807189000,39.7445170400]},"properties":{"Name":"将軍野中学校グラウンド","Jusho":"秋田県秋田市将軍野南1-12-1","洪水":"◎","がけ崩れ、土石流及び地滑り":"◎","高潮":"","地震":"◎","津波":"◎","大規模な火事":"","内水氾濫":"","火山現象":"","指定避難所との重複":"","備考":""}},
{"type":"Feature","geometry":{"type":"Point","coordinates":[140.0838331000,39.7439718100]},"properties":{"Name":"高清水小学校グラウンド","Jusho":"秋田県秋田市将軍野南1-2-16","洪水":"◎","がけ崩れ、土石流及び地滑り":"◎","高潮":"","地震":"◎","津波":"◎","大規模な火事":"","内水氾濫":"","火山現象":"","指定避難所との重複":"","備考":""}},
{"type":"Feature","geometry":{"type":"Point","coordinates":[140.0858208000,39.7344935000]},"properties":{"Name":"寺内小学校グラウンド","Jusho":"秋田県秋田市寺内堂ノ沢2-14-1","洪水":"◎","がけ崩れ、土石流及び地滑り":"◎","高潮":"","地震":"◎","津波":"◎","大規模な火事":"","内水氾濫":"","火山現象":"","指定避難所との重複":"","備考":""}},
{"type":"Feature","geometry":{"type":"Point","coordinates":[140.0772919730,39.7084611051]},"properties":{"Name":"秋田商業高等学校グラウンド（サッカー場、 硬式野球場、陸上競技場）","Jusho":"秋田県秋田市新屋勝平台1-1","洪水":"◎","がけ崩れ、土石流及び地滑り":"◎","高潮":"","地震":"◎","津波":"◎","大規模な火事":"","内水氾濫":"","火山現象":"","指定避難所との重複":"","備考":""}},
{"type":"Feature","geometry":{"type":"Point","coordinates":[140.0791588000,39.7074848300]},"properties":{"Name":"勝平小学校グラウンド","Jusho":"秋田県秋田市新屋松美ガ丘北町14-1","洪水":"◎","がけ崩れ、土石流及び地滑り":"◎","高潮":"","地震":"◎","津波":"◎","大規模な火事":"","内水氾濫":"","火山現象":"","指定避難所との重複":"","備考":""}},
{"type":"Feature","geometry":{"type":"Point","coordinates":[140.0738924000,39.7029755300]},"properties":{"Name":"勝平中学校グラウンド","Jusho":"秋田県秋田市新屋北浜町13-1","洪水":"◎","がけ崩れ、土石流及び地滑り":"◎","高潮":"","地震":"◎","津波":"◎","大規模な火事":"","内水氾濫":"","火山現象":"","指定避難所との重複":"","備考":""}},
{"type":"Feature","geometry":{"type":"Point","coordinates":[140.0813841000,39.6854132600]},"properties":{"Name":"日新小学校グラウンド","Jusho":"秋田県秋田市新屋栗田町24-1","洪水":"◎","がけ崩れ、土石流及び地滑り":"◎","高潮":"","地震":"◎","津波":"◎","大規模な火事":"","内水氾濫":"","火山現象":"","指定避難所との重複":"","備考":""}},
{"type":"Feature","geometry":{"type":"Point","coordinates":[140.0671767000,39.6664380000]},"properties":{"Name":"浜田小学校グラウンド","Jusho":"秋田県秋田市浜田字自在山47-2","洪水":"◎","がけ崩れ、土石流及び地滑り":"","高潮":"","地震":"◎","津波":"◎","大規模な火事":"","内水氾濫":"","火山現象":"","指定避難所との重複":"","備考":""}},
{"type":"Feature","geometry":{"type":"Point","coordinates":[140.0654994000,39.6130208500]},"properties":{"Name":"下浜小・中学校グラウンド","Jusho":"秋田県秋田市下浜羽川字水垂92","洪水":"◎","がけ崩れ、土石流及び地滑り":"◎","高潮":"","地震":"◎","津波":"◎","大規模な火事":"","内水氾濫":"","火山現象":"","指定避難所との重複":"","備考":""}},
{"type":"Feature","geometry":{"type":"Point","coordinates":[140.1155628000,39.7246903200]},"properties":{"Name":"保戸野小学校（体育館）","Jusho":"秋田県秋田市保戸野すわ町9-60","洪水":"◎","がけ崩れ、土石流及び地滑り":"◎","高潮":"","地震":"◎","津波":"","大規模な火事":"","内水氾濫":"","火山現象":"","指定避難所との重複":"◎","備考":""}},
{"type":"Feature","geometry":{"type":"Point","coordinates":[140.1231670000,39.7247368700]},"properties":{"Name":"明徳小学校（体育館）","Jusho":"秋田県秋田市千秋公園1-13","洪水":"◎","がけ崩れ、土石流及び地滑り":"","高潮":"","地震":"◎","津波":"","大規模な火事":"","内水氾濫":"","火山現象":"","指定避難所との重複":"◎","備考":""}},
{"type":"Feature","geometry":{"type":"Point","coordinates":[140.1223521000,39.7055651300]},"properties":{"Name":"築山小学校（体育館）","Jusho":"秋田県秋田市楢山古川新町55-1","洪水":"","がけ崩れ、土石流及び地滑り":"◎","高潮":"","地震":"◎","津波":"","大規模な火事":"","内水氾濫":"","火山現象":"","指定避難所との重複":"◎","備考":""}},
{"type":"Feature","geometry":{"type":"Point","coordinates":[140.1062180000,39.7164068700]},"properties":{"Name":"旭北小学校（体育館）","Jusho":"秋田県秋田市山王3-1-35","洪水":"","がけ崩れ、土石流及び地滑り":"◎","高潮":"","地震":"◎","津波":"","大規模な火事":"","内水氾濫":"","火山現象":"","指定避難所との重複":"◎","備考":""}},
{"type":"Feature","geometry":{"type":"Point","coordinates":[140.1214301270,39.7140314685]},"properties":{"Name":"中通小学校（体育館）","Jusho":"秋田県秋田市中通5-8-22","洪水":"","がけ崩れ、土石流及び地滑り":"◎","高潮":"","地震":"◎","津波":"","大規模な火事":"","内水氾濫":"","火山現象":"","指定避難所との重複":"◎","備考":""}},
{"type":"Feature","geometry":{"type":"Point","coordinates":[140.1098256000,39.7097033400]},"properties":{"Name":"旭南小学校（体育館）","Jusho":"秋田県秋田市旭南1-15-1","洪水":"","がけ崩れ、土石流及び地滑り":"◎","高潮":"","地震":"◎","津波":"","大規模な火事":"","内水氾濫":"","火山現象":"","指定避難所との重複":"◎","備考":""}},
{"type":"Feature","geometry":{"type":"Point","coordinates":[140.1267216172,39.6951241093]},"properties":{"Name":"牛島小学校（体育館）","Jusho":"秋田県秋田市牛島東6-6-1","洪水":"","がけ崩れ、土石流及び地滑り":"◎","高潮":"","地震":"◎","津波":"","大規模な火事":"","内水氾濫":"","火山現象":"","指定避難所との重複":"◎","備考":""}},
{"type":"Feature","geometry":{"type":"Point","coordinates":[140.0964673000,39.7115914200]},"properties":{"Name":"川尻小学校（体育館）","Jusho":"秋田県秋田市川尻みよし町8-31","洪水":"◎","がけ崩れ、土石流及び地滑り":"◎","高潮":"","地震":"◎","津波":"","大規模な火事":"","内水氾濫":"","火山現象":"","指定避難所との重複":"◎","備考":""}},
{"type":"Feature","geometry":{"type":"Point","coordinates":[140.1317303000,39.7389338400]},"properties":{"Name":"旭川小学校（体育館）","Jusho":"秋田県秋田市手形字才ノ浜63","洪水":"◎","がけ崩れ、土石流及び地滑り":"","高潮":"","地震":"◎","津波":"","大規模な火事":"","内水氾濫":"","火山現象":"","指定避難所との重複":"◎","備考":""}},
{"type":"Feature","geometry":{"type":"Point","coordinates":[140.0713120000,39.7548679500]},"properties":{"Name":"土崎小学校（体育館）","Jusho":"秋田県秋田市土崎港中央3-1-78","洪水":"◎","がけ崩れ、土石流及び地滑り":"◎","高潮":"","地震":"◎","津波":"","大規模な火事":"","内水氾濫":"","火山現象":"","指定避難所との重複":"◎","備考":""}},
{"type":"Feature","geometry":{"type":"Point","coordinates":[140.0763910577,39.7637555842]},"properties":{"Name":"港北小学校（体育館）","Jusho":"秋田県秋田市土崎港北4-6-1","洪水":"◎","がけ崩れ、土石流及び地滑り":"◎","高潮":"","地震":"◎","津波":"","大規模な火事":"","内水氾濫":"","火山現象":"","指定避難所との重複":"◎","備考":""}},
{"type":"Feature","geometry":{"type":"Point","coordinates":[140.0768278000,39.7497827900]},"properties":{"Name":"土崎南小学校（体育館）","Jusho":"秋田県秋田市土崎港東1-6-39","洪水":"◎","がけ崩れ、土石流及び地滑り":"◎","高潮":"","地震":"◎","津波":"","大規模な火事":"","内水氾濫":"","火山現象":"","指定避難所との重複":"◎","備考":""}},
{"type":"Feature","geometry":{"type":"Point","coordinates":[140.0834120000,39.7435964600]},"properties":{"Name":"高清水小学校（体育館）","Jusho":"秋田県秋田市将軍野南1-2-16","洪水":"◎","がけ崩れ、土石流及び地滑り":"◎","高潮":"","地震":"◎","津波":"","大規模な火事":"","内水氾濫":"","火山現象":"","指定避難所との重複":"◎","備考":""}},
{"type":"Feature","geometry":{"type":"Point","coordinates":[140.1440456221,39.7291318990]},"properties":{"Name":"広面小学校（体育館）","Jusho":"秋田県秋田市広面字蟹沢29","洪水":"◎","がけ崩れ、土石流及び地滑り":"◎","高潮":"","地震":"◎","津波":"","大規模な火事":"","内水氾濫":"","火山現象":"","指定避難所との重複":"◎","備考":""}},
{"type":"Feature","geometry":{"type":"Point","coordinates":[140.0809388000,39.6855949000]},"properties":{"Name":"日新小学校（体育館）","Jusho":"秋田県秋田市新屋栗田町24-1","洪水":"◎","がけ崩れ、土石流及び地滑り":"◎","高潮":"","地震":"◎","津波":"","大規模な火事":"","内水氾濫":"","火山現象":"","指定避難所との重複":"◎","備考":""}},
{"type":"Feature","geometry":{"type":"Point","coordinates":[140.0792044221,39.7068977694]},"properties":{"Name":"勝平小学校（体育館）","Jusho":"秋田県秋田市新屋松美ガ丘北町14-1","洪水":"◎","がけ崩れ、土石流及び地滑り":"◎","高潮":"","地震":"◎","津波":"","大規模な火事":"","内水氾濫":"","火山現象":"","指定避難所との重複":"◎","備考":""}},
{"type":"Feature","geometry":{"type":"Point","coordinates":[140.1964409000,39.7313023400]},"properties":{"Name":"太平小学校（体育館）","Jusho":"秋田県秋田市太平目長崎字上目長崎144","洪水":"","がけ崩れ、土石流及び地滑り":"◎","高潮":"","地震":"◎","津波":"","大規模な火事":"","内水氾濫":"","火山現象":"","指定避難所との重複":"◎","備考":""}},
{"type":"Feature","geometry":{"type":"Point","coordinates":[140.1090189049,39.7470969983]},"properties":{"Name":"外旭川小学校（体育館）","Jusho":"秋田県秋田市外旭川字梶ノ目262-2","洪水":"◎","がけ崩れ、土石流及び地滑り":"◎","高潮":"","地震":"◎","津波":"","大規模な火事":"","内水氾濫":"","火山現象":"","指定避難所との重複":"◎","備考":""}},
{"type":"Feature","geometry":{"type":"Point","coordinates":[140.0724883000,39.7789654500]},"properties":{"Name":"飯島小学校（体育館）","Jusho":"秋田県秋田市飯島鼠田2-2-1","洪水":"◎","がけ崩れ、土石流及び地滑り":"◎","高潮":"","地震":"◎","津波":"","大規模な火事":"","内水氾濫":"","火山現象":"","指定避難所との重複":"◎","備考":""}},
{"type":"Feature","geometry":{"type":"Point","coordinates":[140.0766271000,39.8002319500]},"properties":{"Name":"下新城小学校（体育館）","Jusho":"秋田県秋田市下新城笠岡字佐戸反10","洪水":"","がけ崩れ、土石流及び地滑り":"◎","高潮":"","地震":"◎","津波":"","大規模な火事":"","内水氾濫":"","火山現象":"","指定避難所との重複":"◎","備考":""}},
{"type":"Feature","geometry":{"type":"Point","coordinates":[140.1230774000,39.7954738000]},"properties":{"Name":"上新城小学校（体育館）","Jusho":"秋田県秋田市上新城五十丁字大村屋敷22","洪水":"","がけ崩れ、土石流及び地滑り":"◎","高潮":"","地震":"◎","津波":"","大規模な火事":"","内水氾濫":"","火山現象":"","指定避難所との重複":"◎","備考":""}},
{"type":"Feature","geometry":{"type":"Point","coordinates":[140.1269665000,39.6791524200]},"properties":{"Name":"仁井田小学校（体育館）","Jusho":"秋田県秋田市仁井田本町4-7-1","洪水":"","がけ崩れ、土石流及び地滑り":"◎","高潮":"","地震":"◎","津波":"","大規模な火事":"","内水氾濫":"","火山現象":"","指定避難所との重複":"◎","備考":""}},
{"type":"Feature","geometry":{"type":"Point","coordinates":[140.1382499131,39.6677721863]},"properties":{"Name":"四ツ小屋小学校（体育館）","Jusho":"秋田県秋田市四ツ小屋字街道東256-1","洪水":"","がけ崩れ、土石流及び地滑り":"◎","高潮":"","地震":"◎","津波":"","大規模な火事":"","内水氾濫":"","火山現象":"","指定避難所との重複":"◎","備考":""}},
{"type":"Feature","geometry":{"type":"Point","coordinates":[140.1647453000,39.6825179100]},"properties":{"Name":"上北手小学校（体育館）","Jusho":"秋田県秋田市上北手猿田字館ノ下38","洪水":"","がけ崩れ、土石流及び地滑り":"","高潮":"","地震":"◎","津波":"","大規模な火事":"","内水氾濫":"","火山現象":"","指定避難所との重複":"◎","備考":""}},
{"type":"Feature","geometry":{"type":"Point","coordinates":[140.1694810000,39.7207750400]},"properties":{"Name":"下北手小学校（体育館）","Jusho":"秋田県秋田市下北手松崎字谷崎202-1","洪水":"","がけ崩れ、土石流及び地滑り":"","高潮":"","地震":"◎","津波":"","大規模な火事":"","内水氾濫":"","火山現象":"","指定避難所との重複":"◎","備考":""}},
{"type":"Feature","geometry":{"type":"Point","coordinates":[140.0651722000,39.6134506300]},"properties":{"Name":"下浜小学校（体育館）","Jusho":"秋田県秋田市下浜羽川字水垂92","洪水":"◎","がけ崩れ、土石流及び地滑り":"◎","高潮":"","地震":"◎","津波":"","大規模な火事":"","内水氾濫":"","火山現象":"","指定避難所との重複":"◎","備考":""}},
{"type":"Feature","geometry":{"type":"Point","coordinates":[140.0536823000,39.8391215200]},"properties":{"Name":"金足西小学校（体育館）","Jusho":"秋田県秋田市金足大清水字大清水台1","洪水":"◎","がけ崩れ、土石流及び地滑り":"◎","高潮":"","地震":"◎","津波":"","大規模な火事":"","内水氾濫":"","火山現象":"","指定避難所との重複":"◎","備考":""}},
{"type":"Feature","geometry":{"type":"Point","coordinates":[140.0963509000,39.7319386200]},"properties":{"Name":"八橋小学校（体育館）","Jusho":"秋田県秋田市八橋大沼町7-1","洪水":"◎","がけ崩れ、土石流及び地滑り":"◎","高潮":"","地震":"◎","津波":"","大規模な火事":"","内水氾濫":"","火山現象":"","指定避難所との重複":"◎","備考":""}},
{"type":"Feature","geometry":{"type":"Point","coordinates":[140.1408263135,39.7150804972]},"properties":{"Name":"東小学校（体育館）","Jusho":"秋田県秋田市東通2-11-1","洪水":"","がけ崩れ、土石流及び地滑り":"◎","高潮":"","地震":"◎","津波":"","大規模な火事":"","内水氾濫":"","火山現象":"","指定避難所との重複":"◎","備考":""}},
{"type":"Feature","geometry":{"type":"Point","coordinates":[140.1092209730,39.7313281199]},"properties":{"Name":"泉小学校（体育館）","Jusho":"秋田県秋田市泉中央6-2-1","洪水":"◎","がけ崩れ、土石流及び地滑り":"◎","高潮":"","地震":"◎","津波":"","大規模な火事":"","内水氾濫":"","火山現象":"","指定避難所との重複":"◎","備考":""}},
{"type":"Feature","geometry":{"type":"Point","coordinates":[140.1131408712,39.6886141527]},"properties":{"Name":"大住小学校（体育館）","Jusho":"秋田県秋田市仁井田字西潟敷33","洪水":"","がけ崩れ、土石流及び地滑り":"◎","高潮":"","地震":"◎","津波":"","大規模な火事":"","内水氾濫":"","火山現象":"","指定避難所との重複":"◎","備考":""}},
{"type":"Feature","geometry":{"type":"Point","coordinates":[140.1548855000,39.7097113500]},"properties":{"Name":"桜小学校（体育館）","Jusho":"秋田県秋田市桜4-12-1","洪水":"◎","がけ崩れ、土石流及び地滑り":"◎","高潮":"","地震":"◎","津波":"","大規模な火事":"","内水氾濫":"","火山現象":"","指定避難所との重複":"◎","備考":""}},
{"type":"Feature","geometry":{"type":"Point","coordinates":[140.0911974933,39.7676747100]},"properties":{"Name":"飯島南小学校（体育館）","Jusho":"秋田県秋田市飯島西袋1-1-2","洪水":"◎","がけ崩れ、土石流及び地滑り":"◎","高潮":"","地震":"◎","津波":"","大規模な火事":"","内水氾濫":"","火山現象":"","指定避難所との重複":"◎","備考":""}},
{"type":"Feature","geometry":{"type":"Point","coordinates":[140.0850966086,39.7345347478]},"properties":{"Name":"寺内小学校（体育館）","Jusho":"秋田県秋田市寺内堂ノ沢2-14-1","洪水":"◎","がけ崩れ、土石流及び地滑り":"◎","高潮":"","地震":"◎","津波":"","大規模な火事":"","内水氾濫":"","火山現象":"","指定避難所との重複":"◎","備考":""}},
{"type":"Feature","geometry":{"type":"Point","coordinates":[140.1653394798,39.6609794017]},"properties":{"Name":"御所野小学校（体育館）","Jusho":"秋田県秋田市御所野元町5-1-1","洪水":"◎","がけ崩れ、土石流及び地滑り":"◎","高潮":"","地震":"◎","津波":"","大規模な火事":"","内水氾濫":"","火山現象":"","指定避難所との重複":"◎","備考":""}},
{"type":"Feature","geometry":{"type":"Point","coordinates":[140.1581751000,39.6210940900]},"properties":{"Name":"旧川添小学校（体育館）","Jusho":"秋田県秋田市雄和椿川字長者屋敷36-1","洪水":"◎","がけ崩れ、土石流及び地滑り":"◎","高潮":"","地震":"◎","津波":"","大規模な火事":"","内水氾濫":"","火山現象":"","指定避難所との重複":"◎","備考":""}},
{"type":"Feature","geometry":{"type":"Point","coordinates":[140.2114871577,39.5889583982]},"properties":{"Name":"旧種平小学校（体育館）","Jusho":"秋田県秋田市雄和種沢字戸草沢209","洪水":"","がけ崩れ、土石流及び地滑り":"◎","高潮":"","地震":"◎","津波":"","大規模な火事":"","内水氾濫":"","火山現象":"","指定避難所との重複":"◎","備考":""}},
{"type":"Feature","geometry":{"type":"Point","coordinates":[140.2352541221,39.5256913711]},"properties":{"Name":"旧大正寺小学校（体育館）","Jusho":"秋田県秋田市雄和新波字寺沢32-8","洪水":"◎","がけ崩れ、土石流及び地滑り":"","高潮":"","地震":"◎","津波":"","大規模な火事":"","内水氾濫":"","火山現象":"","指定避難所との重複":"◎","備考":""}},
{"type":"Feature","geometry":{"type":"Point","coordinates":[140.1968936019,39.6421963667]},"properties":{"Name":"戸島小学校（体育館）","Jusho":"秋田県秋田市河辺戸島字本町123","洪水":"◎","がけ崩れ、土石流及び地滑り":"◎","高潮":"","地震":"◎","津波":"","大規模な火事":"","内水氾濫":"","火山現象":"","指定避難所との重複":"◎","備考":""}},
{"type":"Feature","geometry":{"type":"Point","coordinates":[140.2327137865,39.6581327990]},"properties":{"Name":"河辺小学校（体育館）","Jusho":"秋田県秋田市河辺和田字岡村164-1","洪水":"◎","がけ崩れ、土石流及び地滑り":"","高潮":"","地震":"◎","津波":"","大規模な火事":"","内水氾濫":"","火山現象":"","指定避難所との重複":"◎","備考":""}},
{"type":"Feature","geometry":{"type":"Point","coordinates":[140.2867602454,39.7076522333]},"properties":{"Name":"岩見三内小学校（体育館）","Jusho":"秋田県秋田市河辺三内字外川原39","洪水":"","がけ崩れ、土石流及び地滑り":"◎","高潮":"","地震":"◎","津波":"","大規模な火事":"","内水氾濫":"","火山現象":"","指定避難所との重複":"◎","備考":""}},
{"type":"Feature","geometry":{"type":"Point","coordinates":[140.1282561000,39.7277967200]},"properties":{"Name":"秋田東中学校（体育館）","Jusho":"秋田県秋田市手形休下町10-51","洪水":"◎","がけ崩れ、土石流及び地滑り":"◎","高潮":"","地震":"◎","津波":"","大規模な火事":"","内水氾濫":"","火山現象":"","指定避難所との重複":"◎","備考":""}},
{"type":"Feature","geometry":{"type":"Point","coordinates":[140.1271313221,39.7077832822]},"properties":{"Name":"秋田南中学校（体育館）","Jusho":"秋田県秋田市南通宮田15-1","洪水":"","がけ崩れ、土石流及び地滑り":"◎","高潮":"","地震":"◎","津波":"","大規模な火事":"","内水氾濫":"","火山現象":"","指定避難所との重複":"◎","備考":""}},
{"type":"Feature","geometry":{"type":"Point","coordinates":[140.1068882000,39.7175201800]},"properties":{"Name":"山王中学校（体育館）","Jusho":"秋田県秋田市山王3-1-24","洪水":"","がけ崩れ、土石流及び地滑り":"◎","高潮":"","地震":"◎","津波":"","大規模な火事":"","内水氾濫":"","火山現象":"","指定避難所との重複":"◎","備考":""}},
{"type":"Feature","geometry":{"type":"Point","coordinates":[140.0759307288,39.7596041134]},"properties":{"Name":"土崎中学校（体育館）","Jusho":"秋田県秋田市土崎港北1-3-1","洪水":"◎","がけ崩れ、土石流及び地滑り":"◎","高潮":"","地震":"◎","津波":"","大規模な火事":"","内水氾濫":"","火山現象":"","指定避難所との重複":"◎","備考":""}},
{"type":"Feature","geometry":{"type":"Point","coordinates":[140.0883893000,39.6851512400]},"properties":{"Name":"秋田西中学校（体育館）","Jusho":"秋田県秋田市新屋大川町19-75","洪水":"◎","がけ崩れ、土石流及び地滑り":"◎","高潮":"","地震":"◎","津波":"","大規模な火事":"","内水氾濫":"","火山現象":"","指定避難所との重複":"◎","備考":""}},
{"type":"Feature","geometry":{"type":"Point","coordinates":[140.1143052577,39.7489435856]},"properties":{"Name":"外旭川中学校（体育館）","Jusho":"秋田県秋田市外旭川字梶ノ目50","洪水":"◎","がけ崩れ、土石流及び地滑り":"◎","高潮":"","地震":"◎","津波":"","大規模な火事":"","内水氾濫":"","火山現象":"","指定避難所との重複":"◎","備考":""}},
{"type":"Feature","geometry":{"type":"Point","coordinates":[140.0541341706,39.8059300896]},"properties":{"Name":"秋田北中学校（体育館）","Jusho":"秋田県秋田市下新城中野字街道端西241-90","洪水":"◎","がけ崩れ、土石流及び地滑り":"◎","高潮":"","地震":"◎","津波":"","大規模な火事":"","内水氾濫":"","火山現象":"","指定避難所との重複":"◎","備考":""}},
{"type":"Feature","geometry":{"type":"Point","coordinates":[140.1120808000,39.6480993700]},"properties":{"Name":"豊岩中学校（体育館）","Jusho":"秋田県秋田市豊岩豊巻字内縄尻90-2","洪水":"","がけ崩れ、土石流及び地滑り":"","高潮":"","地震":"◎","津波":"","大規模な火事":"","内水氾濫":"","火山現象":"","指定避難所との重複":"◎","備考":""}},
{"type":"Feature","geometry":{"type":"Point","coordinates":[140.1295421000,39.6995097800]},"properties":{"Name":"城南中学校（体育館）","Jusho":"秋田県秋田市楢山城南町4-1","洪水":"◎","がけ崩れ、土石流及び地滑り":"◎","高潮":"","地震":"◎","津波":"","大規模な火事":"","内水氾濫":"","火山現象":"","指定避難所との重複":"◎","備考":""}},
{"type":"Feature","geometry":{"type":"Point","coordinates":[140.1644980000,39.7227895400]},"properties":{"Name":"下北手中学校（体育館）","Jusho":"秋田県秋田市下北手松崎字走り崎14","洪水":"◎","がけ崩れ、土石流及び地滑り":"◎","高潮":"","地震":"◎","津波":"","大規模な火事":"","内水氾濫":"","火山現象":"","指定避難所との重複":"◎","備考":""}},
{"type":"Feature","geometry":{"type":"Point","coordinates":[140.0661673233,39.6127687585]},"properties":{"Name":"下浜中学校（体育館）","Jusho":"秋田県秋田市下浜羽川字水垂92","洪水":"◎","がけ崩れ、土石流及び地滑り":"◎","高潮":"","地震":"◎","津波":"","大規模な火事":"","内水氾濫":"","火山現象":"","指定避難所との重複":"◎","備考":""}},
{"type":"Feature","geometry":{"type":"Point","coordinates":[140.1473220000,39.7156592800]},"properties":{"Name":"城東中学校（体育館）","Jusho":"秋田県秋田市広面字鍋沼17","洪水":"","がけ崩れ、土石流及び地滑り":"◎","高潮":"","地震":"◎","津波":"","大規模な火事":"","内水氾濫":"","火山現象":"","指定避難所との重複":"◎","備考":""}},
{"type":"Feature","geometry":{"type":"Point","coordinates":[140.1057470712,39.7347695934]},"properties":{"Name":"泉中学校（体育館）","Jusho":"秋田県秋田市泉北2-6-1","洪水":"◎","がけ崩れ、土石流及び地滑り":"◎","高潮":"","地震":"◎","津波":"","大規模な火事":"","内水氾濫":"","火山現象":"","指定避難所との重複":"◎","備考":""}},
{"type":"Feature","geometry":{"type":"Point","coordinates":[140.0821458000,39.7449790100]},"properties":{"Name":"将軍野中学校（体育館）","Jusho":"秋田県秋田市将軍野南一丁目12-1","洪水":"◎","がけ崩れ、土石流及び地滑り":"◎","高潮":"","地震":"◎","津波":"","大規模な火事":"","内水氾濫":"","火山現象":"","指定避難所との重複":"◎","備考":""}},
{"type":"Feature","geometry":{"type":"Point","coordinates":[140.1189426000,39.6775003500]},"properties":{"Name":"御野場中学校（体育館）","Jusho":"秋田県秋田市仁井田字中新田223","洪水":"","がけ崩れ、土石流及び地滑り":"◎","高潮":"","地震":"◎","津波":"","大規模な火事":"","内水氾濫":"","火山現象":"","指定避難所との重複":"◎","備考":""}},
{"type":"Feature","geometry":{"type":"Point","coordinates":[140.0738333933,39.7023997786]},"properties":{"Name":"勝平中学校（体育館）","Jusho":"秋田県秋田市新屋北浜町13-1","洪水":"◎","がけ崩れ、土石流及び地滑り":"◎","高潮":"","地震":"◎","津波":"","大規模な火事":"","内水氾濫":"","火山現象":"","指定避難所との重複":"◎","備考":""}},
{"type":"Feature","geometry":{"type":"Point","coordinates":[140.0845205644,39.7730564791]},"properties":{"Name":"飯島中学校（体育館）","Jusho":"秋田県秋田市飯島字田尻堰越48","洪水":"◎","がけ崩れ、土石流及び地滑り":"◎","高潮":"","地震":"◎","津波":"","大規模な火事":"","内水氾濫":"","火山現象":"","指定避難所との重複":"◎","備考":""}},
{"type":"Feature","geometry":{"type":"Point","coordinates":[140.1547685000,39.7110038700]},"properties":{"Name":"桜中学校（体育館）","Jusho":"秋田県秋田市桜台1-1-1","洪水":"◎","がけ崩れ、土石流及び地滑り":"◎","高潮":"","地震":"◎","津波":"","大規模な火事":"","内水氾濫":"","火山現象":"","指定避難所との重複":"◎","備考":""}},
{"type":"Feature","geometry":{"type":"Point","coordinates":[140.1557121000,39.6611103900]},"properties":{"Name":"御所野学院中学校（体育館）","Jusho":"秋田県秋田市御所野地蔵田4-1-1","洪水":"◎","がけ崩れ、土石流及び地滑り":"◎","高潮":"","地震":"◎","津波":"","大規模な火事":"","内水氾濫":"","火山現象":"","指定避難所との重複":"◎","備考":""}},
{"type":"Feature","geometry":{"type":"Point","coordinates":[140.1711742220,39.5935811858]},"properties":{"Name":"雄和中学校（体育館）","Jusho":"秋田県秋田市雄和石田字蟹沢40","洪水":"◎","がけ崩れ、土石流及び地滑り":"","高潮":"","地震":"◎","津波":"","大規模な火事":"","内水氾濫":"","火山現象":"","指定避難所との重複":"◎","備考":""}},
{"type":"Feature","geometry":{"type":"Point","coordinates":[140.2153168798,39.6585400590]},"properties":{"Name":"河辺中学校（体育館）","Jusho":"秋田県秋田市河辺北野田高屋字雷谷地84","洪水":"◎","がけ崩れ、土石流及び地滑り":"","高潮":"","地震":"◎","津波":"","大規模な火事":"","内水氾濫":"","火山現象":"","指定避難所との重複":"◎","備考":""}},
{"type":"Feature","geometry":{"type":"Point","coordinates":[140.2862184000,39.7080071500]},"properties":{"Name":"岩見三内中学校（体育館）","Jusho":"秋田県秋田市河辺三内字外川原39","洪水":"","がけ崩れ、土石流及び地滑り":"◎","高潮":"","地震":"◎","津波":"","大規模な火事":"","内水氾濫":"","火山現象":"","指定避難所との重複":"◎","備考":""}},
{"type":"Feature","geometry":{"type":"Point","coordinates":[140.0759863270,39.7087273748]},"properties":{"Name":"秋田商業高等学校","Jusho":"秋田県秋田市新屋勝平台1-1","洪水":"◎","がけ崩れ、土石流及び地滑り":"◎","高潮":"","地震":"◎","津波":"","大規模な火事":"","内水氾濫":"","火山現象":"","指定避難所との重複":"◎","備考":""}},
{"type":"Feature","geometry":{"type":"Point","coordinates":[140.1557336000,39.6605900400]},"properties":{"Name":"御所野学院高等学校（体育館）","Jusho":"秋田県秋田市御所野地蔵田4-1-1","洪水":"◎","がけ崩れ、土石流及び地滑り":"◎","高潮":"","地震":"◎","津波":"","大規模な火事":"","内水氾濫":"","火山現象":"","指定避難所との重複":"◎","備考":""}},
{"type":"Feature","geometry":{"type":"Point","coordinates":[140.0915734000,39.6859607400]},"properties":{"Name":"秋田公立美術大学附属高等学院（体育館）","Jusho":"秋田県秋田市新屋大川町12-3","洪水":"◎","がけ崩れ、土石流及び地滑り":"◎","高潮":"","地震":"◎","津波":"","大規模な火事":"","内水氾濫":"","火山現象":"","指定避難所との重複":"◎","備考":""}},
{"type":"Feature","geometry":{"type":"Point","coordinates":[140.0911558221,39.8238131097]},"properties":{"Name":"旧金足東小学校（体育館）","Jusho":"秋田県秋田市金足片田字待入109","洪水":"◎","がけ崩れ、土石流及び地滑り":"","高潮":"","地震":"◎","津波":"","大規模な火事":"","内水氾濫":"","火山現象":"","指定避難所との重複":"◎","備考":""}},
{"type":"Feature","geometry":{"type":"Point","coordinates":[140.2611986153,39.7317143668]},"properties":{"Name":"旧山谷小学校（体育館）","Jusho":"秋田県秋田市太平山谷字中山谷143","洪水":"◎","がけ崩れ、土石流及び地滑り":"◎","高潮":"","地震":"◎","津波":"","大規模な火事":"","内水氾濫":"","火山現象":"","指定避難所との重複":"◎","備考":""}},
{"type":"Feature","geometry":{"type":"Point","coordinates":[140.2593382000,39.6771462100]},"properties":{"Name":"旧赤平小学校（体育館）","Jusho":"秋田県秋田市河辺赤平字小曽根80","洪水":"◎","がけ崩れ、土石流及び地滑り":"◎","高潮":"","地震":"◎","津波":"","大規模な火事":"","内水氾濫":"","火山現象":"","指定避難所との重複":"◎","備考":""}},
{"type":"Feature","geometry":{"type":"Point","coordinates":[140.0533712000,39.8395540200]},"properties":{"Name":"金足西小学校グラウンド","Jusho":"秋田県秋田市金足大清水字大清水台1","洪水":"◎","がけ崩れ、土石流及び地滑り":"◎","高潮":"","地震":"◎","津波":"","大規模な火事":"","内水氾濫":"","火山現象":"","指定避難所との重複":"","備考":""}},
{"type":"Feature","geometry":{"type":"Point","coordinates":[140.0767343712,39.7994612459]},"properties":{"Name":"下新城小学校グラウンド","Jusho":"秋田県秋田市下新城笠岡字佐戸反10","洪水":"","がけ崩れ、土石流及び地滑り":"◎","高潮":"","地震":"◎","津波":"","大規模な火事":"","内水氾濫":"","火山現象":"","指定避難所との重複":"","備考":""}},
{"type":"Feature","geometry":{"type":"Point","coordinates":[140.1231766921,39.7949462193]},"properties":{"Name":"上新城小学校グラウンド","Jusho":"秋田県秋田市上新城五十丁字大村屋敷22","洪水":"","がけ崩れ、土石流及び地滑り":"◎","高潮":"","地震":"◎","津波":"","大規模な火事":"","内水氾濫":"","火山現象":"","指定避難所との重複":"","備考":""}},
{"type":"Feature","geometry":{"type":"Point","coordinates":[140.0738508553,39.7775513654]},"properties":{"Name":"飯島小学校グラウンド","Jusho":"秋田県秋田市飯島鼠田2-2-1","洪水":"◎","がけ崩れ、土石流及び地滑り":"◎","高潮":"","地震":"◎","津波":"","大規模な火事":"","内水氾濫":"","火山現象":"","指定避難所との重複":"","備考":""}},
{"type":"Feature","geometry":{"type":"Point","coordinates":[140.0753933000,39.7632339500]},"properties":{"Name":"港北小学校グラウンド","Jusho":"秋田県秋田市土崎港北4-6-1","洪水":"◎","がけ崩れ、土石流及び地滑り":"◎","高潮":"","地震":"◎","津波":"","大規模な火事":"","内水氾濫":"","火山現象":"","指定避難所との重複":"","備考":""}},
{"type":"Feature","geometry":{"type":"Point","coordinates":[140.0714783007,39.7544555375]},"properties":{"Name":"土崎小学校グラウンド","Jusho":"秋田県秋田市土崎港中央3-1-78","洪水":"◎","がけ崩れ、土石流及び地滑り":"◎","高潮":"","地震":"◎","津波":"","大規模な火事":"","内水氾濫":"","火山現象":"","指定避難所との重複":"","備考":""}},
{"type":"Feature","geometry":{"type":"Point","coordinates":[140.1093917000,39.7477693000]},"properties":{"Name":"外旭川小学校グラウンド","Jusho":"秋田県秋田市外旭川字梶ノ目262-2","洪水":"◎","がけ崩れ、土石流及び地滑り":"◎","高潮":"","地震":"◎","津波":"","大規模な火事":"","内水氾濫":"","火山現象":"","指定避難所との重複":"","備考":""}},
{"type":"Feature","geometry":{"type":"Point","coordinates":[140.1087435000,39.7320397700]},"properties":{"Name":"泉小学校グラウンド","Jusho":"秋田県秋田市泉中央6-2-1","洪水":"◎","がけ崩れ、土石流及び地滑り":"◎","高潮":"","地震":"◎","津波":"","大規模な火事":"","内水氾濫":"","火山現象":"","指定避難所との重複":"","備考":""}},
{"type":"Feature","geometry":{"type":"Point","coordinates":[140.1321058767,39.7381706974]},"properties":{"Name":"旭川小学校グラウンド","Jusho":"秋田県秋田市手形字才ノ浜63","洪水":"◎","がけ崩れ、土石流及び地滑り":"","高潮":"","地震":"◎","津波":"","大規模な火事":"","内水氾濫":"","火山現象":"","指定避難所との重複":"","備考":""}},
{"type":"Feature","geometry":{"type":"Point","coordinates":[140.1441635767,39.7283686518]},"properties":{"Name":"広面小学校グラウンド","Jusho":"秋田県秋田市広面字蟹沢29","洪水":"◎","がけ崩れ、土石流及び地滑り":"","高潮":"","地震":"◎","津波":"","大規模な火事":"","内水氾濫":"","火山現象":"","指定避難所との重複":"","備考":""}},
{"type":"Feature","geometry":{"type":"Point","coordinates":[140.1149083000,39.7243561200]},"properties":{"Name":"保戸野小学校グラウンド","Jusho":"秋田県秋田市保戸野すわ町9-60","洪水":"◎","がけ崩れ、土石流及び地滑り":"◎","高潮":"","地震":"◎","津波":"","大規模な火事":"","内水氾濫":"","火山現象":"","指定避難所との重複":"","備考":""}},
{"type":"Feature","geometry":{"type":"Point","coordinates":[140.0955338884,39.7317290225]},"properties":{"Name":"八橋小学校グラウンド","Jusho":"秋田県秋田市八橋大沼町7-1","洪水":"◎","がけ崩れ、土石流及び地滑り":"◎","高潮":"","地震":"◎","津波":"","大規模な火事":"","内水氾濫":"","火山現象":"","指定避難所との重複":"","備考":""}},
{"type":"Feature","geometry":{"type":"Point","coordinates":[140.1064380000,39.7168834700]},"properties":{"Name":"旭北小学校グラウンド","Jusho":"秋田県秋田市山王3-1-35","洪水":"","がけ崩れ、土石流及び地滑り":"◎","高潮":"","地震":"◎","津波":"","大規模な火事":"","内水氾濫":"","火山現象":"","指定避難所との重複":"","備考":""}},
{"type":"Feature","geometry":{"type":"Point","coordinates":[140.0961830228,39.7108692458]},"properties":{"Name":"川尻小学校グラウンド","Jusho":"秋田県秋田市川尻みよし町8-31","洪水":"◎","がけ崩れ、土石流及び地滑り":"◎","高潮":"","地震":"◎","津波":"","大規模な火事":"","内水氾濫":"","火山現象":"","指定避難所との重複":"","備考":""}},
{"type":"Feature","geometry":{"type":"Point","coordinates":[140.1095601000,39.7104048900]},"properties":{"Name":"旭南小学校グラウンド","Jusho":"秋田県秋田市旭南1-15-1","洪水":"","がけ崩れ、土石流及び地滑り":"◎","高潮":"","地震":"◎","津波":"","大規模な火事":"","内水氾濫":"","火山現象":"","指定避難所との重複":"","備考":""}},
{"type":"Feature","geometry":{"type":"Point","coordinates":[140.1206013779,39.7137838810]},"properties":{"Name":"中通小学校グラウンド","Jusho":"秋田県秋田市中通5-8-22","洪水":"","がけ崩れ、土石流及び地滑り":"◎","高潮":"","地震":"◎","津波":"","大規模な火事":"","内水氾濫":"","火山現象":"","指定避難所との重複":"","備考":""}},
{"type":"Feature","geometry":{"type":"Point","coordinates":[140.1218720000,39.7060087800]},"properties":{"Name":"築山小学校グラウンド","Jusho":"秋田県秋田市楢山古川新町55-1","洪水":"","がけ崩れ、土石流及び地滑り":"◎","高潮":"","地震":"◎","津波":"","大規模な火事":"","内水氾濫":"","火山現象":"","指定避難所との重複":"","備考":""}},
{"type":"Feature","geometry":{"type":"Point","coordinates":[140.1404690000,39.7155590000]},"properties":{"Name":"東小学校グラウンド","Jusho":"秋田県秋田市東通2-11-1","洪水":"","がけ崩れ、土石流及び地滑り":"◎","高潮":"","地震":"◎","津波":"","大規模な火事":"","内水氾濫":"","火山現象":"","指定避難所との重複":"","備考":""}},
{"type":"Feature","geometry":{"type":"Point","coordinates":[140.1687461000,39.7203624200]},"properties":{"Name":"下北手小学校グラウンド","Jusho":"秋田県秋田市下北手松崎字谷崎202-1","洪水":"◎","がけ崩れ、土石流及び地滑り":"","高潮":"","地震":"◎","津波":"","大規模な火事":"","内水氾濫":"","火山現象":"","指定避難所との重複":"","備考":""}},
{"type":"Feature","geometry":{"type":"Point","coordinates":[140.1955987000,39.7307041400]},"properties":{"Name":"太平小学校グラウンド","Jusho":"秋田県秋田市太平目長崎字上目長崎144","洪水":"","がけ崩れ、土石流及び地滑り":"◎","高潮":"","地震":"◎","津波":"","大規模な火事":"","内水氾濫":"","火山現象":"","指定避難所との重複":"","備考":""}},
{"type":"Feature","geometry":{"type":"Point","coordinates":[140.1271615000,39.6945875100]},"properties":{"Name":"牛島小学校グラウンド","Jusho":"秋田県秋田市牛島東6-6-1","洪水":"","がけ崩れ、土石流及び地滑り":"◎","高潮":"","地震":"◎","津波":"","大規模な火事":"","内水氾濫":"","火山現象":"","指定避難所との重複":"","備考":""}},
{"type":"Feature","geometry":{"type":"Point","coordinates":[140.1138276000,39.6890393400]},"properties":{"Name":"大住小学校グラウンド","Jusho":"秋田県秋田市仁井田字西潟敷33","洪水":"","がけ崩れ、土石流及び地滑り":"◎","高潮":"","地震":"◎","津波":"","大規模な火事":"","内水氾濫":"","火山現象":"","指定避難所との重複":"","備考":""}},
{"type":"Feature","geometry":{"type":"Point","coordinates":[140.1281735000,39.6794414200]},"properties":{"Name":"仁井田小学校グラウンド","Jusho":"秋田県秋田市仁井田本町4-7-1","洪水":"","がけ崩れ、土石流及び地滑り":"◎","高潮":"","地震":"◎","津波":"","大規模な火事":"","内水氾濫":"","火山現象":"","指定避難所との重複":"","備考":""}},
{"type":"Feature","geometry":{"type":"Point","coordinates":[140.1392254000,39.6673093200]},"properties":{"Name":"四ツ小屋小学校グラウンド","Jusho":"秋田県秋田市四ツ小屋字街道東256-1","洪水":"","がけ崩れ、土石流及び地滑り":"◎","高潮":"","地震":"◎","津波":"","大規模な火事":"","内水氾濫":"","火山現象":"","指定避難所との重複":"","備考":""}},
{"type":"Feature","geometry":{"type":"Point","coordinates":[140.1648231000,39.6819626300]},"properties":{"Name":"上北手小学校グラウンド","Jusho":"秋田県秋田市上北手猿田字館ノ下38","洪水":"","がけ崩れ、土石流及び地滑り":"","高潮":"","地震":"◎","津波":"","大規模な火事":"","内水氾濫":"","火山現象":"","指定避難所との重複":"","備考":""}},
{"type":"Feature","geometry":{"type":"Point","coordinates":[140.1126465000,39.6482212900]},"properties":{"Name":"豊岩小学校グラウンド","Jusho":"秋田県秋田市豊岩豊巻字内縄尻90","洪水":"","がけ崩れ、土石流及び地滑り":"","高潮":"","地震":"◎","津波":"","大規模な火事":"","内水氾濫":"","火山現象":"","指定避難所との重複":"","備考":""}},
{"type":"Feature","geometry":{"type":"Point","coordinates":[140.1547246000,39.7090964600]},"properties":{"Name":"桜小学校グラウンド","Jusho":"秋田県秋田市桜4-12-1","洪水":"◎","がけ崩れ、土石流及び地滑り":"◎","高潮":"","地震":"◎","津波":"","大規模な火事":"","内水氾濫":"","火山現象":"","指定避難所との重複":"","備考":""}},
{"type":"Feature","geometry":{"type":"Point","coordinates":[140.0911707000,39.7669448800]},"properties":{"Name":"飯島南小学校グラウンド","Jusho":"秋田県秋田市飯島西袋1-1-2","洪水":"◎","がけ崩れ、土石流及び地滑り":"◎","高潮":"","地震":"◎","津波":"","大規模な火事":"","内水氾濫":"","火山現象":"","指定避難所との重複":"","備考":""}},
{"type":"Feature","geometry":{"type":"Point","coordinates":[140.1661683000,39.6607212900]},"properties":{"Name":"御所野小学校グラウンド","Jusho":"秋田県秋田市御所野元町5-1-1","洪水":"◎","がけ崩れ、土石流及び地滑り":"◎","高潮":"","地震":"◎","津波":"","大規模な火事":"","内水氾濫":"","火山現象":"","指定避難所との重複":"","備考":""}},
{"type":"Feature","geometry":{"type":"Point","coordinates":[140.1235479000,39.7241757500]},"properties":{"Name":"明徳小学校グラウンド","Jusho":"秋田県秋田市千秋公園1-13","洪水":"◎","がけ崩れ、土石流及び地滑り":"","高潮":"","地震":"◎","津波":"","大規模な火事":"","内水氾濫":"","火山現象":"","指定避難所との重複":"","備考":""}},
{"type":"Feature","geometry":{"type":"Point","coordinates":[140.1591997000,39.6217428300]},"properties":{"Name":"旧川添小学校グラウンド","Jusho":"秋田県秋田市雄和椿川字長者屋敷36-1","洪水":"◎","がけ崩れ、土石流及び地滑り":"◎","高潮":"","地震":"◎","津波":"","大規模な火事":"","内水氾濫":"","火山現象":"","指定避難所との重複":"","備考":""}},
{"type":"Feature","geometry":{"type":"Point","coordinates":[140.2116186000,39.5883155600]},"properties":{"Name":"旧種平小学校グラウンド","Jusho":"秋田県秋田市雄和種沢字戸草沢209","洪水":"","がけ崩れ、土石流及び地滑り":"◎","高潮":"","地震":"◎","津波":"","大規模な火事":"","内水氾濫":"","火山現象":"","指定避難所との重複":"","備考":""}},
{"type":"Feature","geometry":{"type":"Point","coordinates":[140.1981036000,39.5724640300]},"properties":{"Name":"旧戸米川小学校グラウンド","Jusho":"秋田県秋田市雄和戸賀沢字金山沢20","洪水":"◎","がけ崩れ、土石流及び地滑り":"◎","高潮":"","地震":"◎","津波":"","大規模な火事":"","内水氾濫":"","火山現象":"","指定避難所との重複":"","備考":""}},
{"type":"Feature","geometry":{"type":"Point","coordinates":[140.2351415000,39.5263947900]},"properties":{"Name":"旧大正寺小学校グラウンド","Jusho":"秋田県秋田市雄和新波字寺沢32-8","洪水":"◎","がけ崩れ、土石流及び地滑り":"","高潮":"","地震":"◎","津波":"","大規模な火事":"","内水氾濫":"","火山現象":"","指定避難所との重複":"","備考":""}},
{"type":"Feature","geometry":{"type":"Point","coordinates":[140.1976768000,39.6417213200]},"properties":{"Name":"戸島小学校グラウンド","Jusho":"秋田県秋田市河辺戸島字本町123","洪水":"◎","がけ崩れ、土石流及び地滑り":"◎","高潮":"","地震":"◎","津波":"","大規模な火事":"","内水氾濫":"","火山現象":"","指定避難所との重複":"","備考":""}},
{"type":"Feature","geometry":{"type":"Point","coordinates":[140.2333065000,39.6585705700]},"properties":{"Name":"河辺小学校グラウンド","Jusho":"秋田県秋田市河辺和田字岡村164-1","洪水":"◎","がけ崩れ、土石流及び地滑り":"","高潮":"","地震":"◎","津波":"","大規模な火事":"","内水氾濫":"","火山現象":"","指定避難所との重複":"","備考":""}},
{"type":"Feature","geometry":{"type":"Point","coordinates":[140.0532920000,39.8060454800]},"properties":{"Name":"秋田北中学校グラウンド","Jusho":"秋田県秋田市下新城中野字街道端西241-90","洪水":"◎","がけ崩れ、土石流及び地滑り":"◎","高潮":"","地震":"◎","津波":"","大規模な火事":"","内水氾濫":"","火山現象":"","指定避難所との重複":"","備考":""}},
{"type":"Feature","geometry":{"type":"Point","coordinates":[140.0772343000,39.7588494600]},"properties":{"Name":"土崎中学校グラウンド","Jusho":"秋田県秋田市土崎港北1-3-1","洪水":"◎","がけ崩れ、土石流及び地滑り":"◎","高潮":"","地震":"◎","津波":"","大規模な火事":"","内水氾濫":"","火山現象":"","指定避難所との重複":"","備考":""}},
{"type":"Feature","geometry":{"type":"Point","coordinates":[140.1053125000,39.7353512500]},"properties":{"Name":"泉中学校グラウンド","Jusho":"秋田県秋田市泉北2-6-1","洪水":"◎","がけ崩れ、土石流及び地滑り":"◎","高潮":"","地震":"◎","津波":"","大規模な火事":"","内水氾濫":"","火山現象":"","指定避難所との重複":"","備考":""}},
{"type":"Feature","geometry":{"type":"Point","coordinates":[140.1292485000,39.7279658800]},"properties":{"Name":"秋田東中学校グラウンド","Jusho":"秋田県秋田市手形休下町10-51","洪水":"◎","がけ崩れ、土石流及び地滑り":"◎","高潮":"","地震":"◎","津波":"","大規模な火事":"","内水氾濫":"","火山現象":"","指定避難所との重複":"","備考":""}},
{"type":"Feature","geometry":{"type":"Point","coordinates":[140.1061157000,39.7176481000]},"properties":{"Name":"山王中学校グラウンド","Jusho":"秋田県秋田市山王3-1-24","洪水":"","がけ崩れ、土石流及び地滑り":"◎","高潮":"","地震":"◎","津波":"","大規模な火事":"","内水氾濫":"","火山現象":"","指定避難所との重複":"","備考":""}},
{"type":"Feature","geometry":{"type":"Point","coordinates":[140.1264742000,39.7073313800]},"properties":{"Name":"秋田南中学校グラウンド","Jusho":"秋田県秋田市南通宮田15-1","洪水":"","がけ崩れ、土石流及び地滑り":"◎","高潮":"","地震":"◎","津波":"","大規模な火事":"","内水氾濫":"","火山現象":"","指定避難所との重複":"","備考":""}},
{"type":"Feature","geometry":{"type":"Point","coordinates":[140.1472791000,39.7161998400]},"properties":{"Name":"城東中学校グラウンド","Jusho":"秋田県秋田市広面字鍋沼17","洪水":"","がけ崩れ、土石流及び地滑り":"◎","高潮":"","地震":"◎","津波":"","大規模な火事":"","内水氾濫":"","火山現象":"","指定避難所との重複":"","備考":""}},
{"type":"Feature","geometry":{"type":"Point","coordinates":[140.1297405162,39.7000958757]},"properties":{"Name":"城南中学校グラウンド","Jusho":"秋田県秋田市楢山城南町4-1","洪水":"◎","がけ崩れ、土石流及び地滑り":"◎","高潮":"","地震":"◎","津波":"","大規模な火事":"","内水氾濫":"","火山現象":"","指定避難所との重複":"","備考":""}},
{"type":"Feature","geometry":{"type":"Point","coordinates":[140.0885502000,39.6842388800]},"properties":{"Name":"秋田西中学校グラウンド","Jusho":"秋田県秋田市新屋大川町19-75","洪水":"◎","がけ崩れ、土石流及び地滑り":"◎","高潮":"","地震":"◎","津波":"","大規模な火事":"","内水氾濫":"","火山現象":"","指定避難所との重複":"","備考":""}},
{"type":"Feature","geometry":{"type":"Point","coordinates":[140.1185457000,39.6763236500]},"properties":{"Name":"御野場中学校グラウンド","Jusho":"秋田県秋田市仁井田字中新田223","洪水":"","がけ崩れ、土石流及び地滑り":"◎","高潮":"","地震":"◎","津波":"","大規模な火事":"","内水氾濫":"","火山現象":"","指定避難所との重複":"","備考":""}},
{"type":"Feature","geometry":{"type":"Point","coordinates":[140.0845313000,39.7736130900]},"properties":{"Name":"飯島中学校グラウンド","Jusho":"秋田県秋田市飯島字田尻堰越48","洪水":"◎","がけ崩れ、土石流及び地滑り":"◎","高潮":"","地震":"◎","津波":"","大規模な火事":"","内水氾濫":"","火山現象":"","指定避難所との重複":"","備考":""}},
{"type":"Feature","geometry":{"type":"Point","coordinates":[140.1147612000,39.7483331700]},"properties":{"Name":"外旭川中学校グラウンド","Jusho":"秋田県秋田市外旭川字梶ノ目50","洪水":"◎","がけ崩れ、土石流及び地滑り":"◎","高潮":"","地震":"◎","津波":"","大規模な火事":"","内水氾濫":"","火山現象":"","指定避難所との重複":"","備考":""}},
{"type":"Feature","geometry":{"type":"Point","coordinates":[140.1639723000,39.7237220200]},"properties":{"Name":"下北手中学校グラウンド","Jusho":"秋田県秋田市下北手松崎字走り崎14","洪水":"◎","がけ崩れ、土石流及び地滑り":"◎","高潮":"","地震":"◎","津波":"","大規模な火事":"","内水氾濫":"","火山現象":"","指定避難所との重複":"","備考":""}},
{"type":"Feature","geometry":{"type":"Point","coordinates":[140.1559808000,39.7112927400]},"properties":{"Name":"桜中学校グラウンド","Jusho":"秋田県秋田市桜台1-1-1","洪水":"◎","がけ崩れ、土石流及び地滑り":"◎","高潮":"","地震":"◎","津波":"","大規模な火事":"","内水氾濫":"","火山現象":"","指定避難所との重複":"","備考":""}},
{"type":"Feature","geometry":{"type":"Point","coordinates":[140.2162529000,39.6579391600]},"properties":{"Name":"河辺中学校グラウンド","Jusho":"秋田県秋田市河辺北野田高屋字雷谷地84","洪水":"◎","がけ崩れ、土石流及び地滑り":"","高潮":"","地震":"◎","津波":"","大規模な火事":"","内水氾濫":"","火山現象":"","指定避難所との重複":"","備考":""}},
{"type":"Feature","geometry":{"type":"Point","coordinates":[140.2875461000,39.7083104800]},"properties":{"Name":"岩見三内中学校グラウンド","Jusho":"秋田県秋田市河辺三内字外川原39","洪水":"","がけ崩れ、土石流及び地滑り":"◎","高潮":"","地震":"◎","津波":"","大規模な火事":"","内水氾濫":"","火山現象":"","指定避難所との重複":"","備考":""}},
{"type":"Feature","geometry":{"type":"Point","coordinates":[140.1553998000,39.6572792900]},"properties":{"Name":"御所野学院中学校・高等学校グラウンド","Jusho":"秋田県秋田市御所野地蔵田4-31","洪水":"◎","がけ崩れ、土石流及び地滑り":"◎","高潮":"","地震":"◎","津波":"","大規模な火事":"","内水氾濫":"","火山現象":"","指定避難所との重複":"","備考":""}},
{"type":"Feature","geometry":{"type":"Point","coordinates":[140.0917459000,39.8235288300]},"properties":{"Name":"旧金足東小学校グラウンド","Jusho":"秋田県秋田市金足片田字待入109","洪水":"◎","がけ崩れ、土石流及び地滑り":"","高潮":"","地震":"◎","津波":"","大規模な火事":"","内水氾濫":"","火山現象":"","指定避難所との重複":"","備考":""}},
{"type":"Feature","geometry":{"type":"Point","coordinates":[140.2601150000,39.7320526600]},"properties":{"Name":"旧山谷小学校グラウンド","Jusho":"秋田県秋田市太平山谷字中山谷143","洪水":"◎","がけ崩れ、土石流及び地滑り":"◎","高潮":"","地震":"◎","津波":"","大規模な火事":"","内水氾濫":"","火山現象":"","指定避難所との重複":"","備考":""}},
{"type":"Feature","geometry":{"type":"Point","coordinates":[140.2588769000,39.6778770000]},"properties":{"Name":"旧赤平小学校グラウンド","Jusho":"秋田県秋田市河辺赤平字小曽根80","洪水":"◎","がけ崩れ、土石流及び地滑り":"◎","高潮":"","地震":"◎","津波":"","大規模な火事":"","内水氾濫":"","火山現象":"","指定避難所との重複":"","備考":""}},
{"type":"Feature","geometry":{"type":"Point","coordinates":[140.2950585000,39.7099782900]},"properties":{"Name":"旧岩見三内小学校グラウンド","Jusho":"秋田県秋田市河辺岩見字鍛冶屋敷14","洪水":"","がけ崩れ、土石流及び地滑り":"◎","高潮":"","地震":"◎","津波":"","大規模な火事":"","内水氾濫":"","火山現象":"","指定避難所との重複":"","備考":""}},
{"type":"Feature","geometry":{"type":"Point","coordinates":[140.0880666651,39.7259562653]},"properties":{"Name":"秋田市立体育館（2階サブアリーナ固定観覧席、メインアリーナ固定観覧席および2階上部ジョギングコースほか）","Jusho":"秋田県秋田市八橋本町6-12-20","洪水":"","がけ崩れ、土石流及び地滑り":"","高潮":"","地震":"","津波":"◎","大規模な火事":"","内水氾濫":"","火山現象":"","指定避難所との重複":"","備考":""}},
{"type":"Feature","geometry":{"type":"Point","coordinates":[140.1026740000,39.7039710000]},"properties":{"Name":"茨島体育館","Jusho":"秋田県秋田市茨島1-4-71","洪水":"","がけ崩れ、土石流及び地滑り":"◎","高潮":"","地震":"◎","津波":"","大規模な火事":"","内水氾濫":"","火山現象":"","指定避難所との重複":"◎","備考":""}},
{"type":"Feature","geometry":{"type":"Point","coordinates":[140.1688560000,39.5915480000]},"properties":{"Name":"雄和体育館","Jusho":"秋田県秋田市雄和妙法字上大部95-1","洪水":"","がけ崩れ、土石流及び地滑り":"◎","高潮":"","地震":"◎","津波":"","大規模な火事":"","内水氾濫":"","火山現象":"","指定避難所との重複":"◎","備考":""}},
{"type":"Feature","geometry":{"type":"Point","coordinates":[140.2314290000,39.5251540000]},"properties":{"Name":"雄和南体育館","Jusho":"秋田県秋田市雄和神ヶ村字陳笠259","洪水":"","がけ崩れ、土石流及び地滑り":"◎","高潮":"","地震":"◎","津波":"","大規模な火事":"","内水氾濫":"","火山現象":"","指定避難所との重複":"◎","備考":""}},
{"type":"Feature","geometry":{"type":"Point","coordinates":[140.2161943000,39.6510083000]},"properties":{"Name":"河辺体育館","Jusho":"秋田県秋田市河辺和田字上中野186","洪水":"◎","がけ崩れ、土石流及び地滑り":"◎","高潮":"","地震":"◎","津波":"","大規模な火事":"","内水氾濫":"","火山現象":"","指定避難所との重複":"◎","備考":""}},
{"type":"Feature","geometry":{"type":"Point","coordinates":[140.0886241000,39.7266424700]},"properties":{"Name":"市立体育館第２駐車場","Jusho":"秋田県秋田市八橋本町六丁目地内","洪水":"","がけ崩れ、土石流及び地滑り":"◎","高潮":"","地震":"◎","津波":"","大規模な火事":"","内水氾濫":"","火山現象":"","指定避難所との重複":"","備考":""}},
{"type":"Feature","geometry":{"type":"Point","coordinates":[140.1078765000,39.7438638800]},"properties":{"Name":"外旭川地域運動広場 （旧外旭川中学校グラウンド）","Jusho":"秋田県秋田市外旭川八幡田1-18","洪水":"◎","がけ崩れ、土石流及び地滑り":"◎","高潮":"","地震":"◎","津波":"","大規模な火事":"","内水氾濫":"","火山現象":"","指定避難所との重複":"","備考":""}},
{"type":"Feature","geometry":{"type":"Point","coordinates":[140.0947820000,39.7205408800]},"properties":{"Name":"八橋運動公園","Jusho":"秋田県秋田市八橋運動公園地内","洪水":"◎","がけ崩れ、土石流及び地滑り":"◎","高潮":"","地震":"◎","津波":"◎","大規模な火事":"◎","内水氾濫":"","火山現象":"","指定避難所との重複":"","備考":""}},
{"type":"Feature","geometry":{"type":"Point","coordinates":[140.0956869000,39.7215856600]},"properties":{"Name":"八橋陸上競技場","Jusho":"秋田県秋田市八橋運動公園1-10","洪水":"◎","がけ崩れ、土石流及び地滑り":"◎","高潮":"","地震":"◎","津波":"","大規模な火事":"","内水氾濫":"","火山現象":"","指定避難所との重複":"","備考":""}},
{"type":"Feature","geometry":{"type":"Point","coordinates":[140.0997468000,39.7214733800]},"properties":{"Name":"八橋球技場","Jusho":"秋田県秋田市八橋運動公園地内","洪水":"◎","がけ崩れ、土石流及び地滑り":"◎","高潮":"","地震":"◎","津波":"","大規模な火事":"","内水氾濫":"","火山現象":"","指定避難所との重複":"","備考":""}},
{"type":"Feature","geometry":{"type":"Point","coordinates":[140.0968219000,39.7200373700]},"properties":{"Name":"八橋硬式野球場","Jusho":"秋田県秋田市八橋運動公園1-7","洪水":"◎","がけ崩れ、土石流及び地滑り":"◎","高潮":"","地震":"◎","津波":"","大規模な火事":"","内水氾濫":"","火山現象":"","指定避難所との重複":"","備考":""}},
{"type":"Feature","geometry":{"type":"Point","coordinates":[140.0998707000,39.7197344500]},"properties":{"Name":"八橋第２球技場・健康広場","Jusho":"秋田県秋田市八橋運動公園地内","洪水":"◎","がけ崩れ、土石流及び地滑り":"◎","高潮":"","地震":"◎","津波":"","大規模な火事":"","内水氾濫":"","火山現象":"","指定避難所との重複":"","備考":""}},
{"type":"Feature","geometry":{"type":"Point","coordinates":[140.1290323033,39.6126930807]},"properties":{"Name":"下浜八田地域運動広場 (旧八田小学校グラウンド)","Jusho":"秋田県秋田市下浜八田字餅田42","洪水":"◎","がけ崩れ、土石流及び地滑り":"◎","高潮":"","地震":"◎","津波":"","大規模な火事":"","内水氾濫":"","火山現象":"","指定避難所との重複":"","備考":""}},
{"type":"Feature","geometry":{"type":"Point","coordinates":[140.1441840000,39.7059591000]},"properties":{"Name":"横森地域運動広場","Jusho":"秋田県秋田市横森3-3","洪水":"◎","がけ崩れ、土石流及び地滑り":"◎","高潮":"","地震":"◎","津波":"","大規模な火事":"","内水氾濫":"","火山現象":"","指定避難所との重複":"","備考":""}},
{"type":"Feature","geometry":{"type":"Point","coordinates":[140.0940670000,39.7035422600]},"properties":{"Name":"勝平市民グラウンド","Jusho":"秋田県秋田市新屋豊町153-1","洪水":"◎","がけ崩れ、土石流及び地滑り":"◎","高潮":"","地震":"◎","津波":"","大規模な火事":"","内水氾濫":"","火山現象":"","指定避難所との重複":"","備考":""}},
{"type":"Feature","geometry":{"type":"Point","coordinates":[140.1021392632,39.7029691926]},"properties":{"Name":"茨島多目的運動広場","Jusho":"秋田県秋田市茨島1-12-12","洪水":"","がけ崩れ、土石流及び地滑り":"◎","高潮":"","地震":"◎","津波":"","大規模な火事":"","内水氾濫":"","火山現象":"","指定避難所との重複":"","備考":""}},
{"type":"Feature","geometry":{"type":"Point","coordinates":[140.1740793000,39.5937760400]},"properties":{"Name":"雄和花の森野球場","Jusho":"秋田県秋田市雄和石田字蟹沢39","洪水":"◎","がけ崩れ、土石流及び地滑り":"","高潮":"","地震":"◎","津波":"","大規模な火事":"","内水氾濫":"","火山現象":"","指定避難所との重複":"","備考":""}},
{"type":"Feature","geometry":{"type":"Point","coordinates":[140.2360427000,39.5273092300]},"properties":{"Name":"雄和新波野球場","Jusho":"秋田県秋田市雄和新波字寺沢31-1","洪水":"◎","がけ崩れ、土石流及び地滑り":"◎","高潮":"","地震":"◎","津波":"","大規模な火事":"","内水氾濫":"","火山現象":"","指定避難所との重複":"","備考":""}},
{"type":"Feature","geometry":{"type":"Point","coordinates":[140.2166390000,39.6511495200]},"properties":{"Name":"河辺体育館駐車場","Jusho":"秋田県秋田市河辺和田字上中野186","洪水":"◎","がけ崩れ、土石流及び地滑り":"◎","高潮":"","地震":"◎","津波":"","大規模な火事":"","内水氾濫":"","火山現象":"","指定避難所との重複":"","備考":""}},
{"type":"Feature","geometry":{"type":"Point","coordinates":[140.0614457000,39.7867759400]},"properties":{"Name":"飯島西部街区公園","Jusho":"秋田県秋田市飯島川端3地内","洪水":"◎","がけ崩れ、土石流及び地滑り":"◎","高潮":"","地震":"◎","津波":"◎","大規模な火事":"","内水氾濫":"","火山現象":"","指定避難所との重複":"","備考":""}},
{"type":"Feature","geometry":{"type":"Point","coordinates":[140.0651491111,39.7760060713]},"properties":{"Name":"飯島穀丁第四児童遊園地（松風団地）","Jusho":"秋田県秋田市飯島穀丁地内","洪水":"◎","がけ崩れ、土石流及び地滑り":"◎","高潮":"","地震":"◎","津波":"◎","大規模な火事":"","内水氾濫":"","火山現象":"","指定避難所との重複":"","備考":""}},
{"type":"Feature","geometry":{"type":"Point","coordinates":[140.0719518000,39.7715397700]},"properties":{"Name":"飯島神社街区公園","Jusho":"秋田県秋田市飯島松根西町地内","洪水":"◎","がけ崩れ、土石流及び地滑り":"◎","高潮":"","地震":"◎","津波":"◎","大規模な火事":"","内水氾濫":"","火山現象":"","指定避難所との重複":"","備考":""}},
{"type":"Feature","geometry":{"type":"Point","coordinates":[140.0753619000,39.7553432000]},"properties":{"Name":"琴平第二街区公園","Jusho":"秋田県秋田市土崎港中央4地内","洪水":"◎","がけ崩れ、土石流及び地滑り":"◎","高潮":"","地震":"◎","津波":"◎","大規模な火事":"","内水氾濫":"","火山現象":"","指定避難所との重複":"","備考":""}},
{"type":"Feature","geometry":{"type":"Point","coordinates":[140.1001484000,39.7109532100]},"properties":{"Name":"総社神社街区公園","Jusho":"秋田県秋田市川尻総社町地内","洪水":"◎","がけ崩れ、土石流及び地滑り":"◎","高潮":"","地震":"◎","津波":"◎","大規模な火事":"","内水氾濫":"","火山現象":"","指定避難所との重複":"","備考":""}},
{"type":"Feature","geometry":{"type":"Point","coordinates":[140.0814827000,39.7003730700]},"properties":{"Name":"松美ヶ丘第三街区公園","Jusho":"秋田県秋田市新屋松美ガ丘南町地内","洪水":"◎","がけ崩れ、土石流及び地滑り":"◎","高潮":"","地震":"◎","津波":"◎","大規模な火事":"","内水氾濫":"","火山現象":"","指定避難所との重複":"","備考":""}},
{"type":"Feature","geometry":{"type":"Point","coordinates":[140.0764972000,39.6986487900]},"properties":{"Name":"新屋松美町緑道（勝平日吉神社隣接広場）","Jusho":"秋田県秋田市新屋松美町地内","洪水":"◎","がけ崩れ、土石流及び地滑り":"◎","高潮":"","地震":"◎","津波":"◎","大規模な火事":"","内水氾濫":"","火山現象":"","指定避難所との重複":"","備考":""}},
{"type":"Feature","geometry":{"type":"Point","coordinates":[140.0705391000,39.6106839003]},"properties":{"Name":"下浜工業団地緑地","Jusho":"秋田県秋田市下浜羽川字下山地内","洪水":"◎","がけ崩れ、土石流及び地滑り":"◎","高潮":"","地震":"◎","津波":"◎","大規模な火事":"","内水氾濫":"","火山現象":"","指定避難所との重複":"","備考":""}},
{"type":"Feature","geometry":{"type":"Point","coordinates":[140.0677620405,39.7773440590]},"properties":{"Name":"飯島道東一丁目第一児童遊園地","Jusho":"秋田県秋田市飯島道東1地内","洪水":"◎","がけ崩れ、土石流及び地滑り":"◎","高潮":"","地震":"◎","津波":"◎","大規模な火事":"","内水氾濫":"","火山現象":"","指定避難所との重複":"","備考":""}},
{"type":"Feature","geometry":{"type":"Point","coordinates":[140.1423039000,39.6998674400]},"properties":{"Name":"一つ森公園コミュニティ体育館","Jusho":"秋田県秋田市下北手桜字蛭沢141-7","洪水":"◎","がけ崩れ、土石流及び地滑り":"◎","高潮":"","地震":"◎","津波":"","大規模な火事":"","内水氾濫":"","火山現象":"","指定避難所との重複":"◎","備考":""}},
{"type":"Feature","geometry":{"type":"Point","coordinates":[140.0892433000,39.7263281800]},"properties":{"Name":"八橋墓地公園","Jusho":"秋田県秋田市八橋本町6地内","洪水":"","がけ崩れ、土石流及び地滑り":"◎","高潮":"","地震":"◎","津波":"","大規模な火事":"","内水氾濫":"","火山現象":"","指定避難所との重複":"","備考":""}},
{"type":"Feature","geometry":{"type":"Point","coordinates":[140.0928835000,39.7551954000]},"properties":{"Name":"前谷地近隣公園","Jusho":"秋田県秋田市外旭川字前谷地地内","洪水":"◎","がけ崩れ、土石流及び地滑り":"◎","高潮":"","地震":"◎","津波":"","大規模な火事":"","内水氾濫":"","火山現象":"","指定避難所との重複":"","備考":""}},
{"type":"Feature","geometry":{"type":"Point","coordinates":[140.1048154000,39.7177905600]},"properties":{"Name":"山王第一街区公園","Jusho":"秋田県秋田市山王3地内","洪水":"","がけ崩れ、土石流及び地滑り":"◎","高潮":"","地震":"◎","津波":"","大規模な火事":"","内水氾濫":"","火山現象":"","指定避難所との重複":"","備考":""}},
{"type":"Feature","geometry":{"type":"Point","coordinates":[140.1179571000,39.7087902100]},"properties":{"Name":"楢山緑地（楢山公園）","Jusho":"秋田県秋田市楢山南中町1-9","洪水":"","がけ崩れ、土石流及び地滑り":"◎","高潮":"","地震":"◎","津波":"","大規模な火事":"","内水氾濫":"","火山現象":"","指定避難所との重複":"","備考":""}},
{"type":"Feature","geometry":{"type":"Point","coordinates":[140.1307546000,39.7136411400]},"properties":{"Name":"拠点第一街区公園","Jusho":"秋田県秋田市東通仲町16","洪水":"","がけ崩れ、土石流及び地滑り":"◎","高潮":"","地震":"◎","津波":"","大規模な火事":"","内水氾濫":"","火山現象":"","指定避難所との重複":"","備考":""}},
{"type":"Feature","geometry":{"type":"Point","coordinates":[140.1581650000,39.7101050000]},"properties":{"Name":"桜台中央公園","Jusho":"秋田県秋田市桜台2-5","洪水":"◎","がけ崩れ、土石流及び地滑り":"◎","高潮":"","地震":"◎","津波":"","大規模な火事":"","内水氾濫":"","火山現象":"","指定避難所との重複":"","備考":""}},
{"type":"Feature","geometry":{"type":"Point","coordinates":[140.1136445288,39.7003640593]},"properties":{"Name":"牛島運動公園","Jusho":"秋田県秋田市牛島東1-5番","洪水":"","がけ崩れ、土石流及び地滑り":"◎","高潮":"","地震":"◎","津波":"","大規模な火事":"","内水氾濫":"","火山現象":"","指定避難所との重複":"","備考":""}},
{"type":"Feature","geometry":{"type":"Point","coordinates":[140.0667396000,39.7675568700]},"properties":{"Name":"光沼近隣公園","Jusho":"秋田県秋田市土崎港相染町字沼端77","洪水":"◎","がけ崩れ、土石流及び地滑り":"◎","高潮":"","地震":"◎","津波":"","大規模な火事":"","内水氾濫":"","火山現象":"","指定避難所との重複":"","備考":""}},
{"type":"Feature","geometry":{"type":"Point","coordinates":[140.0808595000,39.7607840300]},"properties":{"Name":"土崎駅東第三街区公園","Jusho":"秋田県秋田市土崎港北2-18","洪水":"◎","がけ崩れ、土石流及び地滑り":"◎","高潮":"","地震":"◎","津波":"","大規模な火事":"","内水氾濫":"","火山現象":"","指定避難所との重複":"","備考":""}},
{"type":"Feature","geometry":{"type":"Point","coordinates":[140.1532250000,39.7028260000]},"properties":{"Name":"桜ガ丘第二街区公園","Jusho":"秋田県秋田市桜ガ丘3-4","洪水":"◎","がけ崩れ、土石流及び地滑り":"◎","高潮":"","地震":"◎","津波":"","大規模な火事":"","内水氾濫":"","火山現象":"","指定避難所との重複":"","備考":""}},
{"type":"Feature","geometry":{"type":"Point","coordinates":[140.1608911000,39.6997930000]},"properties":{"Name":"大平台もみの木公園","Jusho":"秋田県秋田市大平台1-14","洪水":"◎","がけ崩れ、土石流及び地滑り":"◎","高潮":"","地震":"◎","津波":"","大規模な火事":"","内水氾濫":"","火山現象":"","指定避難所との重複":"","備考":""}},
{"type":"Feature","geometry":{"type":"Point","coordinates":[140.2404620132,39.5259955173]},"properties":{"Name":"竹の花公園","Jusho":"秋田県秋田市雄和新波字清水木233","洪水":"◎","がけ崩れ、土石流及び地滑り":"◎","高潮":"","地震":"◎","津波":"","大規模な火事":"","内水氾濫":"","火山現象":"","指定避難所との重複":"","備考":""}},
{"type":"Feature","geometry":{"type":"Point","coordinates":[140.0643993000,39.7587519600]},"properties":{"Name":"古川町街区公園（土崎市民グラウンド）","Jusho":"秋田県秋田市土崎港西4-3-1","洪水":"◎","がけ崩れ、土石流及び地滑り":"◎","高潮":"","地震":"◎","津波":"","大規模な火事":"","内水氾濫":"","火山現象":"","指定避難所との重複":"","備考":""}},
{"type":"Feature","geometry":{"type":"Point","coordinates":[140.1239420000,39.7219559500]},"properties":{"Name":"千秋公園","Jusho":"秋田県秋田市千秋公園１","洪水":"◎","がけ崩れ、土石流及び地滑り":"","高潮":"","地震":"◎","津波":"","大規模な火事":"◎","内水氾濫":"","火山現象":"","指定避難所との重複":"","備考":""}},
{"type":"Feature","geometry":{"type":"Point","coordinates":[140.0959385595,39.7252308741]},"properties":{"Name":"八橋地区コミュニティセンター（2階和室、会議室および談話コーナー）","Jusho":"秋田県秋田市八橋本町5-2-27","洪水":"","がけ崩れ、土石流及び地滑り":"","高潮":"","地震":"","津波":"◎","大規模な火事":"","内水氾濫":"","火山現象":"","指定避難所との重複":"","備考":""}},
{"type":"Feature","geometry":{"type":"Point","coordinates":[140.0957697933,39.7252925000]},"properties":{"Name":"八橋地区コミュニティセンター（多目的ホール）","Jusho":"秋田県秋田市八橋本町5-2-27","洪水":"◎","がけ崩れ、土石流及び地滑り":"◎","高潮":"","地震":"◎","津波":"","大規模な火事":"","内水氾濫":"","火山現象":"","指定避難所との重複":"◎","備考":""}},
{"type":"Feature","geometry":{"type":"Point","coordinates":[140.1177182000,39.7082998900]},"properties":{"Name":"楢山地区コミュニティセンター","Jusho":"秋田県秋田市楢山南中町1-9","洪水":"","がけ崩れ、土石流及び地滑り":"◎","高潮":"","地震":"◎","津波":"","大規模な火事":"","内水氾濫":"","火山現象":"","指定避難所との重複":"◎","備考":""}},
{"type":"Feature","geometry":{"type":"Point","coordinates":[140.1035369000,39.7343076200]},"properties":{"Name":"泉地区コミュニティセンター","Jusho":"秋田県秋田市泉北1-20-27","洪水":"◎","がけ崩れ、土石流及び地滑り":"◎","高潮":"","地震":"◎","津波":"","大規模な火事":"","内水氾濫":"","火山現象":"","指定避難所との重複":"◎","備考":""}},
{"type":"Feature","geometry":{"type":"Point","coordinates":[140.1142770000,39.7161840000]},"properties":{"Name":"旭北地区コミュニティセンター","Jusho":"秋田県秋田市大町4-4-15","洪水":"◎","がけ崩れ、土石流及び地滑り":"◎","高潮":"","地震":"◎","津波":"","大規模な火事":"","内水氾濫":"","火山現象":"","指定避難所との重複":"◎","備考":""}},
{"type":"Feature","geometry":{"type":"Point","coordinates":[140.1179996442,39.7243504816]},"properties":{"Name":"保戸野地区コミュニティセンター","Jusho":"秋田県秋田市保戸野中町6-12","洪水":"◎","がけ崩れ、土石流及び地滑り":"◎","高潮":"","地震":"◎","津波":"","大規模な火事":"","内水氾濫":"","火山現象":"","指定避難所との重複":"◎","備考":""}},
{"type":"Feature","geometry":{"type":"Point","coordinates":[140.0971097000,39.7109758900]},"properties":{"Name":"川尻地区コミュニティセンター","Jusho":"秋田県秋田市川尻みよし町8-16","洪水":"◎","がけ崩れ、土石流及び地滑り":"◎","高潮":"","地震":"◎","津波":"","大規模な火事":"","内水氾濫":"","火山現象":"","指定避難所との重複":"◎","備考":""}},
{"type":"Feature","geometry":{"type":"Point","coordinates":[140.1088480000,39.7101230000]},"properties":{"Name":"旭南地区コミュニティセンター","Jusho":"秋田県秋田市旭南1-15-5","洪水":"","がけ崩れ、土石流及び地滑り":"◎","高潮":"","地震":"◎","津波":"","大規模な火事":"","内水氾濫":"","火山現象":"","指定避難所との重複":"◎","備考":""}},
{"type":"Feature","geometry":{"type":"Point","coordinates":[140.1029549000,39.7034383400]},"properties":{"Name":"茨島地区コミュニティセンター","Jusho":"秋田県秋田市茨島1-4-71","洪水":"","がけ崩れ、土石流及び地滑り":"◎","高潮":"","地震":"◎","津波":"","大規模な火事":"","内水氾濫":"","火山現象":"","指定避難所との重複":"◎","備考":""}},
{"type":"Feature","geometry":{"type":"Point","coordinates":[140.1212314000,39.7403709000]},"properties":{"Name":"平和公園","Jusho":"秋田県秋田市泉字五庵山135","洪水":"◎","がけ崩れ、土石流及び地滑り":"","高潮":"","地震":"◎","津波":"","大規模な火事":"","内水氾濫":"","火山現象":"","指定避難所との重複":"","備考":""}},
{"type":"Feature","geometry":{"type":"Point","coordinates":[140.0854916565,39.6770417575]},"properties":{"Name":"西部市民サービスセンター（3階各室と廊下およびホール）","Jusho":"秋田県秋田市新屋扇町13-34","洪水":"","がけ崩れ、土石流及び地滑り":"","高潮":"","地震":"","津波":"◎","大規模な火事":"","内水氾濫":"","火山現象":"","指定避難所との重複":"","備考":""}},
{"type":"Feature","geometry":{"type":"Point","coordinates":[140.0854407749,39.6772977272]},"properties":{"Name":"西部市民サービスセンター(多目的ホール）","Jusho":"秋田県秋田市新屋扇町13-34","洪水":"◎","がけ崩れ、土石流及び地滑り":"◎","高潮":"","地震":"◎","津波":"","大規模な火事":"","内水氾濫":"","火山現象":"","指定避難所との重複":"◎","備考":""}},
{"type":"Feature","geometry":{"type":"Point","coordinates":[140.0840430847,39.7012201074]},"properties":{"Name":"勝平地区コミュニティセンター","Jusho":"秋田県秋田市新屋松美ガ丘東町10-10","洪水":"◎","がけ崩れ、土石流及び地滑り":"◎","高潮":"","地震":"◎","津波":"","大規模な火事":"","内水氾濫":"","火山現象":"","指定避難所との重複":"◎","備考":""}},
{"type":"Feature","geometry":{"type":"Point","coordinates":[140.1136000000,39.6496730000]},"properties":{"Name":"豊岩地区コミュニティセンター","Jusho":"秋田県秋田市豊岩豊巻字内縄尻224-1","洪水":"","がけ崩れ、土石流及び地滑り":"◎","高潮":"","地震":"◎","津波":"","大規模な火事":"","内水氾濫":"","火山現象":"","指定避難所との重複":"◎","備考":""}},
{"type":"Feature","geometry":{"type":"Point","coordinates":[140.0636143558,39.6146597694]},"properties":{"Name":"下浜地区コミュニティセンター","Jusho":"秋田県秋田市下浜羽川字下野1-76","洪水":"◎","がけ崩れ、土石流及び地滑り":"◎","高潮":"","地震":"◎","津波":"","大規模な火事":"","内水氾濫":"","火山現象":"","指定避難所との重複":"◎","備考":""}},
{"type":"Feature","geometry":{"type":"Point","coordinates":[140.0655524970,39.7612997403]},"properties":{"Name":"北部市民サービスセンター（立体駐車場3階、庁舎3階〔フロア、バルコニー〕および屋上）","Jusho":"秋田県秋田市土崎港西5-3-１","洪水":"","がけ崩れ、土石流及び地滑り":"","高潮":"","地震":"","津波":"◎","大規模な火事":"","内水氾濫":"","火山現象":"","指定避難所との重複":"","備考":""}},
{"type":"Feature","geometry":{"type":"Point","coordinates":[140.0652446724,39.7606985400]},"properties":{"Name":"北部市民サービスセンター(体育館）","Jusho":"秋田県秋田市土崎港西5-3-１","洪水":"◎","がけ崩れ、土石流及び地滑り":"◎","高潮":"","地震":"◎","津波":"","大規模な火事":"","内水氾濫":"","火山現象":"","指定避難所との重複":"◎","備考":""}},
{"type":"Feature","geometry":{"type":"Point","coordinates":[140.0729680000,39.7722252400]},"properties":{"Name":"飯島地区コミュニティセンター敷地","Jusho":"秋田県秋田市飯島松根東町地内","洪水":"◎","がけ崩れ、土石流及び地滑り":"◎","高潮":"","地震":"◎","津波":"◎","大規模な火事":"","内水氾濫":"","火山現象":"","指定避難所との重複":"","備考":""}},
{"type":"Feature","geometry":{"type":"Point","coordinates":[140.0829197000,39.7353620200]},"properties":{"Name":"寺内地区コミュニティセンター敷地","Jusho":"秋田県秋田市寺内神屋敷地内","洪水":"◎","がけ崩れ、土石流及び地滑り":"◎","高潮":"","地震":"◎","津波":"◎","大規模な火事":"","内水氾濫":"","火山現象":"","指定避難所との重複":"","備考":""}},
{"type":"Feature","geometry":{"type":"Point","coordinates":[140.1188779000,39.7944507000]},"properties":{"Name":"上新城地域センター","Jusho":"秋田県秋田市上新城五十丁字小林88-5","洪水":"","がけ崩れ、土石流及び地滑り":"","高潮":"","地震":"◎","津波":"","大規模な火事":"","内水氾濫":"","火山現象":"","指定避難所との重複":"◎","備考":""}},
{"type":"Feature","geometry":{"type":"Point","coordinates":[140.0668060000,39.8232790000]},"properties":{"Name":"金足地域センター","Jusho":"秋田県秋田市金足小泉字上前55","洪水":"◎","がけ崩れ、土石流及び地滑り":"◎","高潮":"","地震":"◎","津波":"","大規模な火事":"","内水氾濫":"","火山現象":"","指定避難所との重複":"◎","備考":""}},
{"type":"Feature","geometry":{"type":"Point","coordinates":[140.0732370000,39.7720842600]},"properties":{"Name":"飯島地区コミュニティセンター","Jusho":"秋田県秋田市飯島松根東町5-22","洪水":"◎","がけ崩れ、土石流及び地滑り":"◎","高潮":"","地震":"◎","津波":"","大規模な火事":"","内水氾濫":"","火山現象":"","指定避難所との重複":"◎","備考":""}},
{"type":"Feature","geometry":{"type":"Point","coordinates":[140.0828155000,39.7351376200]},"properties":{"Name":"寺内地区コミュニティセンター","Jusho":"秋田県秋田市寺内神屋敷13-23","洪水":"◎","がけ崩れ、土石流及び地滑り":"◎","高潮":"","地震":"◎","津波":"","大規模な火事":"","内水氾濫":"","火山現象":"","指定避難所との重複":"◎","備考":""}},
{"type":"Feature","geometry":{"type":"Point","coordinates":[140.1014446000,39.7494336200]},"properties":{"Name":"外旭川地域センター","Jusho":"秋田県秋田市外旭川字四百刈76","洪水":"◎","がけ崩れ、土石流及び地滑り":"◎","高潮":"","地震":"◎","津波":"","大規模な火事":"","内水氾濫":"","火山現象":"","指定避難所との重複":"◎","備考":""}},
{"type":"Feature","geometry":{"type":"Point","coordinates":[140.0864618000,39.7470701300]},"properties":{"Name":"将軍野地区コミュニティセンター","Jusho":"秋田県秋田市将軍野南4-8-8","洪水":"◎","がけ崩れ、土石流及び地滑り":"◎","高潮":"","地震":"◎","津波":"","大規模な火事":"","内水氾濫":"","火山現象":"","指定避難所との重複":"◎","備考":""}},
{"type":"Feature","geometry":{"type":"Point","coordinates":[140.0776710000,39.7992130000]},"properties":{"Name":"下新城地区コミュニティセンター","Jusho":"秋田県秋田市下新城笠岡字堰場193-4","洪水":"","がけ崩れ、土石流及び地滑り":"◎","高潮":"","地震":"◎","津波":"","大規模な火事":"","内水氾濫":"","火山現象":"","指定避難所との重複":"◎","備考":""}},
{"type":"Feature","geometry":{"type":"Point","coordinates":[140.0823679153,39.7650355182]},"properties":{"Name":"港北地区コミュニティセンター","Jusho":"秋田県秋田市土崎港北3-7-9","洪水":"◎","がけ崩れ、土石流及び地滑り":"◎","高潮":"","地震":"◎","津波":"","大規模な火事":"","内水氾濫":"","火山現象":"","指定避難所との重複":"◎","備考":""}},
{"type":"Feature","geometry":{"type":"Point","coordinates":[140.1353193000,39.6729092900]},"properties":{"Name":"南部市民サービスセンター(多目的ホール）","Jusho":"秋田県秋田市御野場1-5-1","洪水":"","がけ崩れ、土石流及び地滑り":"◎","高潮":"","地震":"◎","津波":"","大規模な火事":"","内水氾濫":"","火山現象":"","指定避難所との重複":"◎","備考":""}},
{"type":"Feature","geometry":{"type":"Point","coordinates":[140.1612999000,39.6849064100]},"properties":{"Name":"上北手地区コミュニティセンター","Jusho":"秋田県秋田市上北手猿田字四ツ小屋29-1","洪水":"◎","がけ崩れ、土石流及び地滑り":"","高潮":"","地震":"◎","津波":"","大規模な火事":"","内水氾濫":"","火山現象":"","指定避難所との重複":"◎","備考":""}},
{"type":"Feature","geometry":{"type":"Point","coordinates":[140.1100419000,39.6861680000]},"properties":{"Name":"大住地区コミュニティセンター","Jusho":"秋田県秋田市仁井田字西潟敷463","洪水":"","がけ崩れ、土石流及び地滑り":"◎","高潮":"","地震":"◎","津波":"","大規模な火事":"","内水氾濫":"","火山現象":"","指定避難所との重複":"◎","備考":""}},
{"type":"Feature","geometry":{"type":"Point","coordinates":[140.1578628000,39.6208225800]},"properties":{"Name":"長者やま荘（雄和地区北部コミュニティ施設）","Jusho":"秋田県秋田市雄和椿川字長者屋敷38-1","洪水":"◎","がけ崩れ、土石流及び地滑り":"◎","高潮":"","地震":"◎","津波":"","大規模な火事":"","内水氾濫":"","火山現象":"","指定避難所との重複":"◎","備考":""}},
{"type":"Feature","geometry":{"type":"Point","coordinates":[140.1705980614,39.5911732466]},"properties":{"Name":"雄和市民サービスセンタ-","Jusho":"秋田県秋田市雄和妙法字上大部48-1","洪水":"","がけ崩れ、土石流及び地滑り":"◎","高潮":"","地震":"◎","津波":"","大規模な火事":"","内水氾濫":"","火山現象":"","指定避難所との重複":"◎","備考":""}},
{"type":"Feature","geometry":{"type":"Point","coordinates":[140.2343228000,39.5260441700]},"properties":{"Name":"雄和基幹集落センター（大正寺連絡所）","Jusho":"秋田県秋田市雄和新波字樋口62-2","洪水":"","がけ崩れ、土石流及び地滑り":"◎","高潮":"","地震":"◎","津波":"","大規模な火事":"","内水氾濫":"","火山現象":"","指定避難所との重複":"◎","備考":""}},
{"type":"Feature","geometry":{"type":"Point","coordinates":[140.2153119000,39.6528198600]},"properties":{"Name":"河辺市民サービスセンター","Jusho":"秋田県秋田市河辺和田字北条ヶ崎38-2","洪水":"◎","がけ崩れ、土石流及び地滑り":"◎","高潮":"","地震":"◎","津波":"","大規模な火事":"","内水氾濫":"","火山現象":"","指定避難所との重複":"◎","備考":""}},
{"type":"Feature","geometry":{"type":"Point","coordinates":[140.2868959000,39.7066445100]},"properties":{"Name":"河辺岩見三内地区コミュニティセンター","Jusho":"秋田県秋田市河辺三内字外川原34-1","洪水":"","がけ崩れ、土石流及び地滑り":"◎","高潮":"","地震":"◎","津波":"","大規模な火事":"","内水氾濫":"","火山現象":"","指定避難所との重複":"◎","備考":""}},
{"type":"Feature","geometry":{"type":"Point","coordinates":[140.2186680307,39.6510139755]},"properties":{"Name":"和田駅前駐車場","Jusho":"秋田県秋田市河辺和田字上中野129","洪水":"◎","がけ崩れ、土石流及び地滑り":"◎","高潮":"","地震":"◎","津波":"","大規模な火事":"","内水氾濫":"","火山現象":"","指定避難所との重複":"","備考":""}},
{"type":"Feature","geometry":{"type":"Point","coordinates":[140.1730720000,39.7181740000]},"properties":{"Name":"下北手地区コミュニティセンター","Jusho":"秋田県秋田市下北手柳館字前田面133-1","洪水":"◎","がけ崩れ、土石流及び地滑り":"◎","高潮":"","地震":"◎","津波":"","大規模な火事":"","内水氾濫":"","火山現象":"","指定避難所との重複":"◎","備考":""}},
{"type":"Feature","geometry":{"type":"Point","coordinates":[140.1989701000,39.7306072500]},"properties":{"Name":"太平地区コミュニティセンター","Jusho":"秋田県秋田市太平目長崎字沼田42","洪水":"","がけ崩れ、土石流及び地滑り":"","高潮":"","地震":"◎","津波":"","大規模な火事":"","内水氾濫":"","火山現象":"","指定避難所との重複":"◎","備考":""}},
{"type":"Feature","geometry":{"type":"Point","coordinates":[140.1328399000,39.7382156800]},"properties":{"Name":"旭川地区コミュニティセンター","Jusho":"秋田県秋田市手形字才ノ浜51-2","洪水":"◎","がけ崩れ、土石流及び地滑り":"","高潮":"","地震":"◎","津波":"","大規模な火事":"","内水氾濫":"","火山現象":"","指定避難所との重複":"◎","備考":""}},
{"type":"Feature","geometry":{"type":"Point","coordinates":[140.1412450000,39.7109440000]},"properties":{"Name":"東地区コミュニティセンター","Jusho":"秋田県秋田市広面字鬼頭38","洪水":"","がけ崩れ、土石流及び地滑り":"◎","高潮":"","地震":"◎","津波":"","大規模な火事":"","内水氾濫":"","火山現象":"","指定避難所との重複":"◎","備考":""}},
{"type":"Feature","geometry":{"type":"Point","coordinates":[140.1302860000,39.7260780000]},"properties":{"Name":"明徳地区コミュニティセンター","Jusho":"秋田県秋田市手形住吉町2-27","洪水":"◎","がけ崩れ、土石流及び地滑り":"◎","高潮":"","地震":"◎","津波":"","大規模な火事":"","内水氾濫":"","火山現象":"","指定避難所との重複":"◎","備考":""}},
{"type":"Feature","geometry":{"type":"Point","coordinates":[140.1518749000,39.7241420700]},"properties":{"Name":"東部市民サービスセンター","Jusho":"秋田県秋田市広面字釣瓶町13-3","洪水":"◎","がけ崩れ、土石流及び地滑り":"◎","高潮":"","地震":"◎","津波":"","大規模な火事":"","内水氾濫":"","火山現象":"","指定避難所との重複":"◎","備考":""}},
{"type":"Feature","geometry":{"type":"Point","coordinates":[140.1312655000,39.7158400000]},"properties":{"Name":"秋田市民交流プラザ","Jusho":"秋田県秋田市東通仲町4-1","洪水":"◎","がけ崩れ、土石流及び地滑り":"◎","高潮":"","地震":"◎","津波":"","大規模な火事":"","内水氾濫":"","火山現象":"","指定避難所との重複":"◎","備考":""}},
{"type":"Feature","geometry":{"type":"Point","coordinates":[140.1959661000,39.6273590900]},"properties":{"Name":"雄和サイクリングターミナル","Jusho":"秋田県秋田市雄和椿川字奥椿岱145-2","洪水":"◎","がけ崩れ、土石流及び地滑り":"◎","高潮":"","地震":"◎","津波":"","大規模な火事":"","内水氾濫":"","火山現象":"","指定避難所との重複":"◎","備考":""}},
{"type":"Feature","geometry":{"type":"Point","coordinates":[140.0917101001,39.6866028528]},"properties":{"Name":"秋田公立美術大学（講義棟2階の各室と通路）","Jusho":"秋田県秋田市新屋大川町12-3","洪水":"","がけ崩れ、土石流及び地滑り":"","高潮":"","地震":"","津波":"◎","大規模な火事":"","内水氾濫":"","火山現象":"","指定避難所との重複":"","備考":""}},
{"type":"Feature","geometry":{"type":"Point","coordinates":[140.0914232062,39.6856593796]},"properties":{"Name":"秋田公立美術大学","Jusho":"秋田県秋田市新屋大川町12-3","洪水":"◎","がけ崩れ、土石流及び地滑り":"◎","高潮":"","地震":"◎","津波":"","大規模な火事":"","内水氾濫":"","火山現象":"","指定避難所との重複":"◎","備考":""}},
{"type":"Feature","geometry":{"type":"Point","coordinates":[140.0912971000,39.6849740900]},"properties":{"Name":"秋田公立美術大学グラウンド","Jusho":"秋田県秋田市新屋大川町12-3","洪水":"◎","がけ崩れ、土石流及び地滑り":"◎","高潮":"","地震":"◎","津波":"","大規模な火事":"","内水氾濫":"","火山現象":"","指定避難所との重複":"","備考":""}},
{"type":"Feature","geometry":{"type":"Point","coordinates":[140.0725867000,39.6709641900]},"properties":{"Name":"大森山老人と子どもの家","Jusho":"秋田県秋田市浜田字出小屋333-1","洪水":"◎","がけ崩れ、土石流及び地滑り":"","高潮":"","地震":"","津波":"","大規模な火事":"","内水氾濫":"","火山現象":"","指定避難所との重複":"◎","備考":""}},
{"type":"Feature","geometry":{"type":"Point","coordinates":[140.3163565540,39.7414122481]},"properties":{"Name":"秋田市河辺高齢者健康づくりセンター（ユフォーレ体育館）","Jusho":"秋田県秋田市河辺三内字丸舞1-1","洪水":"◎","がけ崩れ、土石流及び地滑り":"◎","高潮":"","地震":"◎","津波":"","大規模な火事":"","内水氾濫":"","火山現象":"","指定避難所との重複":"◎","備考":""}},
{"type":"Feature","geometry":{"type":"Point","coordinates":[140.1706908393,39.5916356291]},"properties":{"Name":"雄和ふれあいプラザ敷地(一部）","Jusho":"秋田県秋田市雄和妙法字上大部46、47-2","洪水":"","がけ崩れ、土石流及び地滑り":"◎","高潮":"","地震":"◎","津波":"","大規模な火事":"","内水氾濫":"","火山現象":"","指定避難所との重複":"","備考":""}},
{"type":"Feature","geometry":{"type":"Point","coordinates":[140.2124684000,39.6529178600]},"properties":{"Name":"河辺総合福祉交流センター","Jusho":"秋田県秋田市河辺北野田高屋字上前田表66-1","洪水":"◎","がけ崩れ、土石流及び地滑り":"◎","高潮":"","地震":"◎","津波":"","大規模な火事":"","内水氾濫":"","火山現象":"","指定避難所との重複":"◎","備考":""}},
{"type":"Feature","geometry":{"type":"Point","coordinates":[140.2129214000,39.6525958400]},"properties":{"Name":"河辺総合福祉交流センター駐車場","Jusho":"秋田県秋田市河辺北野田高屋字上前田表66-1","洪水":"◎","がけ崩れ、土石流及び地滑り":"◎","高潮":"","地震":"◎","津波":"","大規模な火事":"","内水氾濫":"","火山現象":"","指定避難所との重複":"","備考":""}},
{"type":"Feature","geometry":{"type":"Point","coordinates":[140.0636688737,39.8002219132]},"properties":{"Name":"北部公民館","Jusho":"秋田県秋田市下新城中野字前谷地263","洪水":"","がけ崩れ、土石流及び地滑り":"◎","高潮":"","地震":"","津波":"","大規模な火事":"","内水氾濫":"","火山現象":"","指定避難所との重複":"◎","備考":""}},
{"type":"Feature","geometry":{"type":"Point","coordinates":[140.1035599749,39.7199204971]},"properties":{"Name":"中央市民サービスセンター（多目的ホール）","Jusho":"秋田県秋田市山王1-1-1","洪水":"◎","がけ崩れ、土石流及び地滑り":"◎","高潮":"","地震":"◎","津波":"","大規模な火事":"","内水氾濫":"","火山現象":"","指定避難所との重複":"◎","備考":""}},
{"type":"Feature","geometry":{"type":"Point","coordinates":[140.1557190754,39.7095129220]},"properties":{"Name":"桜地区コミュニティセンター（多目的ホール）","Jusho":"秋田県秋田市桜台1-1-4","洪水":"◎","がけ崩れ、土石流及び地滑り":"◎","高潮":"","地震":"◎","津波":"","大規模な火事":"","内水氾濫":"","火山現象":"","指定避難所との重複":"◎","備考":""}},
{"type":"Feature","geometry":{"type":"Point","coordinates":[140.1705197630,39.5930561991]},"properties":{"Name":"雄和小学校（体育館）","Jusho":"秋田県秋田市雄和石田字蟹沢40","洪水":"◎","がけ崩れ、土石流及び地滑り":"","高潮":"","地震":"◎","津波":"","大規模な火事":"","内水氾濫":"","火山現象":"","指定避難所との重複":"◎","備考":""}},
{"type":"Feature","geometry":{"type":"Point","coordinates":[140.1103192085,39.7317365041]},"properties":{"Name":"秋操近隣公園","Jusho":"秋田県秋田市泉中央6-3","洪水":"◎","がけ崩れ、土石流及び地滑り":"◎","高潮":"","地震":"◎","津波":"◎","大規模な火事":"","内水氾濫":"","火山現象":"","指定避難所との重複":"","備考":""}},
{"type":"Feature","geometry":{"type":"Point","coordinates":[140.1345184566,39.7343662682]},"properties":{"Name":"秋田県立秋田高等学校陸上競技場","Jusho":"秋田県秋田市手形字中台1","洪水":"◎","がけ崩れ、土石流及び地滑り":"◎","高潮":"","地震":"◎","津波":"","大規模な火事":"","内水氾濫":"","火山現象":"","指定避難所との重複":"","備考":""}},
{"type":"Feature","geometry":{"type":"Point","coordinates":[140.0585401825,39.8150851280]},"properties":{"Name":"秋田県立金足農業高等学校野球場・ラクビー場","Jusho":"秋田県秋田市金足追分字海老穴102ー4","洪水":"◎","がけ崩れ、土石流及び地滑り":"◎","高潮":"","地震":"◎","津波":"◎","大規模な火事":"","内水氾濫":"","火山現象":"","指定避難所との重複":"","備考":""}},
{"type":"Feature","geometry":{"type":"Point","coordinates":[140.1213773936,39.6905693308]},"properties":{"Name":"秋田県立秋田南高等学校陸上競技場","Jusho":"秋田県秋田市仁井田緑町4-1","洪水":"","がけ崩れ、土石流及び地滑り":"◎","高潮":"","地震":"◎","津波":"◎","大規模な火事":"","内水氾濫":"","火山現象":"","指定避難所との重複":"","備考":""}},
{"type":"Feature","geometry":{"type":"Point","coordinates":[140.1222808698,39.7274614575]},"properties":{"Name":"秋田県立秋田北高等学校グラウンド","Jusho":"秋田県秋田市千秋中島町8-1","洪水":"◎","がけ崩れ、土石流及び地滑り":"◎","高潮":"","地震":"◎","津波":"◎","大規模な火事":"","内水氾濫":"","火山現象":"","指定避難所との重複":"","備考":""}},
{"type":"Feature","geometry":{"type":"Point","coordinates":[140.0771605749,39.7437823038]},"properties":{"Name":"秋田県立秋田中央高等学校野球場・ラクビー場","Jusho":"秋田県秋田市土崎港南3ー2-78","洪水":"◎","がけ崩れ、土石流及び地滑り":"◎","高潮":"","地震":"◎","津波":"◎","大規模な火事":"","内水氾濫":"","火山現象":"","指定避難所との重複":"","備考":""}},
{"type":"Feature","geometry":{"type":"Point","coordinates":[140.1218516397,39.7311383322]},"properties":{"Name":"秋田県立秋田工業高等学校多目的グラウンド","Jusho":"秋田県秋田市保戸野金砂町3-1","洪水":"◎","がけ崩れ、土石流及び地滑り":"◎","高潮":"","地震":"◎","津波":"◎","大規模な火事":"","内水氾濫":"","火山現象":"","指定避難所との重複":"","備考":""}},
{"type":"Feature","geometry":{"type":"Point","coordinates":[140.1548261298,39.6850009366]},"properties":{"Name":"学校法人日本赤十字学園日本赤十字秋田看護大学・日本赤十字秋田短期大学グラウンド","Jusho":"秋田県秋田市上北手猿田字苗代沢17-3","洪水":"◎","がけ崩れ、土石流及び地滑り":"◎","高潮":"","地震":"◎","津波":"◎","大規模な火事":"","内水氾濫":"","火山現象":"","指定避難所との重複":"","備考":""}},
{"type":"Feature","geometry":{"type":"Point","coordinates":[140.1560187891,39.6655897803]},"properties":{"Name":"秋田県中央地区老人福祉総合エリア駐車場","Jusho":"秋田県秋田市御所野下堤5-1-1","洪水":"◎","がけ崩れ、土石流及び地滑り":"◎","高潮":"","地震":"◎","津波":"◎","大規模な火事":"","内水氾濫":"","火山現象":"","指定避難所との重複":"","備考":""}},
{"type":"Feature","geometry":{"type":"Point","coordinates":[140.3176912189,39.7416789800]},"properties":{"Name":"秋田県健康増進交流センター駐車場","Jusho":"秋田県秋田市河辺三内字丸舞1-1","洪水":"◎","がけ崩れ、土石流及び地滑り":"◎","高潮":"","地震":"◎","津波":"◎","大規模な火事":"","内水氾濫":"","火山現象":"","指定避難所との重複":"","備考":""}},
{"type":"Feature","geometry":{"type":"Point","coordinates":[140.1944964660,39.5748224796]},"properties":{"Name":"秋田県農業試験場駐車場第1駐車場","Jusho":"秋田県秋田市雄和相川字源八沢34-1","洪水":"◎","がけ崩れ、土石流及び地滑り":"◎","高潮":"","地震":"◎","津波":"◎","大規模な火事":"","内水氾濫":"","火山現象":"","指定避難所との重複":"","備考":""}},
{"type":"Feature","geometry":{"type":"Point","coordinates":[140.1560410274,39.6895882044]},"properties":{"Name":"秋田県立秋田きらり支援学校グラウンド","Jusho":"秋田県秋田市上北手百崎諏訪ノ沢3-127","洪水":"◎","がけ崩れ、土石流及び地滑り":"◎","高潮":"","地震":"◎","津波":"◎","大規模な火事":"","内水氾濫":"","火山現象":"","指定避難所との重複":"","備考":""}},
{"type":"Feature","geometry":{"type":"Point","coordinates":[140.1318468185,39.7279632956]},"properties":{"Name":"国立大学法人秋田大学陸上競技場","Jusho":"秋田市手形住吉町６","洪水":"◎","がけ崩れ、土石流及び地滑り":"◎","高潮":"","地震":"◎","津波":"◎","大規模な火事":"","内水氾濫":"","火山現象":"","指定避難所との重複":"","備考":""}},
{"type":"Feature","geometry":{"type":"Point","coordinates":[140.1335097881,39.7299931140]},"properties":{"Name":"国立大学法人秋田大学野球場","Jusho":"秋田市手形学園町１","洪水":"◎","がけ崩れ、土石流及び地滑り":"◎","高潮":"","地震":"◎","津波":"◎","大規模な火事":"","内水氾濫":"","火山現象":"","指定避難所との重複":"","備考":""}},
{"type":"Feature","geometry":{"type":"Point","coordinates":[140.1159561205,39.7261928379]},"properties":{"Name":"国立大学法人秋田大学附属中学校屋外運動場","Jusho":"秋田市保戸野原の町7-75","洪水":"◎","がけ崩れ、土石流及び地滑り":"◎","高潮":"","地震":"◎","津波":"◎","大規模な火事":"","内水氾濫":"","火山現象":"","指定避難所との重複":"","備考":""}},
{"type":"Feature","geometry":{"type":"Point","coordinates":[140.0199651000,40.2096747200]},"properties":{"Name":"渟城西小学校グラウンド","Jusho":"秋田県能代市盤若町2-1","洪水":"◎","がけ崩れ、土石流及び地滑り":"◎","高潮":"◎","地震":"◎","津波":"","大規模な火事":"◎","内水氾濫":"◎","火山現象":"","指定避難所との重複":"","備考":""}},
{"type":"Feature","geometry":{"type":"Point","coordinates":[140.0287469000,40.2049897200]},"properties":{"Name":"渟城南小学校グラウンド","Jusho":"秋田県能代市若松町2-24","洪水":"◎","がけ崩れ、土石流及び地滑り":"◎","高潮":"◎","地震":"◎","津波":"◎","大規模な火事":"◎","内水氾濫":"◎","火山現象":"","指定避難所との重複":"","備考":""}},
{"type":"Feature","geometry":{"type":"Point","coordinates":[140.0311249000,40.1881779000]},"properties":{"Name":"第四小学校グラウンド","Jusho":"秋田県能代市字藤山3","洪水":"◎","がけ崩れ、土石流及び地滑り":"◎","高潮":"◎","地震":"◎","津波":"◎","大規模な火事":"◎","内水氾濫":"◎","火山現象":"","指定避難所との重複":"","備考":""}},
{"type":"Feature","geometry":{"type":"Point","coordinates":[140.0155628000,40.2129050400]},"properties":{"Name":"能代第一中学校グラウンド","Jusho":"秋田県能代市盤若町8-11","洪水":"◎","がけ崩れ、土石流及び地滑り":"◎","高潮":"◎","地震":"◎","津波":"◎","大規模な火事":"◎","内水氾濫":"◎","火山現象":"","指定避難所との重複":"","備考":""}},
{"type":"Feature","geometry":{"type":"Point","coordinates":[140.0312397000,40.1943094200]},"properties":{"Name":"能代第二中学校グラウンド","Jusho":"秋田県能代市字豊祥岱1-46","洪水":"◎","がけ崩れ、土石流及び地滑り":"◎","高潮":"◎","地震":"◎","津波":"◎","大規模な火事":"◎","内水氾濫":"◎","火山現象":"","指定避難所との重複":"","備考":""}},
{"type":"Feature","geometry":{"type":"Point","coordinates":[140.0327500000,40.1962127100]},"properties":{"Name":"能代松陽高等学校グラウンド","Jusho":"秋田県能代市緑町4-7","洪水":"","がけ崩れ、土石流及び地滑り":"◎","高潮":"◎","地震":"◎","津波":"◎","大規模な火事":"◎","内水氾濫":"◎","火山現象":"","指定避難所との重複":"","備考":""}},
{"type":"Feature","geometry":{"type":"Point","coordinates":[140.0470416000,40.1828622600]},"properties":{"Name":"能代高等学校グラウンド","Jusho":"秋田県能代市字高塙2-1","洪水":"◎","がけ崩れ、土石流及び地滑り":"◎","高潮":"◎","地震":"◎","津波":"◎","大規模な火事":"◎","内水氾濫":"◎","火山現象":"","指定避難所との重複":"","備考":""}},
{"type":"Feature","geometry":{"type":"Point","coordinates":[140.0303477000,40.2051312800]},"properties":{"Name":"旧能代北高等学校","Jusho":"秋田県能代市追分町1-36","洪水":"◎","がけ崩れ、土石流及び地滑り":"◎","高潮":"◎","地震":"◎","津波":"◎","大規模な火事":"◎","内水氾濫":"◎","火山現象":"","指定避難所との重複":"","備考":""}},
{"type":"Feature","geometry":{"type":"Point","coordinates":[140.0178656000,40.2104737600]},"properties":{"Name":"能代工業高等学校グラウンド","Jusho":"秋田県能代市盤若町3-1","洪水":"◎","がけ崩れ、土石流及び地滑り":"◎","高潮":"◎","地震":"◎","津波":"","大規模な火事":"◎","内水氾濫":"◎","火山現象":"","指定避難所との重複":"","備考":""}},
{"type":"Feature","geometry":{"type":"Point","coordinates":[140.0307585000,40.2127057300]},"properties":{"Name":"能代ふれあいプラザサンピノ","Jusho":"秋田県能代市上町12-32","洪水":"◎","がけ崩れ、土石流及び地滑り":"◎","高潮":"◎","地震":"◎","津波":"◎","大規模な火事":"◎","内水氾濫":"◎","火山現象":"","指定避難所との重複":"◎","備考":""}},
{"type":"Feature","geometry":{"type":"Point","coordinates":[140.0290217000,40.2026002600]},"properties":{"Name":"中央公民館広場","Jusho":"秋田県能代市追分町4-26","洪水":"◎","がけ崩れ、土石流及び地滑り":"◎","高潮":"◎","地震":"◎","津波":"◎","大規模な火事":"◎","内水氾濫":"◎","火山現象":"","指定避難所との重複":"","備考":""}},
{"type":"Feature","geometry":{"type":"Point","coordinates":[140.0160270000,40.2107189200]},"properties":{"Name":"市営陸上競技場","Jusho":"秋田県能代市末広町66-1","洪水":"◎","がけ崩れ、土石流及び地滑り":"◎","高潮":"◎","地震":"◎","津波":"","大規模な火事":"◎","内水氾濫":"◎","火山現象":"","指定避難所との重複":"","備考":""}},
{"type":"Feature","geometry":{"type":"Point","coordinates":[140.0187069000,40.2126202300]},"properties":{"Name":"能代公園","Jusho":"秋田県能代市清助町25外","洪水":"◎","がけ崩れ、土石流及び地滑り":"◎","高潮":"◎","地震":"◎","津波":"◎","大規模な火事":"◎","内水氾濫":"◎","火山現象":"","指定避難所との重複":"","備考":""}},
{"type":"Feature","geometry":{"type":"Point","coordinates":[140.0271048000,40.2158524200]},"properties":{"Name":"能代河畔公園","Jusho":"秋田県能代市万町136外","洪水":"","がけ崩れ、土石流及び地滑り":"◎","高潮":"◎","地震":"◎","津波":"","大規模な火事":"◎","内水氾濫":"◎","火山現象":"","指定避難所との重複":"","備考":""}},
{"type":"Feature","geometry":{"type":"Point","coordinates":[140.0312837000,40.2158831400]},"properties":{"Name":"川端街区公園","Jusho":"秋田県能代市万町213外","洪水":"◎","がけ崩れ、土石流及び地滑り":"◎","高潮":"◎","地震":"◎","津波":"","大規模な火事":"◎","内水氾濫":"◎","火山現象":"","指定避難所との重複":"","備考":""}},
{"type":"Feature","geometry":{"type":"Point","coordinates":[140.0272092000,40.2140375300]},"properties":{"Name":"大町街区公園","Jusho":"秋田県能代市大町148-2外","洪水":"◎","がけ崩れ、土石流及び地滑り":"◎","高潮":"◎","地震":"◎","津波":"","大規模な火事":"◎","内水氾濫":"◎","火山現象":"","指定避難所との重複":"","備考":""}},
{"type":"Feature","geometry":{"type":"Point","coordinates":[140.0254591000,40.2116450300]},"properties":{"Name":"中央近隣公園","Jusho":"秋田県能代市上町152","洪水":"◎","がけ崩れ、土石流及び地滑り":"◎","高潮":"◎","地震":"◎","津波":"","大規模な火事":"◎","内水氾濫":"◎","火山現象":"","指定避難所との重複":"","備考":""}},
{"type":"Feature","geometry":{"type":"Point","coordinates":[140.0303360000,40.2113337000]},"properties":{"Name":"富町街区公園","Jusho":"秋田県能代市富町197","洪水":"◎","がけ崩れ、土石流及び地滑り":"◎","高潮":"◎","地震":"◎","津波":"","大規模な火事":"◎","内水氾濫":"◎","火山現象":"","指定避難所との重複":"","備考":""}},
{"type":"Feature","geometry":{"type":"Point","coordinates":[140.0303091000,40.2107806500]},"properties":{"Name":"富町小街区公園","Jusho":"秋田県能代市富町193","洪水":"◎","がけ崩れ、土石流及び地滑り":"◎","高潮":"◎","地震":"◎","津波":"","大規模な火事":"◎","内水氾濫":"◎","火山現象":"","指定避難所との重複":"","備考":""}},
{"type":"Feature","geometry":{"type":"Point","coordinates":[140.0365140000,40.2110692600]},"properties":{"Name":"井坂街区公園","Jusho":"秋田県能代市御指南町24外","洪水":"◎","がけ崩れ、土石流及び地滑り":"◎","高潮":"◎","地震":"◎","津波":"◎","大規模な火事":"◎","内水氾濫":"◎","火山現象":"","指定避難所との重複":"","備考":""}},
{"type":"Feature","geometry":{"type":"Point","coordinates":[140.0279508000,40.2084425700]},"properties":{"Name":"柳町街区公園","Jusho":"秋田県能代市柳町167","洪水":"◎","がけ崩れ、土石流及び地滑り":"◎","高潮":"◎","地震":"◎","津波":"","大規模な火事":"◎","内水氾濫":"◎","火山現象":"","指定避難所との重複":"","備考":""}},
{"type":"Feature","geometry":{"type":"Point","coordinates":[140.0228413000,40.2080916000]},"properties":{"Name":"出戸町街区公園","Jusho":"秋田県能代市西通町172","洪水":"◎","がけ崩れ、土石流及び地滑り":"◎","高潮":"◎","地震":"◎","津波":"","大規模な火事":"◎","内水氾濫":"◎","火山現象":"","指定避難所との重複":"","備考":""}},
{"type":"Feature","geometry":{"type":"Point","coordinates":[140.0196525000,40.2072562600]},"properties":{"Name":"大正町街区公園","Jusho":"秋田県能代市末広町273","洪水":"◎","がけ崩れ、土石流及び地滑り":"◎","高潮":"◎","地震":"◎","津波":"◎","大規模な火事":"◎","内水氾濫":"◎","火山現象":"","指定避難所との重複":"","備考":""}},
{"type":"Feature","geometry":{"type":"Point","coordinates":[140.0171339000,40.2074385700]},"properties":{"Name":"萩の台街区公園","Jusho":"秋田県能代市末広町298","洪水":"◎","がけ崩れ、土石流及び地滑り":"◎","高潮":"◎","地震":"◎","津波":"◎","大規模な火事":"◎","内水氾濫":"◎","火山現象":"","指定避難所との重複":"","備考":""}},
{"type":"Feature","geometry":{"type":"Point","coordinates":[140.0238293000,40.2056064900]},"properties":{"Name":"栄町街区公園","Jusho":"秋田県能代市栄町274","洪水":"◎","がけ崩れ、土石流及び地滑り":"◎","高潮":"◎","地震":"◎","津波":"","大規模な火事":"◎","内水氾濫":"◎","火山現象":"","指定避難所との重複":"","備考":""}},
{"type":"Feature","geometry":{"type":"Point","coordinates":[140.0203899000,40.2038259900]},"properties":{"Name":"昭南町街区公園","Jusho":"秋田県能代市昭南町113","洪水":"◎","がけ崩れ、土石流及び地滑り":"◎","高潮":"◎","地震":"◎","津波":"◎","大規模な火事":"◎","内水氾濫":"◎","火山現象":"","指定避難所との重複":"","備考":""}},
{"type":"Feature","geometry":{"type":"Point","coordinates":[140.0240865000,40.2026943400]},"properties":{"Name":"花園街区公園","Jusho":"秋田県能代市花園町1","洪水":"◎","がけ崩れ、土石流及び地滑り":"◎","高潮":"◎","地震":"◎","津波":"◎","大規模な火事":"◎","内水氾濫":"◎","火山現象":"","指定避難所との重複":"","備考":""}},
{"type":"Feature","geometry":{"type":"Point","coordinates":[140.0251280000,40.1994424300]},"properties":{"Name":"出戸街区公園","Jusho":"秋田県能代市出戸本町187","洪水":"◎","がけ崩れ、土石流及び地滑り":"◎","高潮":"◎","地震":"◎","津波":"◎","大規模な火事":"◎","内水氾濫":"◎","火山現象":"","指定避難所との重複":"","備考":""}},
{"type":"Feature","geometry":{"type":"Point","coordinates":[140.0265603000,40.1979673700]},"properties":{"Name":"出戸小街区公園","Jusho":"秋田県能代市出戸本町248","洪水":"◎","がけ崩れ、土石流及び地滑り":"◎","高潮":"◎","地震":"◎","津波":"◎","大規模な火事":"◎","内水氾濫":"◎","火山現象":"","指定避難所との重複":"","備考":""}},
{"type":"Feature","geometry":{"type":"Point","coordinates":[140.0341505000,40.2010377200]},"properties":{"Name":"明治町街区公園","Jusho":"秋田県能代市明治町126","洪水":"◎","がけ崩れ、土石流及び地滑り":"◎","高潮":"◎","地震":"◎","津波":"◎","大規模な火事":"◎","内水氾濫":"◎","火山現象":"","指定避難所との重複":"","備考":""}},
{"type":"Feature","geometry":{"type":"Point","coordinates":[140.0354122000,40.1890511600]},"properties":{"Name":"大瀬街区公園","Jusho":"秋田県能代市字大瀬儘下21-7","洪水":"◎","がけ崩れ、土石流及び地滑り":"◎","高潮":"◎","地震":"◎","津波":"◎","大規模な火事":"◎","内水氾濫":"◎","火山現象":"","指定避難所との重複":"","備考":""}},
{"type":"Feature","geometry":{"type":"Point","coordinates":[140.0170161000,40.2117824000]},"properties":{"Name":"市民球場","Jusho":"秋田県能代市盤若町64-39","洪水":"◎","がけ崩れ、土石流及び地滑り":"◎","高潮":"◎","地震":"◎","津波":"","大規模な火事":"◎","内水氾濫":"◎","火山現象":"","指定避難所との重複":"","備考":""}},
{"type":"Feature","geometry":{"type":"Point","coordinates":[140.0369453000,40.2230909800]},"properties":{"Name":"向能代小学校グラウンド","Jusho":"秋田県能代市向能代字上野越25-1","洪水":"◎","がけ崩れ、土石流及び地滑り":"◎","高潮":"◎","地震":"◎","津波":"◎","大規模な火事":"◎","内水氾濫":"◎","火山現象":"","指定避難所との重複":"","備考":""}},
{"type":"Feature","geometry":{"type":"Point","coordinates":[140.0444721000,40.2249160300]},"properties":{"Name":"東雲中学校グラウンド","Jusho":"秋田県能代市向能代字トトメキ106-1","洪水":"◎","がけ崩れ、土石流及び地滑り":"◎","高潮":"◎","地震":"◎","津波":"◎","大規模な火事":"◎","内水氾濫":"◎","火山現象":"","指定避難所との重複":"","備考":""}},
{"type":"Feature","geometry":{"type":"Point","coordinates":[140.0380452000,40.2578130300]},"properties":{"Name":"竹生小学校グラウンド","Jusho":"秋田県能代市竹生字竹生18-1","洪水":"◎","がけ崩れ、土石流及び地滑り":"◎","高潮":"◎","地震":"◎","津波":"◎","大規模な火事":"◎","内水氾濫":"◎","火山現象":"","指定避難所との重複":"","備考":""}},
{"type":"Feature","geometry":{"type":"Point","coordinates":[140.0847873000,40.2117296900]},"properties":{"Name":"朴瀬小学校グラウンド","Jusho":"秋田県能代市朴瀬字二林台65-1","洪水":"◎","がけ崩れ、土石流及び地滑り":"◎","高潮":"◎","地震":"◎","津波":"◎","大規模な火事":"◎","内水氾濫":"◎","火山現象":"","指定避難所との重複":"","備考":""}},
{"type":"Feature","geometry":{"type":"Point","coordinates":[140.0825082000,40.2379244600]},"properties":{"Name":"旧日影小学校グラウンド","Jusho":"秋田県能代市朴瀬字日影71-2","洪水":"◎","がけ崩れ、土石流及び地滑り":"◎","高潮":"◎","地震":"◎","津波":"◎","大規模な火事":"◎","内水氾濫":"◎","火山現象":"","指定避難所との重複":"","備考":""}},
{"type":"Feature","geometry":{"type":"Point","coordinates":[140.0173814000,40.2357081100]},"properties":{"Name":"能代球場前","Jusho":"秋田県能代市落合字下台3","洪水":"◎","がけ崩れ、土石流及び地滑り":"◎","高潮":"◎","地震":"◎","津波":"","大規模な火事":"◎","内水氾濫":"◎","火山現象":"","指定避難所との重複":"","備考":""}},
{"type":"Feature","geometry":{"type":"Point","coordinates":[140.0410775000,40.2271556600]},"properties":{"Name":"向ヶ丘街区公園","Jusho":"秋田県能代市落合字中大野台1-163","洪水":"◎","がけ崩れ、土石流及び地滑り":"◎","高潮":"◎","地震":"◎","津波":"◎","大規模な火事":"◎","内水氾濫":"◎","火山現象":"","指定避難所との重複":"","備考":""}},
{"type":"Feature","geometry":{"type":"Point","coordinates":[140.0230696000,40.2292867500]},"properties":{"Name":"落合１号街区公園","Jusho":"秋田県能代市落合字落合150","洪水":"◎","がけ崩れ、土石流及び地滑り":"◎","高潮":"◎","地震":"◎","津波":"","大規模な火事":"◎","内水氾濫":"◎","火山現象":"","指定避難所との重複":"","備考":""}},
{"type":"Feature","geometry":{"type":"Point","coordinates":[140.0253950000,40.2267515600]},"properties":{"Name":"落合２号街区公園","Jusho":"秋田県能代市落合字上前田195","洪水":"◎","がけ崩れ、土石流及び地滑り":"◎","高潮":"◎","地震":"◎","津波":"","大規模な火事":"◎","内水氾濫":"◎","火山現象":"","指定避難所との重複":"","備考":""}},
{"type":"Feature","geometry":{"type":"Point","coordinates":[140.0259734000,40.2238489100]},"properties":{"Name":"落合３号街区公園","Jusho":"秋田県能代市落合字下前田204","洪水":"◎","がけ崩れ、土石流及び地滑り":"◎","高潮":"◎","地震":"◎","津波":"","大規模な火事":"◎","内水氾濫":"◎","火山現象":"","指定避難所との重複":"","備考":""}},
{"type":"Feature","geometry":{"type":"Point","coordinates":[140.0216872000,40.2262955200]},"properties":{"Name":"落合４号街区公園","Jusho":"秋田県能代市落合字下悪戸150","洪水":"◎","がけ崩れ、土石流及び地滑り":"◎","高潮":"◎","地震":"◎","津波":"","大規模な火事":"◎","内水氾濫":"◎","火山現象":"","指定避難所との重複":"","備考":""}},
{"type":"Feature","geometry":{"type":"Point","coordinates":[140.0161940000,40.2263550200]},"properties":{"Name":"落合５号街区公園","Jusho":"秋田県能代市落合字上釜谷地280","洪水":"","がけ崩れ、土石流及び地滑り":"◎","高潮":"◎","地震":"◎","津波":"","大規模な火事":"◎","内水氾濫":"◎","火山現象":"","指定避難所との重複":"","備考":""}},
{"type":"Feature","geometry":{"type":"Point","coordinates":[140.0168073000,40.2290814500]},"properties":{"Name":"落合近隣公園","Jusho":"秋田県能代市落合字古釜谷地72","洪水":"◎","がけ崩れ、土石流及び地滑り":"◎","高潮":"◎","地震":"◎","津波":"","大規模な火事":"◎","内水氾濫":"◎","火山現象":"","指定避難所との重複":"","備考":""}},
{"type":"Feature","geometry":{"type":"Point","coordinates":[140.0134714000,40.2263867300]},"properties":{"Name":"落合三面球場","Jusho":"秋田県能代市落合字古悪土1-1","洪水":"","がけ崩れ、土石流及び地滑り":"◎","高潮":"◎","地震":"◎","津波":"","大規模な火事":"◎","内水氾濫":"◎","火山現象":"","指定避難所との重複":"","備考":""}},
{"type":"Feature","geometry":{"type":"Point","coordinates":[140.0217499000,40.1609776400]},"properties":{"Name":"浅内小学校グラウンド","Jusho":"秋田県能代市浅内字上ノ山236","洪水":"◎","がけ崩れ、土石流及び地滑り":"◎","高潮":"◎","地震":"◎","津波":"◎","大規模な火事":"◎","内水氾濫":"◎","火山現象":"","指定避難所との重複":"","備考":""}},
{"type":"Feature","geometry":{"type":"Point","coordinates":[140.0293662000,40.1750706200]},"properties":{"Name":"能代南中学校グラウンド","Jusho":"秋田県能代市河戸川字中野241","洪水":"◎","がけ崩れ、土石流及び地滑り":"◎","高潮":"◎","地震":"◎","津波":"◎","大規模な火事":"◎","内水氾濫":"◎","火山現象":"","指定避難所との重複":"","備考":""}},
{"type":"Feature","geometry":{"type":"Point","coordinates":[140.0809833000,40.1936987600]},"properties":{"Name":"第五小学校グラウンド","Jusho":"秋田県能代市鰄渕字中嶋古屋布25","洪水":"","がけ崩れ、土石流及び地滑り":"◎","高潮":"◎","地震":"◎","津波":"◎","大規模な火事":"◎","内水氾濫":"◎","火山現象":"","指定避難所との重複":"","備考":""}},
{"type":"Feature","geometry":{"type":"Point","coordinates":[140.0947303000,40.1877547600]},"properties":{"Name":"能代東中学校グラウンド","Jusho":"秋田県能代市扇田字東扇田251-1","洪水":"◎","がけ崩れ、土石流及び地滑り":"◎","高潮":"◎","地震":"◎","津波":"◎","大規模な火事":"◎","内水氾濫":"◎","火山現象":"","指定避難所との重複":"","備考":""}},
{"type":"Feature","geometry":{"type":"Point","coordinates":[140.1104773000,40.1739103200]},"properties":{"Name":"崇徳小学校グラウンド","Jusho":"秋田県能代市檜山字寺田4-9","洪水":"◎","がけ崩れ、土石流及び地滑り":"","高潮":"◎","地震":"◎","津波":"◎","大規模な火事":"◎","内水氾濫":"◎","火山現象":"","指定避難所との重複":"","備考":""}},
{"type":"Feature","geometry":{"type":"Point","coordinates":[140.1189796000,40.2047084600]},"properties":{"Name":"鶴形小学校グラウンド","Jusho":"秋田県能代市字町後16","洪水":"◎","がけ崩れ、土石流及び地滑り":"","高潮":"◎","地震":"◎","津波":"◎","大規模な火事":"◎","内水氾濫":"◎","火山現象":"","指定避難所との重複":"","備考":""}},
{"type":"Feature","geometry":{"type":"Point","coordinates":[140.1385758000,40.2253522200]},"properties":{"Name":"常盤小学校グラウンド","Jusho":"秋田県能代市常盤字堂回90","洪水":"","がけ崩れ、土石流及び地滑り":"◎","高潮":"◎","地震":"◎","津波":"◎","大規模な火事":"◎","内水氾濫":"◎","火山現象":"","指定避難所との重複":"","備考":""}},
{"type":"Feature","geometry":{"type":"Point","coordinates":[140.1376585000,40.2244306600]},"properties":{"Name":"常盤中学校グラウンド","Jusho":"秋田県能代市常盤字堂回90","洪水":"","がけ崩れ、土石流及び地滑り":"◎","高潮":"◎","地震":"◎","津波":"◎","大規模な火事":"◎","内水氾濫":"◎","火山現象":"","指定避難所との重複":"","備考":""}},
{"type":"Feature","geometry":{"type":"Point","coordinates":[140.1965754000,40.2504645200]},"properties":{"Name":"田ノ沢生活改善センター","Jusho":"秋田県能代市二ツ井町梅内字様の下96-3","洪水":"◎","がけ崩れ、土石流及び地滑り":"","高潮":"◎","地震":"","津波":"◎","大規模な火事":"◎","内水氾濫":"◎","火山現象":"","指定避難所との重複":"","備考":""}},
{"type":"Feature","geometry":{"type":"Point","coordinates":[140.1886811000,40.2830299200]},"properties":{"Name":"大畑公民館","Jusho":"秋田県能代市二ツ井町梅内字大畑無番地","洪水":"◎","がけ崩れ、土石流及び地滑り":"","高潮":"◎","地震":"","津波":"◎","大規模な火事":"◎","内水氾濫":"◎","火山現象":"","指定避難所との重複":"","備考":""}},
{"type":"Feature","geometry":{"type":"Point","coordinates":[140.1926462000,40.2642397000]},"properties":{"Name":"ニツ井公民館馬子岱分館","Jusho":"秋田県能代市二ツ井町梅内字馬子岱48-1","洪水":"◎","がけ崩れ、土石流及び地滑り":"","高潮":"◎","地震":"","津波":"◎","大規模な火事":"◎","内水氾濫":"◎","火山現象":"","指定避難所との重複":"","備考":""}},
{"type":"Feature","geometry":{"type":"Point","coordinates":[140.1922388000,40.2571945700]},"properties":{"Name":"大渕泥ノ木部落公民館","Jusho":"秋田県能代市二ツ井町梅内字来万無番地","洪水":"◎","がけ崩れ、土石流及び地滑り":"","高潮":"◎","地震":"","津波":"◎","大規模な火事":"◎","内水氾濫":"◎","火山現象":"","指定避難所との重複":"","備考":""}},
{"type":"Feature","geometry":{"type":"Point","coordinates":[140.2130635000,40.2382557600]},"properties":{"Name":"梅内聚落会館","Jusho":"秋田県能代市二ツ井町梅内字前田160","洪水":"◎","がけ崩れ、土石流及び地滑り":"","高潮":"◎","地震":"","津波":"◎","大規模な火事":"◎","内水氾濫":"◎","火山現象":"","指定避難所との重複":"","備考":""}},
{"type":"Feature","geometry":{"type":"Point","coordinates":[140.1961626000,40.2301318200]},"properties":{"Name":"悪戸集落営農センター","Jusho":"秋田県能代市二ツ井町梅内字白岩新田無番地","洪水":"","がけ崩れ、土石流及び地滑り":"","高潮":"◎","地震":"","津波":"◎","大規模な火事":"◎","内水氾濫":"◎","火山現象":"","指定避難所との重複":"","備考":""}},
{"type":"Feature","geometry":{"type":"Point","coordinates":[140.2105827000,40.2135457100]},"properties":{"Name":"外面部落集会所(児童館)","Jusho":"秋田県能代市二ツ井町種字外面29-1","洪水":"","がけ崩れ、土石流及び地滑り":"◎","高潮":"◎","地震":"","津波":"◎","大規模な火事":"◎","内水氾濫":"◎","火山現象":"","指定避難所との重複":"","備考":""}},
{"type":"Feature","geometry":{"type":"Point","coordinates":[140.2174813000,40.2361941600]},"properties":{"Name":"旧種梅小学校","Jusho":"秋田県能代市二ツ井町種字下樋ノ口15-1","洪水":"◎","がけ崩れ、土石流及び地滑り":"◎","高潮":"◎","地震":"","津波":"◎","大規模な火事":"◎","内水氾濫":"◎","火山現象":"","指定避難所との重複":"","備考":""}},
{"type":"Feature","geometry":{"type":"Point","coordinates":[140.2166069000,40.2359320700]},"properties":{"Name":"旧種梅小学校グラウンド","Jusho":"秋田県能代市二ツ井町種15-1","洪水":"◎","がけ崩れ、土石流及び地滑り":"◎","高潮":"◎","地震":"◎","津波":"◎","大規模な火事":"◎","内水氾濫":"◎","火山現象":"","指定避難所との重複":"","備考":""}},
{"type":"Feature","geometry":{"type":"Point","coordinates":[140.2196539000,40.2256944900]},"properties":{"Name":"種公民館","Jusho":"秋田県能代市二ツ井町種字熊野堂前145-2","洪水":"◎","がけ崩れ、土石流及び地滑り":"◎","高潮":"◎","地震":"","津波":"◎","大規模な火事":"◎","内水氾濫":"◎","火山現象":"","指定避難所との重複":"","備考":""}},
{"type":"Feature","geometry":{"type":"Point","coordinates":[140.2030231000,40.2253491700]},"properties":{"Name":"鎌谷公民館","Jusho":"秋田県能代市二ツ井町種字鎌谷沢出口無番地","洪水":"","がけ崩れ、土石流及び地滑り":"","高潮":"◎","地震":"","津波":"◎","大規模な火事":"◎","内水氾濫":"◎","火山現象":"","指定避難所との重複":"","備考":""}},
{"type":"Feature","geometry":{"type":"Point","coordinates":[140.2451370000,40.2412502000]},"properties":{"Name":"グミの木集落担い手センター","Jusho":"秋田県能代市二ツ井町荷上場字グミの木無番地","洪水":"◎","がけ崩れ、土石流及び地滑り":"◎","高潮":"◎","地震":"","津波":"◎","大規模な火事":"◎","内水氾濫":"◎","火山現象":"","指定避難所との重複":"","備考":""}},
{"type":"Feature","geometry":{"type":"Point","coordinates":[140.2590095000,40.2033934900]},"properties":{"Name":"旧天神小学校","Jusho":"秋田県能代市二ツ井町小繋字天神道上38-1","洪水":"◎","がけ崩れ、土石流及び地滑り":"","高潮":"◎","地震":"","津波":"◎","大規模な火事":"◎","内水氾濫":"◎","火山現象":"","指定避難所との重複":"","備考":""}},
{"type":"Feature","geometry":{"type":"Point","coordinates":[140.2587976000,40.2031681500]},"properties":{"Name":"旧天神小学校グラウンド","Jusho":"秋田県能代市二ツ井町小繋字天神道上38-1","洪水":"◎","がけ崩れ、土石流及び地滑り":"","高潮":"◎","地震":"◎","津波":"◎","大規模な火事":"◎","内水氾濫":"◎","火山現象":"","指定避難所との重複":"","備考":""}},
{"type":"Feature","geometry":{"type":"Point","coordinates":[140.2655501000,40.2029498000]},"properties":{"Name":"麻生会館","Jusho":"秋田県能代市二ツ井町麻生字麻生46-1","洪水":"","がけ崩れ、土石流及び地滑り":"◎","高潮":"◎","地震":"","津波":"◎","大規模な火事":"◎","内水氾濫":"◎","火山現象":"","指定避難所との重複":"","備考":""}},
{"type":"Feature","geometry":{"type":"Point","coordinates":[140.2786599000,40.2046545700]},