var fukui={"type":"FeatureCollection","name":"fukui","features":[
{"type":"Feature","geometry":{"type":"Point","coordinates":[136.2200654490,36.0601126588]},"properties":{"Name":"柴田公園","Jusho":"福井県福井市中央1丁目21","Kouzui":"","がけ崩れ、土石流及び地滑り":"","Takashio":"","地震":"◎","津波":"","大規模な火事":"","内水氾濫":"","火山現象":"","指定避難所との重複":"","備考":""}},
{"type":"Feature","geometry":{"type":"Point","coordinates":[136.2137790000,36.0648950000]},"properties":{"Name":"錦公園","Jusho":"福井県福井市順化2丁目11","Kouzui":"","がけ崩れ、土石流及び地滑り":"","Takashio":"","地震":"◎","津波":"","大規模な火事":"","内水氾濫":"","火山現象":"","指定避難所との重複":"","備考":""}},
{"type":"Feature","geometry":{"type":"Point","coordinates":[136.2193408784,36.0678970060]},"properties":{"Name":"神明公園","Jusho":"福井県福井市宝永4丁目8","Kouzui":"","がけ崩れ、土石流及び地滑り":"","Takashio":"","地震":"◎","津波":"","大規模な火事":"","内水氾濫":"","火山現象":"","指定避難所との重複":"","備考":""}},
{"type":"Feature","geometry":{"type":"Point","coordinates":[136.2236490000,36.0683970000]},"properties":{"Name":"御泉水公園","Jusho":"福井県福井市宝永3丁目12","Kouzui":"","がけ崩れ、土石流及び地滑り":"","Takashio":"","地震":"◎","津波":"","大規模な火事":"","内水氾濫":"","火山現象":"","指定避難所との重複":"","備考":""}},
{"type":"Feature","geometry":{"type":"Point","coordinates":[136.2264783921,36.0634280346]},"properties":{"Name":"日之出公園","Jusho":"福井県福井市日之出1丁目15","Kouzui":"","がけ崩れ、土石流及び地滑り":"","Takashio":"","地震":"◎","津波":"","大規模な火事":"","内水氾濫":"","火山現象":"","指定避難所との重複":"","備考":""}},
{"type":"Feature","geometry":{"type":"Point","coordinates":[136.2187767783,36.0591867617]},"properties":{"Name":"豊島公園","Jusho":"福井県福井市中央2丁目6","Kouzui":"","がけ崩れ、土石流及び地滑り":"","Takashio":"","地震":"◎","津波":"","大規模な火事":"","内水氾濫":"","火山現象":"","指定避難所との重複":"","備考":""}},
{"type":"Feature","geometry":{"type":"Point","coordinates":[136.2128900000,36.0596500000]},"properties":{"Name":"左内公園","Jusho":"福井県福井市左内町7","Kouzui":"◎","がけ崩れ、土石流及び地滑り":"◎","Takashio":"","地震":"◎","津波":"","大規模な火事":"","内水氾濫":"","火山現象":"","指定避難所との重複":"","備考":""}},
{"type":"Feature","geometry":{"type":"Point","coordinates":[136.2095580000,36.0628280000]},"properties":{"Name":"つくも公園","Jusho":"福井県福井市つくも2丁目9","Kouzui":"","がけ崩れ、土石流及び地滑り":"◎","Takashio":"","地震":"◎","津波":"","大規模な火事":"","内水氾濫":"","火山現象":"","指定避難所との重複":"","備考":""}},
{"type":"Feature","geometry":{"type":"Point","coordinates":[136.2095580000,36.0663600000]},"properties":{"Name":"照手公園","Jusho":"福井県福井市照手2丁目3","Kouzui":"","がけ崩れ、土石流及び地滑り":"","Takashio":"","地震":"◎","津波":"","大規模な火事":"","内水氾濫":"","火山現象":"","指定避難所との重複":"","備考":""}},
{"type":"Feature","geometry":{"type":"Point","coordinates":[136.2117733340,36.0671103940]},"properties":{"Name":"妙国公園","Jusho":"福井県福井市照手1丁目9","Kouzui":"","がけ崩れ、土石流及び地滑り":"","Takashio":"","地震":"◎","津波":"","大規模な火事":"","内水氾濫":"","火山現象":"","指定避難所との重複":"","備考":""}},
{"type":"Feature","geometry":{"type":"Point","coordinates":[136.2913262493,36.0644019623]},"properties":{"Name":"河南公園","Jusho":"福井県福井市春山2丁目7","Kouzui":"","がけ崩れ、土石流及び地滑り":"","Takashio":"","地震":"◎","津波":"","大規模な火事":"","内水氾濫":"","火山現象":"","指定避難所との重複":"","備考":""}},
{"type":"Feature","geometry":{"type":"Point","coordinates":[136.2150774790,36.0712076968]},"properties":{"Name":"春山公園","Jusho":"福井県福井市田原2丁目2","Kouzui":"","がけ崩れ、土石流及び地滑り":"","Takashio":"","地震":"◎","津波":"","大規模な火事":"","内水氾濫":"","火山現象":"","指定避難所との重複":"","備考":""}},
{"type":"Feature","geometry":{"type":"Point","coordinates":[136.2172910000,36.0721670000]},"properties":{"Name":"田原公園","Jusho":"福井県福井市田原1丁目6","Kouzui":"","がけ崩れ、土石流及び地滑り":"","Takashio":"","地震":"◎","津波":"","大規模な火事":"","内水氾濫":"","火山現象":"","指定避難所との重複":"","備考":""}},
{"type":"Feature","geometry":{"type":"Point","coordinates":[136.2216410000,36.0724020000]},"properties":{"Name":"尾上公園","Jusho":"福井県福井市松本4丁目9","Kouzui":"","がけ崩れ、土石流及び地滑り":"","Takashio":"","地震":"◎","津波":"","大規模な火事":"","内水氾濫":"","火山現象":"","指定避難所との重複":"","備考":""}},
{"type":"Feature","geometry":{"type":"Point","coordinates":[136.2293200000,36.0690700000]},"properties":{"Name":"松ヶ枝公園","Jusho":"福井県福井市宝永1丁目15","Kouzui":"","がけ崩れ、土石流及び地滑り":"","Takashio":"","地震":"◎","津波":"","大規模な火事":"","内水氾濫":"","火山現象":"","指定避難所との重複":"","備考":""}},
{"type":"Feature","geometry":{"type":"Point","coordinates":[136.2290530000,36.0619390000]},"properties":{"Name":"白山公園","Jusho":"福井県福井市日之出3丁目3","Kouzui":"","がけ崩れ、土石流及び地滑り":"","Takashio":"","地震":"◎","津波":"","大規模な火事":"","内水氾濫":"","火山現象":"","指定避難所との重複":"","備考":""}},
{"type":"Feature","geometry":{"type":"Point","coordinates":[136.2279570000,36.0584340000]},"properties":{"Name":"城勝公園","Jusho":"福井県福井市御幸1丁目10","Kouzui":"","がけ崩れ、土石流及び地滑り":"","Takashio":"","地震":"◎","津波":"","大規模な火事":"","内水氾濫":"","火山現象":"","指定避難所との重複":"","備考":""}},
{"type":"Feature","geometry":{"type":"Point","coordinates":[136.2160670000,36.0548770000]},"properties":{"Name":"毛矢公園","Jusho":"福井県福井市西木田1丁目16","Kouzui":"","がけ崩れ、土石流及び地滑り":"","Takashio":"","地震":"◎","津波":"","大規模な火事":"","内水氾濫":"","火山現象":"","指定避難所との重複":"","備考":""}},
{"type":"Feature","geometry":{"type":"Point","coordinates":[136.2082370000,36.0598730000]},"properties":{"Name":"緑公園","Jusho":"福井県福井市足羽1丁目18","Kouzui":"","がけ崩れ、土石流及び地滑り":"","Takashio":"","地震":"◎","津波":"","大規模な火事":"","内水氾濫":"","火山現象":"","指定避難所との重複":"","備考":""}},
{"type":"Feature","geometry":{"type":"Point","coordinates":[136.2065290000,36.0629590000]},"properties":{"Name":"有楽公園","Jusho":"福井県福井市有楽町1","Kouzui":"","がけ崩れ、土石流及び地滑り":"◎","Takashio":"","地震":"◎","津波":"","大規模な火事":"","内水氾濫":"","火山現象":"","指定避難所との重複":"","備考":""}},
{"type":"Feature","geometry":{"type":"Point","coordinates":[136.2076236878,36.0656514403]},"properties":{"Name":"三秀公園","Jusho":"福井県福井市照手3丁目1","Kouzui":"","がけ崩れ、土石流及び地滑り":"","Takashio":"","地震":"◎","津波":"","大規模な火事":"","内水氾濫":"","火山現象":"","指定避難所との重複":"","備考":""}},
{"type":"Feature","geometry":{"type":"Point","coordinates":[136.2056270000,36.0667520000]},"properties":{"Name":"湊公園","Jusho":"福井県福井市照手4丁目7","Kouzui":"","がけ崩れ、土石流及び地滑り":"","Takashio":"","地震":"◎","津波":"","大規模な火事":"","内水氾濫":"","火山現象":"","指定避難所との重複":"","備考":""}},
{"type":"Feature","geometry":{"type":"Point","coordinates":[136.2051110000,36.0694200000]},"properties":{"Name":"東明里公園","Jusho":"福井県福井市花月4丁目9","Kouzui":"","がけ崩れ、土石流及び地滑り":"","Takashio":"","地震":"◎","津波":"","大規模な火事":"","内水氾濫":"","火山現象":"","指定避難所との重複":"","備考":""}},
{"type":"Feature","geometry":{"type":"Point","coordinates":[136.2090750000,36.0716960000]},"properties":{"Name":"乾公園","Jusho":"福井県福井市乾徳2丁目11","Kouzui":"","がけ崩れ、土石流及び地滑り":"","Takashio":"","地震":"◎","津波":"","大規模な火事":"","内水氾濫":"","火山現象":"","指定避難所との重複":"","備考":""}},
{"type":"Feature","geometry":{"type":"Point","coordinates":[136.2223180000,36.0750440000]},"properties":{"Name":"松本公園","Jusho":"福井県福井市松本3丁目24","Kouzui":"","がけ崩れ、土石流及び地滑り":"","Takashio":"","地震":"◎","津波":"","大規模な火事":"","内水氾濫":"","火山現象":"","指定避難所との重複":"","備考":""}},
{"type":"Feature","geometry":{"type":"Point","coordinates":[136.2294070300,36.0737099691]},"properties":{"Name":"進放公園","Jusho":"福井県福井市松本1丁目24","Kouzui":"","がけ崩れ、土石流及び地滑り":"","Takashio":"","地震":"◎","津波":"","大規模な火事":"","内水氾濫":"","火山現象":"","指定避難所との重複":"","備考":""}},
{"type":"Feature","geometry":{"type":"Point","coordinates":[136.2331450000,36.0635090000]},"properties":{"Name":"稲荷公園","Jusho":"福井県福井市日之出4丁目9","Kouzui":"","がけ崩れ、土石流及び地滑り":"","Takashio":"","地震":"◎","津波":"","大規模な火事":"","内水氾濫":"","火山現象":"","指定避難所との重複":"","備考":""}},
{"type":"Feature","geometry":{"type":"Point","coordinates":[136.2332788539,36.0618442305]},"properties":{"Name":"城東公園","Jusho":"福井県福井市城東1丁目17","Kouzui":"","がけ崩れ、土石流及び地滑り":"","Takashio":"","地震":"◎","津波":"","大規模な火事":"","内水氾濫":"","火山現象":"","指定避難所との重複":"","備考":""}},
{"type":"Feature","geometry":{"type":"Point","coordinates":[136.2211228149,36.0526805435]},"properties":{"Name":"春日公園","Jusho":"福井県福井市春日1丁目16","Kouzui":"","がけ崩れ、土石流及び地滑り":"","Takashio":"","地震":"◎","津波":"","大規模な火事":"","内水氾濫":"","火山現象":"","指定避難所との重複":"","備考":""}},
{"type":"Feature","geometry":{"type":"Point","coordinates":[136.2162920000,36.0529410000]},"properties":{"Name":"豊公園","Jusho":"福井県福井市西木田1丁目11","Kouzui":"","がけ崩れ、土石流及び地滑り":"","Takashio":"","地震":"◎","津波":"","大規模な火事":"","内水氾濫":"","火山現象":"","指定避難所との重複":"","備考":""}},
{"type":"Feature","geometry":{"type":"Point","coordinates":[136.2135377956,36.0531881017]},"properties":{"Name":"寿公園","Jusho":"福井県福井市西木田2丁目6","Kouzui":"","がけ崩れ、土石流及び地滑り":"◎","Takashio":"","地震":"◎","津波":"","大規模な火事":"","内水氾濫":"","火山現象":"","指定避難所との重複":"","備考":""}},
{"type":"Feature","geometry":{"type":"Point","coordinates":[136.2104601470,36.0542727467]},"properties":{"Name":"不動公園","Jusho":"福井県福井市西木田3丁目15","Kouzui":"","がけ崩れ、土石流及び地滑り":"◎","Takashio":"","地震":"◎","津波":"","大規模な火事":"","内水氾濫":"","火山現象":"","指定避難所との重複":"","備考":""}},
{"type":"Feature","geometry":{"type":"Point","coordinates":[136.2038550000,36.0608400000]},"properties":{"Name":"桃園公園","Jusho":"福井県福井市足羽2丁目18","Kouzui":"","がけ崩れ、土石流及び地滑り":"◎","Takashio":"","地震":"◎","津波":"","大規模な火事":"","内水氾濫":"","火山現象":"","指定避難所との重複":"","備考":""}},
{"type":"Feature","geometry":{"type":"Point","coordinates":[136.2375920000,36.0714340000]},"properties":{"Name":"志比口公園","Jusho":"福井県福井市志比口2丁目12","Kouzui":"◎","がけ崩れ、土石流及び地滑り":"","Takashio":"","地震":"◎","津波":"","大規模な火事":"","内水氾濫":"","火山現象":"","指定避難所との重複":"","備考":""}},
{"type":"Feature","geometry":{"type":"Point","coordinates":[136.2002780000,36.0697340000]},"properties":{"Name":"丹鳥公園","Jusho":"福井県福井市学園2丁目3","Kouzui":"","がけ崩れ、土石流及び地滑り":"","Takashio":"","地震":"◎","津波":"","大規模な火事":"","内水氾濫":"","火山現象":"","指定避難所との重複":"","備考":""}},
{"type":"Feature","geometry":{"type":"Point","coordinates":[136.2316120883,36.0743823525]},"properties":{"Name":"北弘公園","Jusho":"福井県福井市松本1丁目31","Kouzui":"","がけ崩れ、土石流及び地滑り":"","Takashio":"","地震":"◎","津波":"","大規模な火事":"","内水氾濫":"","火山現象":"","指定避難所との重複":"","備考":""}},
{"type":"Feature","geometry":{"type":"Point","coordinates":[136.2274410000,36.0832310000]},"properties":{"Name":"大願寺公園","Jusho":"福井県福井市大願寺3丁目6","Kouzui":"","がけ崩れ、土石流及び地滑り":"","Takashio":"","地震":"◎","津波":"","大規模な火事":"","内水氾濫":"","火山現象":"","指定避難所との重複":"","備考":""}},
{"type":"Feature","geometry":{"type":"Point","coordinates":[136.2074960000,36.0801970000]},"properties":{"Name":"牧の島公園","Jusho":"福井県福井市大宮4丁目4","Kouzui":"","がけ崩れ、土石流及び地滑り":"","Takashio":"","地震":"◎","津波":"","大規模な火事":"","内水氾濫":"","火山現象":"","指定避難所との重複":"","備考":""}},
{"type":"Feature","geometry":{"type":"Point","coordinates":[136.2142600000,36.0817300000]},"properties":{"Name":"重藤公園","Jusho":"福井県福井市大宮3丁目19","Kouzui":"","がけ崩れ、土石流及び地滑り":"","Takashio":"","地震":"◎","津波":"","大規模な火事":"","内水氾濫":"","火山現象":"","指定避難所との重複":"","備考":""}},
{"type":"Feature","geometry":{"type":"Point","coordinates":[136.2187828230,36.0806298188]},"properties":{"Name":"経田公園","Jusho":"福井県福井市大宮2丁目5","Kouzui":"","がけ崩れ、土石流及び地滑り":"","Takashio":"","地震":"◎","津波":"","大規模な火事":"","内水氾濫":"","火山現象":"","指定避難所との重複":"","備考":""}},
{"type":"Feature","geometry":{"type":"Point","coordinates":[136.2233401557,36.0795938213]},"properties":{"Name":"宮前公園","Jusho":"福井県福井市文京1丁目40","Kouzui":"","がけ崩れ、土石流及び地滑り":"","Takashio":"","地震":"◎","津波":"","大規模な火事":"","内水氾濫":"","火山現象":"","指定避難所との重複":"","備考":""}},
{"type":"Feature","geometry":{"type":"Point","coordinates":[136.2363624200,36.0736415622]},"properties":{"Name":"西開発公園","Jusho":"福井県福井市西開発1丁目601","Kouzui":"","がけ崩れ、土石流及び地滑り":"◎","Takashio":"","地震":"◎","津波":"","大規模な火事":"","内水氾濫":"","火山現象":"","指定避難所との重複":"","備考":""}},
{"type":"Feature","geometry":{"type":"Point","coordinates":[136.2280937800,36.0527075590]},"properties":{"Name":"西板垣公園","Jusho":"福井県福井市西板垣町601","Kouzui":"","がけ崩れ、土石流及び地滑り":"","Takashio":"","地震":"◎","津波":"","大規模な火事":"","内水氾濫":"","火山現象":"","指定避難所との重複":"","備考":""}},
{"type":"Feature","geometry":{"type":"Point","coordinates":[136.2197080000,36.0490700000]},"properties":{"Name":"木田公園","Jusho":"福井県福井市木田町60-2","Kouzui":"","がけ崩れ、土石流及び地滑り":"","Takashio":"","地震":"◎","津波":"","大規模な火事":"","内水氾濫":"","火山現象":"","指定避難所との重複":"","備考":""}},
{"type":"Feature","geometry":{"type":"Point","coordinates":[136.2026300000,36.0572310000]},"properties":{"Name":"小山谷公園","Jusho":"福井県福井市足羽4丁目8","Kouzui":"","がけ崩れ、土石流及び地滑り":"◎","Takashio":"","地震":"◎","津波":"","大規模な火事":"","内水氾濫":"","火山現象":"","指定避難所との重複":"","備考":""}},
{"type":"Feature","geometry":{"type":"Point","coordinates":[136.2065930000,36.0845130000]},"properties":{"Name":"福万公園","Jusho":"福井県福井市二の宮5丁目10","Kouzui":"","がけ崩れ、土石流及び地滑り":"","Takashio":"","地震":"◎","津波":"","大規模な火事":"","内水氾濫":"","火山現象":"","指定避難所との重複":"","備考":""}},
{"type":"Feature","geometry":{"type":"Point","coordinates":[136.2100090000,36.0840420000]},"properties":{"Name":"二の宮公園","Jusho":"福井県福井市二の宮4丁目15","Kouzui":"","がけ崩れ、土石流及び地滑り":"","Takashio":"","地震":"◎","津波":"","大規模な火事":"","内水氾濫":"","火山現象":"","指定避難所との重複":"","備考":""}},
{"type":"Feature","geometry":{"type":"Point","coordinates":[136.2254760000,36.0870760000]},"properties":{"Name":"幾久北公園","Jusho":"福井県福井市二の宮2丁目21","Kouzui":"","がけ崩れ、土石流及び地滑り":"","Takashio":"","地震":"◎","津波":"","大規模な火事":"","内水氾濫":"","火山現象":"","指定避難所との重複":"","備考":""}},
{"type":"Feature","geometry":{"type":"Point","coordinates":[136.2293482970,36.0867524561]},"properties":{"Name":"幾代公園","Jusho":"福井県福井市二の宮1丁目8","Kouzui":"","がけ崩れ、土石流及び地滑り":"","Takashio":"","地震":"◎","津波":"","大規模な火事":"","内水氾濫":"","火山現象":"","指定避難所との重複":"","備考":""}},
{"type":"Feature","geometry":{"type":"Point","coordinates":[136.2480414790,36.0621287867]},"properties":{"Name":"上北野公園","Jusho":"福井県福井市上北野1丁目4","Kouzui":"","がけ崩れ、土石流及び地滑り":"","Takashio":"","地震":"◎","津波":"","大規模な火事":"","内水氾濫":"","火山現象":"","指定避難所との重複":"","備考":""}},
{"type":"Feature","geometry":{"type":"Point","coordinates":[136.1903530000,36.0656530000]},"properties":{"Name":"渡公園","Jusho":"福井県福井市渡町101","Kouzui":"","がけ崩れ、土石流及び地滑り":"◎","Takashio":"","地震":"◎","津波":"","大規模な火事":"","内水氾濫":"","火山現象":"","指定避難所との重複":"","備考":""}},
{"type":"Feature","geometry":{"type":"Point","coordinates":[136.1877110000,36.0638220000]},"properties":{"Name":"河原公園","Jusho":"福井県福井市渡町355","Kouzui":"","がけ崩れ、土石流及び地滑り":"◎","Takashio":"","地震":"◎","津波":"","大規模な火事":"","内水氾濫":"","火山現象":"","指定避難所との重複":"","備考":""}},
{"type":"Feature","geometry":{"type":"Point","coordinates":[136.1834580000,36.0606570000]},"properties":{"Name":"社北公園","Jusho":"福井県福井市渡町661","Kouzui":"","がけ崩れ、土石流及び地滑り":"◎","Takashio":"","地震":"◎","津波":"","大規模な火事":"","内水氾濫":"","火山現象":"","指定避難所との重複":"","備考":""}},
{"type":"Feature","geometry":{"type":"Point","coordinates":[136.2257340000,36.0968860000]},"properties":{"Name":"高木公園","Jusho":"福井県福井市高木1丁目401","Kouzui":"","がけ崩れ、土石流及び地滑り":"","Takashio":"","地震":"◎","津波":"","大規模な火事":"","内水氾濫":"","火山現象":"","指定避難所との重複":"","備考":""}},
{"type":"Feature","geometry":{"type":"Point","coordinates":[136.1837150000,36.0486250000]},"properties":{"Name":"道守公園","Jusho":"福井県福井市福新町2009","Kouzui":"","がけ崩れ、土石流及び地滑り":"◎","Takashio":"","地震":"◎","津波":"","大規模な火事":"","内水氾濫":"","火山現象":"","指定避難所との重複":"","備考":""}},
{"type":"Feature","geometry":{"type":"Point","coordinates":[136.1851330000,36.0480490000]},"properties":{"Name":"福公園","Jusho":"福井県福井市福新町905","Kouzui":"","がけ崩れ、土石流及び地滑り":"◎","Takashio":"","地震":"◎","津波":"","大規模な火事":"","内水氾濫":"","火山現象":"","指定避難所との重複":"","備考":""}},
{"type":"Feature","geometry":{"type":"Point","coordinates":[136.2070770000,36.0275940000]},"properties":{"Name":"下荒井公園","Jusho":"福井県福井市下荒井町4字75","Kouzui":"◎","がけ崩れ、土石流及び地滑り":"◎","Takashio":"","地震":"◎","津波":"","大規模な火事":"","内水氾濫":"","火山現象":"","指定避難所との重複":"","備考":""}},
{"type":"Feature","geometry":{"type":"Point","coordinates":[136.2228010000,36.1076360000]},"properties":{"Name":"八重巻公園","Jusho":"福井県福井市栄町2字24","Kouzui":"","がけ崩れ、土石流及び地滑り":"","Takashio":"","地震":"◎","津波":"","大規模な火事":"","内水氾濫":"","火山現象":"","指定避難所との重複":"","備考":""}},
{"type":"Feature","geometry":{"type":"Point","coordinates":[136.2398470000,36.1152480000]},"properties":{"Name":"栗森公園","Jusho":"福井県福井市栗森町浜226","Kouzui":"","がけ崩れ、土石流及び地滑り":"","Takashio":"","地震":"◎","津波":"","大規模な火事":"","内水氾濫":"","火山現象":"","指定避難所との重複":"","備考":""}},
{"type":"Feature","geometry":{"type":"Point","coordinates":[136.1814280000,36.0478660000]},"properties":{"Name":"江守公園","Jusho":"福井県福井市運動公園2丁目1701","Kouzui":"","がけ崩れ、土石流及び地滑り":"◎","Takashio":"","地震":"◎","津波":"","大規模な火事":"","内水氾濫":"","火山現象":"","指定避難所との重複":"","備考":""}},
{"type":"Feature","geometry":{"type":"Point","coordinates":[136.1794620000,36.0497760000]},"properties":{"Name":"社中央公園","Jusho":"福井県福井市運動公園1丁目4101","Kouzui":"","がけ崩れ、土石流及び地滑り":"◎","Takashio":"","地震":"◎","津波":"","大規模な火事":"","内水氾濫":"","火山現象":"","指定避難所との重複":"","備考":""}},
{"type":"Feature","geometry":{"type":"Point","coordinates":[136.1797406830,36.0526911989]},"properties":{"Name":"桜公園","Jusho":"福井県福井市運動公園1丁目1701","Kouzui":"","がけ崩れ、土石流及び地滑り":"◎","Takashio":"","地震":"◎","津波":"","大規模な火事":"","内水氾濫":"","火山現象":"","指定避難所との重複":"","備考":""}},
{"type":"Feature","geometry":{"type":"Point","coordinates":[136.1982800000,36.0716960000]},"properties":{"Name":"境公園","Jusho":"福井県福井市日光2丁目23","Kouzui":"","がけ崩れ、土石流及び地滑り":"","Takashio":"","地震":"◎","津波":"","大規模な火事":"","内水氾濫":"","火山現象":"","指定避難所との重複":"","備考":""}},
{"type":"Feature","geometry":{"type":"Point","coordinates":[136.2010511700,36.0731083491]},"properties":{"Name":"日光公園","Jusho":"福井県福井市日光2丁目9","Kouzui":"","がけ崩れ、土石流及び地滑り":"","Takashio":"","地震":"◎","津波":"","大規模な火事":"","内水氾濫":"","火山現象":"","指定避難所との重複":"","備考":""}},
{"type":"Feature","geometry":{"type":"Point","coordinates":[136.2358400000,36.0590300000]},"properties":{"Name":"城之橋公園","Jusho":"福井県福井市城東4丁目7","Kouzui":"","がけ崩れ、土石流及び地滑り":"","Takashio":"","地震":"◎","津波":"","大規模な火事":"","内水氾濫":"","火山現象":"","指定避難所との重複":"","備考":""}},
{"type":"Feature","geometry":{"type":"Point","coordinates":[136.2396900000,36.0589100000]},"properties":{"Name":"下北野公園","Jusho":"福井県福井市城東4丁目23","Kouzui":"","がけ崩れ、土石流及び地滑り":"","Takashio":"","地震":"◎","津波":"","大規模な火事":"","内水氾濫":"","火山現象":"","指定避難所との重複":"","備考":""}},
{"type":"Feature","geometry":{"type":"Point","coordinates":[136.2332500000,36.0543300000]},"properties":{"Name":"勝見公園","Jusho":"福井県福井市勝見3丁目18","Kouzui":"","がけ崩れ、土石流及び地滑り":"","Takashio":"","地震":"◎","津波":"","大規模な火事":"","内水氾濫":"","火山現象":"","指定避難所との重複":"","備考":""}},
{"type":"Feature","geometry":{"type":"Point","coordinates":[136.2357090000,36.0521320000]},"properties":{"Name":"西方西公園","Jusho":"福井県福井市西方1丁目15","Kouzui":"","がけ崩れ、土石流及び地滑り":"","Takashio":"","地震":"◎","津波":"","大規模な火事":"","内水氾濫":"","火山現象":"","指定避難所との重複":"","備考":""}},
{"type":"Feature","geometry":{"type":"Point","coordinates":[136.2397500000,36.0505000000]},"properties":{"Name":"西方東公園","Jusho":"福井県福井市西方2丁目23","Kouzui":"","がけ崩れ、土石流及び地滑り":"","Takashio":"","地震":"◎","津波":"","大規模な火事":"","内水氾濫":"","火山現象":"","指定避難所との重複":"","備考":""}},
{"type":"Feature","geometry":{"type":"Point","coordinates":[136.2352070000,36.0467680000]},"properties":{"Name":"板垣公園","Jusho":"福井県福井市馬垣町1字下馬境403","Kouzui":"","がけ崩れ、土石流及び地滑り":"","Takashio":"","地震":"◎","津波":"","大規模な火事":"","内水氾濫":"","火山現象":"","指定避難所との重複":"","備考":""}},
{"type":"Feature","geometry":{"type":"Point","coordinates":[136.2376880000,36.0448320000]},"properties":{"Name":"下馬公園","Jusho":"福井県福井市下馬1丁目401","Kouzui":"","がけ崩れ、土石流及び地滑り":"","Takashio":"","地震":"◎","津波":"","大規模な火事":"","内水氾濫":"","火山現象":"","指定避難所との重複":"","備考":""}},
{"type":"Feature","geometry":{"type":"Point","coordinates":[136.2207710000,36.0417190000]},"properties":{"Name":"多郎丸公園","Jusho":"福井県福井市花堂東1丁目7","Kouzui":"","がけ崩れ、土石流及び地滑り":"","Takashio":"","地震":"◎","津波":"","大規模な火事":"","内水氾濫":"","火山現象":"","指定避難所との重複":"","備考":""}},
{"type":"Feature","geometry":{"type":"Point","coordinates":[136.2210610000,36.0384500000]},"properties":{"Name":"来光寺公園","Jusho":"福井県福井市花堂東1丁目28","Kouzui":"","がけ崩れ、土石流及び地滑り":"","Takashio":"","地震":"◎","津波":"","大規模な火事":"","内水氾濫":"","火山現象":"","指定避難所との重複":"","備考":""}},
{"type":"Feature","geometry":{"type":"Point","coordinates":[136.2176140000,36.0399140000]},"properties":{"Name":"琴田公園","Jusho":"福井県福井市花堂北1丁目16","Kouzui":"","がけ崩れ、土石流及び地滑り":"◎","Takashio":"","地震":"◎","津波":"","大規模な火事":"","内水氾濫":"","火山現象":"","指定避難所との重複":"","備考":""}},
{"type":"Feature","geometry":{"type":"Point","coordinates":[136.2109440000,36.0395480000]},"properties":{"Name":"池田公園","Jusho":"福井県福井市花堂中2丁目7","Kouzui":"","がけ崩れ、土石流及び地滑り":"◎","Takashio":"","地震":"◎","津波":"","大規模な火事":"","内水氾濫":"","火山現象":"","指定避難所との重複":"","備考":""}},
{"type":"Feature","geometry":{"type":"Point","coordinates":[136.2160670000,36.0339240000]},"properties":{"Name":"六反島公園","Jusho":"福井県福井市花堂南1丁目7","Kouzui":"","がけ崩れ、土石流及び地滑り":"◎","Takashio":"","地震":"◎","津波":"","大規模な火事":"","内水氾濫":"","火山現象":"","指定避難所との重複":"","備考":""}},
{"type":"Feature","geometry":{"type":"Point","coordinates":[136.2081400000,36.0304980000]},"properties":{"Name":"大島公園","Jusho":"福井県福井市大島町7字山崎901","Kouzui":"","がけ崩れ、土石流及び地滑り":"◎","Takashio":"","地震":"◎","津波":"","大規模な火事":"","内水氾濫":"","火山現象":"","指定避難所との重複":"","備考":""}},
{"type":"Feature","geometry":{"type":"Point","coordinates":[136.1864870000,36.0355720000]},"properties":{"Name":"種池公園","Jusho":"福井県福井市種池町3字丁田9","Kouzui":"","がけ崩れ、土石流及び地滑り":"◎","Takashio":"","地震":"◎","津波":"","大規模な火事":"","内水氾濫":"","火山現象":"","指定避難所との重複":"","備考":""}},
{"type":"Feature","geometry":{"type":"Point","coordinates":[136.1855840000,36.0390510000]},"properties":{"Name":"商工公園","Jusho":"福井県福井市渕町20字19-6","Kouzui":"","がけ崩れ、土石流及び地滑り":"◎","Takashio":"","地震":"◎","津波":"","大規模な火事":"","内水氾濫":"","火山現象":"","指定避難所との重複":"","備考":""}},
{"type":"Feature","geometry":{"type":"Point","coordinates":[136.1770450000,36.0545370000]},"properties":{"Name":"東下野公園","Jusho":"福井県福井市運動公園3丁目801","Kouzui":"","がけ崩れ、土石流及び地滑り":"◎","Takashio":"","地震":"◎","津波":"","大規模な火事":"","内水氾濫":"","火山現象":"","指定避難所との重複":"","備考":""}},
{"type":"Feature","geometry":{"type":"Point","coordinates":[136.1992140000,36.0589310000]},"properties":{"Name":"南明里公園","Jusho":"福井県福井市明里町7","Kouzui":"◎","がけ崩れ、土石流及び地滑り":"◎","Takashio":"","地震":"◎","津波":"","大規模な火事":"","内水氾濫":"","火山現象":"","指定避難所との重複":"","備考":""}},
{"type":"Feature","geometry":{"type":"Point","coordinates":[136.1862930000,36.0674840000]},"properties":{"Name":"西学園公園","Jusho":"福井県福井市西学園1丁目701","Kouzui":"","がけ崩れ、土石流及び地滑り":"◎","Takashio":"","地震":"◎","津波":"","大規模な火事":"","内水氾濫":"","火山現象":"","指定避難所との重複":"","備考":""}},
{"type":"Feature","geometry":{"type":"Point","coordinates":[136.2127100000,36.0849100000]},"properties":{"Name":"喜多町公園","Jusho":"福井県福井市二の宮4丁目21","Kouzui":"","がけ崩れ、土石流及び地滑り":"","Takashio":"","地震":"◎","津波":"","大規模な火事":"","内水氾濫":"","火山現象":"","指定避難所との重複":"","備考":""}},
{"type":"Feature","geometry":{"type":"Point","coordinates":[136.2093000000,36.0882270000]},"properties":{"Name":"新田塚公園","Jusho":"福井県福井市新田塚町604","Kouzui":"","がけ崩れ、土石流及び地滑り":"","Takashio":"","地震":"◎","津波":"","大規模な火事":"","内水氾濫":"","火山現象":"","指定避難所との重複":"","備考":""}},
{"type":"Feature","geometry":{"type":"Point","coordinates":[136.2273421660,36.1145137830]},"properties":{"Name":"えのはた公園","Jusho":"福井県福井市上森田1丁目201","Kouzui":"","がけ崩れ、土石流及び地滑り":"","Takashio":"","地震":"◎","津波":"","大規模な火事":"","内水氾濫":"","火山現象":"","指定避難所との重複":"","備考":""}},
{"type":"Feature","geometry":{"type":"Point","coordinates":[136.2302870907,36.1126480678]},"properties":{"Name":"亀田公園","Jusho":"福井県福井市上森田2丁目601","Kouzui":"","がけ崩れ、土石流及び地滑り":"","Takashio":"","地震":"◎","津波":"","大規模な火事":"","内水氾濫":"","火山現象":"","指定避難所との重複":"","備考":""}},
{"type":"Feature","geometry":{"type":"Point","coordinates":[136.2332420000,36.1132600000]},"properties":{"Name":"上森田公園","Jusho":"福井県福井市上森田3丁目601","Kouzui":"","がけ崩れ、土石流及び地滑り":"","Takashio":"","地震":"◎","津波":"","大規模な火事":"","内水氾濫":"","火山現象":"","指定避難所との重複":"","備考":""}},
{"type":"Feature","geometry":{"type":"Point","coordinates":[136.2319733706,36.1105399193]},"properties":{"Name":"ひえまき公園","Jusho":"福井県福井市上森田3丁目1601","Kouzui":"","がけ崩れ、土石流及び地滑り":"","Takashio":"","地震":"◎","津波":"","大規模な火事":"","内水氾濫":"","火山現象":"","指定避難所との重複":"","備考":""}},
{"type":"Feature","geometry":{"type":"Point","coordinates":[136.2350140000,36.1095200000]},"properties":{"Name":"九頭竜公園","Jusho":"福井県福井市上森田5丁目701","Kouzui":"","がけ崩れ、土石流及び地滑り":"","Takashio":"","地震":"◎","津波":"","大規模な火事":"","内水氾濫":"","火山現象":"","指定避難所との重複":"","備考":""}},
{"type":"Feature","geometry":{"type":"Point","coordinates":[136.2416190000,36.1142280000]},"properties":{"Name":"浜公園","Jusho":"福井県福井市栗森町浜604","Kouzui":"","がけ崩れ、土石流及び地滑り":"","Takashio":"","地震":"◎","津波":"","大規模な火事":"","内水氾濫":"","火山現象":"","指定避難所との重複":"","備考":""}},
{"type":"Feature","geometry":{"type":"Point","coordinates":[136.2262346869,36.1033400722]},"properties":{"Name":"古市公園","Jusho":"福井県福井市古市3丁目902","Kouzui":"","がけ崩れ、土石流及び地滑り":"","Takashio":"","地震":"◎","津波":"","大規模な火事":"","内水氾濫":"","火山現象":"","指定避難所との重複":"","備考":""}},
{"type":"Feature","geometry":{"type":"Point","coordinates":[136.2313400000,36.0996580000]},"properties":{"Name":"舟橋公園","Jusho":"福井県福井市高木北2丁目1012","Kouzui":"","がけ崩れ、土石流及び地滑り":"","Takashio":"","地震":"◎","津波":"","大規模な火事":"","内水氾濫":"","火山現象":"","指定避難所との重複":"","備考":""}},
{"type":"Feature","geometry":{"type":"Point","coordinates":[136.2322697480,36.0974798963]},"properties":{"Name":"中藤公園","Jusho":"福井県福井市高木北2丁目109","Kouzui":"","がけ崩れ、土石流及び地滑り":"","Takashio":"","地震":"◎","津波":"","大規模な火事":"","内水氾濫":"","火山現象":"","指定避難所との重複":"","備考":""}},
{"type":"Feature","geometry":{"type":"Point","coordinates":[136.2517768700,36.0711865778]},"properties":{"Name":"南四ツ居公園","Jusho":"福井県福井市南四ツ居町1字山口108","Kouzui":"","がけ崩れ、土石流及び地滑り":"","Takashio":"","地震":"◎","津波":"","大規模な火事":"","内水氾濫":"","火山現象":"","指定避難所との重複":"","備考":""}},
{"type":"Feature","geometry":{"type":"Point","coordinates":[136.2571830000,36.0559750000]},"properties":{"Name":"問屋公園","Jusho":"福井県福井市問屋2丁目54","Kouzui":"","がけ崩れ、土石流及び地滑り":"","Takashio":"","地震":"◎","津波":"","大規模な火事":"","内水氾濫":"","火山現象":"","指定避難所との重複":"","備考":""}},
{"type":"Feature","geometry":{"type":"Point","coordinates":[136.2394348221,36.0770473707]},"properties":{"Name":"芝原公園","Jusho":"福井県福井市開発1丁目301","Kouzui":"","がけ崩れ、土石流及び地滑り":"◎","Takashio":"","地震":"◎","津波":"","大規模な火事":"","内水氾濫":"","火山現象":"","指定避難所との重複":"","備考":""}},
{"type":"Feature","geometry":{"type":"Point","coordinates":[136.2386870000,36.0812960000]},"properties":{"Name":"緑ヶ丘公園","Jusho":"福井県福井市開発4丁目701","Kouzui":"","がけ崩れ、土石流及び地滑り":"◎","Takashio":"","地震":"◎","津波":"","大規模な火事":"","内水氾濫":"","火山現象":"","指定避難所との重複":"","備考":""}},
{"type":"Feature","geometry":{"type":"Point","coordinates":[136.2336930000,36.0937730000]},"properties":{"Name":"光公園","Jusho":"福井県福井市高木中央2丁目901","Kouzui":"","がけ崩れ、土石流及び地滑り":"","Takashio":"","地震":"◎","津波":"","大規模な火事":"","内水氾濫":"","火山現象":"","指定避難所との重複":"","備考":""}},
{"type":"Feature","geometry":{"type":"Point","coordinates":[136.2051025668,36.0493062628]},"properties":{"Name":"月見公園","Jusho":"福井県福井市みのり4丁目7","Kouzui":"","がけ崩れ、土石流及び地滑り":"◎","Takashio":"","地震":"◎","津波":"","大規模な火事":"","内水氾濫":"","火山現象":"","指定避難所との重複":"","備考":""}},
{"type":"Feature","geometry":{"type":"Point","coordinates":[136.2448090000,36.0885150000]},"properties":{"Name":"市場公園","Jusho":"福井県福井市高柳町44字左来1番7","Kouzui":"","がけ崩れ、土石流及び地滑り":"","Takashio":"","地震":"◎","津波":"","大規模な火事":"","内水氾濫":"","火山現象":"","指定避難所との重複":"","備考":""}},
{"type":"Feature","geometry":{"type":"Point","coordinates":[136.2450350000,36.0698650000]},"properties":{"Name":"円山公園","Jusho":"福井県福井市円山1丁目1008","Kouzui":"","がけ崩れ、土石流及び地滑り":"","Takashio":"","地震":"◎","津波":"","大規模な火事":"","内水氾濫":"","火山現象":"","指定避難所との重複":"","備考":""}},
{"type":"Feature","geometry":{"type":"Point","coordinates":[136.2450505360,36.0585842143]},"properties":{"Name":"北公園","Jusho":"福井県福井市成和1丁目301","Kouzui":"","がけ崩れ、土石流及び地滑り":"","Takashio":"","地震":"◎","津波":"","大規模な火事":"","内水氾濫":"","火山現象":"","指定避難所との重複":"","備考":""}},
{"type":"Feature","geometry":{"type":"Point","coordinates":[136.2058276827,36.0762984966]},"properties":{"Name":"丸田公園","Jusho":"福井県福井市文京5丁目9","Kouzui":"","がけ崩れ、土石流及び地滑り":"","Takashio":"","地震":"◎","津波":"","大規模な火事":"","内水氾濫":"","火山現象":"","指定避難所との重複":"","備考":""}},
{"type":"Feature","geometry":{"type":"Point","coordinates":[136.1984700000,36.0805100000]},"properties":{"Name":"夕道公園","Jusho":"福井県福井市大宮6丁目12","Kouzui":"","がけ崩れ、土石流及び地滑り":"","Takashio":"","地震":"◎","津波":"","大規模な火事":"","内水氾濫":"","火山現象":"","指定避難所との重複":"","備考":""}},
{"type":"Feature","geometry":{"type":"Point","coordinates":[136.1984090000,36.0778170000]},"properties":{"Name":"川田公園","Jusho":"福井県福井市文京6丁目32","Kouzui":"","がけ崩れ、土石流及び地滑り":"","Takashio":"","地震":"◎","津波":"","大規模な火事":"","内水氾濫":"","火山現象":"","指定避難所との重複":"","備考":""}},
{"type":"Feature","geometry":{"type":"Point","coordinates":[136.1993100000,36.0753500000]},"properties":{"Name":"西端公園","Jusho":"福井県福井市文京6丁目12","Kouzui":"","がけ崩れ、土石流及び地滑り":"","Takashio":"","地震":"◎","津波":"","大規模な火事":"","内水氾濫":"","火山現象":"","指定避難所との重複":"","備考":""}},
{"type":"Feature","geometry":{"type":"Point","coordinates":[136.1953000000,36.0772000000]},"properties":{"Name":"太田公園","Jusho":"福井県福井市文京7丁目16","Kouzui":"","がけ崩れ、土石流及び地滑り":"◎","Takashio":"","地震":"◎","津波":"","大規模な火事":"","内水氾濫":"","火山現象":"","指定避難所との重複":"","備考":""}},
{"type":"Feature","geometry":{"type":"Point","coordinates":[136.2338540000,36.0684520000]},"properties":{"Name":"金町公園","Jusho":"福井県福井市志比口1丁目9","Kouzui":"","がけ崩れ、土石流及び地滑り":"","Takashio":"","地震":"◎","津波":"","大規模な火事":"","内水氾濫":"","火山現象":"","指定避難所との重複":"","備考":""}},
{"type":"Feature","geometry":{"type":"Point","coordinates":[136.2356580000,36.0658630000]},"properties":{"Name":"四ツ井公園","Jusho":"福井県福井市四ツ井1丁目8","Kouzui":"","がけ崩れ、土石流及び地滑り":"","Takashio":"","地震":"◎","津波":"","大規模な火事":"","内水氾濫":"","火山現象":"","指定避難所との重複":"","備考":""}},
{"type":"Feature","geometry":{"type":"Point","coordinates":[136.2426830000,36.0603170000]},"properties":{"Name":"荒川公園","Jusho":"福井県福井市南四ツ居2丁目4","Kouzui":"","がけ崩れ、土石流及び地滑り":"","Takashio":"","地震":"◎","津波":"","大規模な火事":"","内水氾濫":"","火山現象":"","指定避難所との重複":"","備考":""}},
{"type":"Feature","geometry":{"type":"Point","coordinates":[136.2431660000,36.0653660000]},"properties":{"Name":"北四ツ居公園","Jusho":"福井県福井市北四ツ居1丁目3","Kouzui":"","がけ崩れ、土石流及び地滑り":"","Takashio":"","地震":"◎","津波":"","大規模な火事":"","内水氾濫":"","火山現象":"","指定避難所との重複":"","備考":""}},
{"type":"Feature","geometry":{"type":"Point","coordinates":[136.2413620000,36.0681380000]},"properties":{"Name":"中島公園","Jusho":"福井県福井市米松2丁目3","Kouzui":"","がけ崩れ、土石流及び地滑り":"","Takashio":"","地震":"◎","津波":"","大規模な火事":"","内水氾濫":"","火山現象":"","指定避難所との重複":"","備考":""}},
{"type":"Feature","geometry":{"type":"Point","coordinates":[136.2409750000,36.0715650000]},"properties":{"Name":"平岡公園","Jusho":"福井県福井市米松2丁目14","Kouzui":"","がけ崩れ、土石流及び地滑り":"","Takashio":"","地震":"◎","津波":"","大規模な火事":"","内水氾濫":"","火山現象":"","指定避難所との重複":"","備考":""}},
{"type":"Feature","geometry":{"type":"Point","coordinates":[136.1862290000,36.0020380000]},"properties":{"Name":"杉の木台公園","Jusho":"福井県福井市中野2丁目901","Kouzui":"◎","がけ崩れ、土石流及び地滑り":"◎","Takashio":"","地震":"◎","津波":"","大規模な火事":"","内水氾濫":"","火山現象":"","指定避難所との重複":"","備考":""}},
{"type":"Feature","geometry":{"type":"Point","coordinates":[136.1874414860,35.9994928546]},"properties":{"Name":"立花公園","Jusho":"福井県福井市三十八社町709","Kouzui":"◎","がけ崩れ、土石流及び地滑り":"◎","Takashio":"","地震":"◎","津波":"","大規模な火事":"","内水氾濫":"","火山現象":"","指定避難所との重複":"","備考":""}},
{"type":"Feature","geometry":{"type":"Point","coordinates":[136.1804947680,36.0413339377]},"properties":{"Name":"希望ヶ丘公園","Jusho":"福井県福井市下江守町53字モクロシ23-2","Kouzui":"","がけ崩れ、土石流及び地滑り":"◎","Takashio":"","地震":"◎","津波":"","大規模な火事":"","内水氾濫":"","火山現象":"","指定避難所との重複":"","備考":""}},
{"type":"Feature","geometry":{"type":"Point","coordinates":[136.2486198293,36.0697640325]},"properties":{"Name":"丸山公園","Jusho":"福井県福井市北四ツ居町30字円命102","Kouzui":"","がけ崩れ、土石流及び地滑り":"","Takashio":"","地震":"◎","津波":"","大規模な火事":"","内水氾濫":"","火山現象":"","指定避難所との重複":"","備考":""}},
{"type":"Feature","geometry":{"type":"Point","coordinates":[136.2310600000,36.0819600000]},"properties":{"Name":"大江田公園","Jusho":"福井県福井市大願寺1丁目6","Kouzui":"","がけ崩れ、土石流及び地滑り":"","Takashio":"","地震":"◎","津波":"","大規模な火事":"","内水氾濫":"","火山現象":"","指定避難所との重複":"","備考":""}},
{"type":"Feature","geometry":{"type":"Point","coordinates":[136.1869380000,36.0615210000]},"properties":{"Name":"若杉浜公園","Jusho":"福井県福井市若杉浜2丁目402","Kouzui":"","がけ崩れ、土石流及び地滑り":"◎","Takashio":"","地震":"◎","津波":"","大規模な火事":"","内水氾濫":"","火山現象":"","指定避難所との重複":"","備考":""}},
{"type":"Feature","geometry":{"type":"Point","coordinates":[136.2183802848,36.1048608256]},"properties":{"Name":"天池公園","Jusho":"福井県福井市天池町38字41-11","Kouzui":"","がけ崩れ、土石流及び地滑り":"","Takashio":"","地震":"◎","津波":"","大規模な火事":"","内水氾濫":"","火山現象":"","指定避難所との重複":"","備考":""}},
{"type":"Feature","geometry":{"type":"Point","coordinates":[136.1931240000,36.0684260000]},"properties":{"Name":"豊岡公園","Jusho":"福井県福井市豊岡1丁目5","Kouzui":"","がけ崩れ、土石流及び地滑り":"◎","Takashio":"","地震":"◎","津波":"","大規模な火事":"","内水氾濫":"","火山現象":"","指定避難所との重複":"","備考":""}},
{"type":"Feature","geometry":{"type":"Point","coordinates":[136.1919320000,36.0732650000]},"properties":{"Name":"三条公園","Jusho":"福井県福井市菅谷2丁目8","Kouzui":"","がけ崩れ、土石流及び地滑り":"◎","Takashio":"","地震":"◎","津波":"","大規模な火事":"","内水氾濫":"","火山現象":"","指定避難所との重複":"","備考":""}},
{"type":"Feature","geometry":{"type":"Point","coordinates":[136.1995100000,36.0649100000]},"properties":{"Name":"御蔵公園","Jusho":"福井県福井市光陽2丁目20","Kouzui":"","がけ崩れ、土石流及び地滑り":"","Takashio":"","地震":"◎","津波":"","大規模な火事":"","内水氾濫":"","火山現象":"","指定避難所との重複":"","備考":""}},
{"type":"Feature","geometry":{"type":"Point","coordinates":[136.1962820000,36.0660980000]},"properties":{"Name":"北江公園","Jusho":"福井県福井市光陽3丁目5","Kouzui":"","がけ崩れ、土石流及び地滑り":"","Takashio":"","地震":"◎","津波":"","大規模な火事":"","内水氾濫":"","火山現象":"","指定避難所との重複":"","備考":""}},
{"type":"Feature","geometry":{"type":"Point","coordinates":[136.2145520000,36.0273590000]},"properties":{"Name":"若宮公園","Jusho":"福井県福井市江端町11字29","Kouzui":"","がけ崩れ、土石流及び地滑り":"◎","Takashio":"","地震":"◎","津波":"","大規模な火事":"","内水氾濫":"","火山現象":"","指定避難所との重複":"","備考":""}},
{"type":"Feature","geometry":{"type":"Point","coordinates":[136.2174520000,36.0314130000]},"properties":{"Name":"向田公園","Jusho":"福井県福井市江端町2字11","Kouzui":"","がけ崩れ、土石流及び地滑り":"◎","Takashio":"","地震":"◎","津波":"","大規模な火事":"","内水氾濫":"","火山現象":"","指定避難所との重複":"","備考":""}},
{"type":"Feature","geometry":{"type":"Point","coordinates":[136.1822650000,36.0314390000]},"properties":{"Name":"江守の里公園","Jusho":"福井県福井市江守の里1丁目201","Kouzui":"","がけ崩れ、土石流及び地滑り":"◎","Takashio":"","地震":"◎","津波":"","大規模な火事":"","内水氾濫":"","火山現象":"","指定避難所との重複":"","備考":""}},
{"type":"Feature","geometry":{"type":"Point","coordinates":[136.1804610000,36.0295560000]},"properties":{"Name":"花園公園","Jusho":"福井県福井市江守の里1丁目701","Kouzui":"","がけ崩れ、土石流及び地滑り":"◎","Takashio":"","地震":"◎","津波":"","大規模な火事":"","内水氾濫":"","火山現象":"","指定避難所との重複":"","備考":""}},
{"type":"Feature","geometry":{"type":"Point","coordinates":[136.2126840000,36.0949760000]},"properties":{"Name":"灯明寺公園","Jusho":"福井県福井市灯明寺2丁目1504","Kouzui":"","がけ崩れ、土石流及び地滑り":"","Takashio":"","地震":"◎","津波":"","大規模な火事":"","内水氾濫":"","火山現象":"","指定避難所との重複":"","備考":""}},
{"type":"Feature","geometry":{"type":"Point","coordinates":[136.2108150000,36.0896140000]},"properties":{"Name":"明新公園","Jusho":"福井県福井市灯明寺1丁目801","Kouzui":"","がけ崩れ、土石流及び地滑り":"","Takashio":"","地震":"◎","津波":"","大規模な火事":"","内水氾濫":"","火山現象":"","指定避難所との重複":"","備考":""}},
{"type":"Feature","geometry":{"type":"Point","coordinates":[136.2183870000,36.0894830000]},"properties":{"Name":"ひばり公園","Jusho":"福井県福井市経田2丁目1206","Kouzui":"","がけ崩れ、土石流及び地滑り":"","Takashio":"","地震":"◎","津波":"","大規模な火事":"","内水氾濫":"","火山現象":"","指定避難所との重複":"","備考":""}},
{"type":"Feature","geometry":{"type":"Point","coordinates":[136.2223500000,36.0886460000]},"properties":{"Name":"ちどり公園","Jusho":"福井県福井市経田1丁目301","Kouzui":"","がけ崩れ、土石流及び地滑り":"","Takashio":"","地震":"◎","津波":"","大規模な火事":"","内水氾濫":"","火山現象":"","指定避難所との重複":"","備考":""}},
{"type":"Feature","geometry":{"type":"Point","coordinates":[136.2189670000,36.0845390000]},"properties":{"Name":"かもめ公園","Jusho":"福井県福井市二の宮3丁目17","Kouzui":"","がけ崩れ、土石流及び地滑り":"","Takashio":"","地震":"◎","津波":"","大規模な火事":"","内水氾濫":"","火山現象":"","指定避難所との重複":"","備考":""}},
{"type":"Feature","geometry":{"type":"Point","coordinates":[136.2431980000,36.0547200000]},"properties":{"Name":"深町公園","Jusho":"福井県福井市成和1丁目2001","Kouzui":"","がけ崩れ、土石流及び地滑り":"","Takashio":"","地震":"◎","津波":"","大規模な火事":"","内水氾濫":"","火山現象":"","指定避難所との重複":"","備考":""}},
{"type":"Feature","geometry":{"type":"Point","coordinates":[136.2433023040,36.0509322527]},"properties":{"Name":"渕上公園","Jusho":"福井県福井市和田2丁目401","Kouzui":"","がけ崩れ、土石流及び地滑り":"","Takashio":"","地震":"◎","津波":"","大規模な火事":"","内水氾濫":"","火山現象":"","指定避難所との重複":"","備考":""}},
{"type":"Feature","geometry":{"type":"Point","coordinates":[136.1959133860,36.0602212087]},"properties":{"Name":"加茂河原公園","Jusho":"福井県福井市加茂河原1丁目5-1","Kouzui":"◎","がけ崩れ、土石流及び地滑り":"◎","Takashio":"","地震":"◎","津波":"","大規模な火事":"","内水氾濫":"","火山現象":"","指定避難所との重複":"","備考":""}},
{"type":"Feature","geometry":{"type":"Point","coordinates":[136.2352720000,36.0789940000]},"properties":{"Name":"若草公園","Jusho":"福井県福井市西開発2丁目405","Kouzui":"","がけ崩れ、土石流及び地滑り":"◎","Takashio":"","地震":"◎","津波":"","大規模な火事":"","内水氾濫":"","火山現象":"","指定避難所との重複":"","備考":""}},
{"type":"Feature","geometry":{"type":"Point","coordinates":[136.2327260000,36.0825250000]},"properties":{"Name":"若泉公園","Jusho":"福井県福井市西開発3丁目512","Kouzui":"","がけ崩れ、土石流及び地滑り":"◎","Takashio":"","地震":"◎","津波":"","大規模な火事":"","内水氾濫":"","火山現象":"","指定避難所との重複":"","備考":""}},
{"type":"Feature","geometry":{"type":"Point","coordinates":[136.1884542900,36.0673319014]},"properties":{"Name":"水越公園","Jusho":"福井県福井市水越2丁目101","Kouzui":"","がけ崩れ、土石流及び地滑り":"◎","Takashio":"","地震":"◎","津波":"","大規模な火事":"","内水氾濫":"","火山現象":"","指定避難所との重複":"","備考":""}},
{"type":"Feature","geometry":{"type":"Point","coordinates":[136.2319200000,36.0874170000]},"properties":{"Name":"高木中央１号公園","Jusho":"福井県福井市高木中央1丁目3401","Kouzui":"","がけ崩れ、土石流及び地滑り":"","Takashio":"","地震":"◎","津波":"","大規模な火事":"","内水氾濫":"","火山現象":"","指定避難所との重複":"","備考":""}},
{"type":"Feature","geometry":{"type":"Point","coordinates":[136.1915130000,36.0605530000]},"properties":{"Name":"熊野公園","Jusho":"福井県福井市加茂河原4丁目720","Kouzui":"","がけ崩れ、土石流及び地滑り":"◎","Takashio":"","地震":"◎","津波":"","大規模な火事":"","内水氾濫":"","火山現象":"","指定避難所との重複":"","備考":""}},
{"type":"Feature","geometry":{"type":"Point","coordinates":[136.2039827410,36.0908220362]},"properties":{"Name":"新田塚中央公園","Jusho":"福井県福井市新田塚2丁目61","Kouzui":"","がけ崩れ、土石流及び地滑り":"","Takashio":"","地震":"◎","津波":"","大規模な火事":"","内水氾濫":"","火山現象":"","指定避難所との重複":"","備考":""}},
{"type":"Feature","geometry":{"type":"Point","coordinates":[136.2357550000,36.0909220000]},"properties":{"Name":"高木中央２号公園","Jusho":"福井県福井市高木中央2丁目3601","Kouzui":"","がけ崩れ、土石流及び地滑り":"","Takashio":"","地震":"◎","津波":"","大規模な火事":"","内水氾濫":"","火山現象":"","指定避難所との重複":"","備考":""}},
{"type":"Feature","geometry":{"type":"Point","coordinates":[136.1859070000,36.0654970000]},"properties":{"Name":"飯塚公園","Jusho":"福井県福井市飯塚町7字54","Kouzui":"","がけ崩れ、土石流及び地滑り":"◎","Takashio":"","地震":"◎","津波":"","大規模な火事":"","内水氾濫":"","火山現象":"","指定避難所との重複":"","備考":""}},
{"type":"Feature","geometry":{"type":"Point","coordinates":[136.1772710000,36.0531500000]},"properties":{"Name":"久喜津公園","Jusho":"福井県福井市運動公園4丁目1401","Kouzui":"","がけ崩れ、土石流及び地滑り":"◎","Takashio":"","地震":"◎","津波":"","大規模な火事":"","内水氾濫":"","火山現象":"","指定避難所との重複":"","備考":""}},
{"type":"Feature","geometry":{"type":"Point","coordinates":[136.2099120000,36.0491220000]},"properties":{"Name":"みのり中央公園","Jusho":"福井県福井市みのり3丁目24","Kouzui":"","がけ崩れ、土石流及び地滑り":"◎","Takashio":"","地震":"◎","津波":"","大規模な火事":"","内水氾濫":"","火山現象":"","指定避難所との重複":"","備考":""}},
{"type":"Feature","geometry":{"type":"Point","coordinates":[136.2357870000,36.0965450000]},"properties":{"Name":"北前公園","Jusho":"福井県福井市高木北4丁目304","Kouzui":"","がけ崩れ、土石流及び地滑り":"","Takashio":"","地震":"◎","津波":"","大規模な火事":"","内水氾濫":"","火山現象":"","指定避難所との重複":"","備考":""}},
{"type":"Feature","geometry":{"type":"Point","coordinates":[136.2277310000,36.0437600000]},"properties":{"Name":"南板垣公園","Jusho":"福井県福井市板垣5丁目301","Kouzui":"","がけ崩れ、土石流及び地滑り":"","Takashio":"","地震":"◎","津波":"","大規模な火事":"","内水氾濫":"","火山現象":"","指定避難所との重複":"","備考":""}},
{"type":"Feature","geometry":{"type":"Point","coordinates":[136.2441650000,36.0798310000]},"properties":{"Name":"砂田公園","Jusho":"福井県福井市開発3丁目2801","Kouzui":"","がけ崩れ、土石流及び地滑り":"◎","Takashio":"","地震":"◎","津波":"","大規模な火事":"","内水氾濫":"","火山現象":"","指定避難所との重複":"","備考":""}},
{"type":"Feature","geometry":{"type":"Point","coordinates":[136.2520920000,36.0527050000]},"properties":{"Name":"沖田１号公園","Jusho":"福井県福井市問屋町3丁目506","Kouzui":"","がけ崩れ、土石流及び地滑り":"","Takashio":"","地震":"◎","津波":"","大規模な火事":"","内水氾濫":"","火山現象":"","指定避難所との重複":"","備考":""}},
{"type":"Feature","geometry":{"type":"Point","coordinates":[136.2555400000,36.0522870000]},"properties":{"Name":"沖田２号公園","Jusho":"福井県福井市問屋町4丁目801","Kouzui":"","がけ崩れ、土石流及び地滑り":"","Takashio":"","地震":"◎","津波":"","大規模な火事":"","内水氾濫":"","火山現象":"","指定避難所との重複":"","備考":""}},
{"type":"Feature","geometry":{"type":"Point","coordinates":[136.2005680000,36.0276470000]},"properties":{"Name":"寺端公園","Jusho":"福井県福井市下荒井町10字404","Kouzui":"◎","がけ崩れ、土石流及び地滑り":"◎","Takashio":"","地震":"◎","津波":"","大規模な火事":"","内水氾濫":"","火山現象":"","指定避難所との重複":"","備考":""}},
{"type":"Feature","geometry":{"type":"Point","coordinates":[136.2006650000,36.0240630000]},"properties":{"Name":"引目公園","Jusho":"福井県福井市引目町8字101","Kouzui":"◎","がけ崩れ、土石流及び地滑り":"◎","Takashio":"","地震":"◎","津波":"","大規模な火事":"","内水氾濫":"","火山現象":"","指定避難所との重複":"","備考":""}},
{"type":"Feature","geometry":{"type":"Point","coordinates":[136.2043060000,36.0248740000]},"properties":{"Name":"下荒井南公園","Jusho":"福井県福井市下荒井町7字307","Kouzui":"◎","がけ崩れ、土石流及び地滑り":"◎","Takashio":"","地震":"◎","津波":"","大規模な火事":"","内水氾濫":"","火山現象":"","指定避難所との重複":"","備考":""}},
{"type":"Feature","geometry":{"type":"Point","coordinates":[136.2430370000,36.0774500000]},"properties":{"Name":"啓蒙公園","Jusho":"福井県福井市開発1丁目1605","Kouzui":"","がけ崩れ、土石流及び地滑り":"◎","Takashio":"","地震":"◎","津波":"","大規模な火事":"","内水氾濫":"","火山現象":"","指定避難所との重複":"","備考":""}},
{"type":"Feature","geometry":{"type":"Point","coordinates":[136.2518340000,36.0820020000]},"properties":{"Name":"鉾田公園","Jusho":"福井県福井市新保3丁目901","Kouzui":"","がけ崩れ、土石流及び地滑り":"◎","Takashio":"","地震":"◎","津波":"","大規模な火事":"","内水氾濫":"","火山現象":"","指定避難所との重複":"","備考":""}},
{"type":"Feature","geometry":{"type":"Point","coordinates":[136.2534130000,36.0807200000]},"properties":{"Name":"新保東公園","Jusho":"福井県福井市新保3丁目1901","Kouzui":"","がけ崩れ、土石流及び地滑り":"◎","Takashio":"","地震":"◎","津波":"","大規模な火事":"","内水氾濫":"","火山現象":"","指定避難所との重複":"","備考":""}},
{"type":"Feature","geometry":{"type":"Point","coordinates":[136.2481610000,36.0774240000]},"properties":{"Name":"堂前公園","Jusho":"福井県福井市丸山2丁目2101","Kouzui":"◎","がけ崩れ、土石流及び地滑り":"","Takashio":"","地震":"◎","津波":"","大規模な火事":"","内水氾濫":"","火山現象":"","指定避難所との重複":"","備考":""}},
{"type":"Feature","geometry":{"type":"Point","coordinates":[136.2454540000,36.0745210000]},"properties":{"Name":"丸山中央公園","Jusho":"福井県福井市丸山2丁目705","Kouzui":"","がけ崩れ、土石流及び地滑り":"◎","Takashio":"","地震":"◎","津波":"","大規模な火事":"","内水氾濫":"","火山現象":"","指定避難所との重複":"","備考":""}},
{"type":"Feature","geometry":{"type":"Point","coordinates":[136.2420611887,36.0731601862]},"properties":{"Name":"丸山西公園","Jusho":"福井県福井市丸山1丁目501","Kouzui":"","がけ崩れ、土石流及び地滑り":"◎","Takashio":"","地震":"◎","津波":"","大規模な火事":"","内水氾濫":"","火山現象":"","指定避難所との重複":"","備考":""}},
{"type":"Feature","geometry":{"type":"Point","coordinates":[136.2062710000,36.0397050000]},"properties":{"Name":"西谷東公園","Jusho":"福井県福井市西谷1丁目701","Kouzui":"","がけ崩れ、土石流及び地滑り":"◎","Takashio":"","地震":"◎","津波":"","大規模な火事":"","内水氾濫":"","火山現象":"","指定避難所との重複":"","備考":""}},
{"type":"Feature","geometry":{"type":"Point","coordinates":[136.2055620000,36.0381100000]},"properties":{"Name":"西谷南公園","Jusho":"福井県福井市西谷2丁目701","Kouzui":"","がけ崩れ、土石流及び地滑り":"◎","Takashio":"","地震":"◎","津波":"","大規模な火事":"","内水氾濫":"","火山現象":"","指定避難所との重複":"","備考":""}},
{"type":"Feature","geometry":{"type":"Point","coordinates":[136.2160500000,36.0486100000]},"properties":{"Name":"昭和町公園","Jusho":"福井県福井市みのり1丁目14","Kouzui":"","がけ崩れ、土石流及び地滑り":"","Takashio":"","地震":"◎","津波":"","大規模な火事":"","内水氾濫":"","火山現象":"","指定避難所との重複":"","備考":""}},
{"type":"Feature","geometry":{"type":"Point","coordinates":[136.2165180000,36.1174980000]},"properties":{"Name":"つくし野中央公園","Jusho":"福井県福井市つくし野2丁目801","Kouzui":"","がけ崩れ、土石流及び地滑り":"","Takashio":"","地震":"◎","津波":"","大規模な火事":"","内水氾濫":"","火山現象":"","指定避難所との重複":"","備考":""}},
{"type":"Feature","geometry":{"type":"Point","coordinates":[136.2153260000,36.1202440000]},"properties":{"Name":"つくし野北公園","Jusho":"福井県福井市つくし野1丁目303","Kouzui":"","がけ崩れ、土石流及び地滑り":"","Takashio":"","地震":"◎","津波":"","大規模な火事":"","内水氾濫":"","火山現象":"","指定避難所との重複":"","備考":""}},
{"type":"Feature","geometry":{"type":"Point","coordinates":[136.2138760000,36.1174980000]},"properties":{"Name":"つくし野西公園","Jusho":"福井県福井市つくし野3丁目501","Kouzui":"","がけ崩れ、土石流及び地滑り":"","Takashio":"","地震":"◎","津波":"","大規模な火事":"","内水氾濫":"","火山現象":"","指定避難所との重複":"","備考":""}},
{"type":"Feature","geometry":{"type":"Point","coordinates":[136.2059920000,36.0882570000]},"properties":{"Name":"新田塚元町公園","Jusho":"福井県福井市新田塚1丁目4","Kouzui":"","がけ崩れ、土石流及び地滑り":"","Takashio":"","地震":"◎","津波":"","大規模な火事":"","内水氾濫":"","火山現象":"","指定避難所との重複":"","備考":""}},
{"type":"Feature","geometry":{"type":"Point","coordinates":[136.2043919259,36.0965571480]},"properties":{"Name":"灯新公園","Jusho":"福井県福井市灯明寺町3字1-8","Kouzui":"","がけ崩れ、土石流及び地滑り":"","Takashio":"","地震":"◎","津波":"","大規模な火事":"","内水氾濫":"","火山現象":"","指定避難所との重複":"","備考":""}},
{"type":"Feature","geometry":{"type":"Point","coordinates":[136.2350825015,36.1020853033]},"properties":{"Name":"寺前公園","Jusho":"福井県福井市寺前町4字6-10","Kouzui":"","がけ崩れ、土石流及び地滑り":"","Takashio":"","地震":"◎","津波":"","大規模な火事":"","内水氾濫":"","火山現象":"","指定避難所との重複":"","備考":""}},
{"type":"Feature","geometry":{"type":"Point","coordinates":[136.2380100000,36.0980300000]},"properties":{"Name":"高柳新町公園","Jusho":"福井県福井市高柳町8字24-8","Kouzui":"","がけ崩れ、土石流及び地滑り":"","Takashio":"","地震":"◎","津波":"","大規模な火事":"","内水氾濫":"","火山現象":"","指定避難所との重複":"","備考":""}},
{"type":"Feature","geometry":{"type":"Point","coordinates":[136.2622346060,36.0856976133]},"properties":{"Name":"若栄公園","Jusho":"福井県福井市若栄町1001","Kouzui":"◎","がけ崩れ、土石流及び地滑り":"◎","Takashio":"","地震":"◎","津波":"","大規模な火事":"","内水氾濫":"","火山現象":"","指定避難所との重複":"","備考":""}},
{"type":"Feature","geometry":{"type":"Point","coordinates":[136.1929832300,36.0820677600]},"properties":{"Name":"三郎丸団地公園","Jusho":"福井県福井市三郎丸町28字1-38","Kouzui":"","がけ崩れ、土石流及び地滑り":"◎","Takashio":"","地震":"◎","津波":"","大規模な火事":"","内水氾濫":"","火山現象":"","指定避難所との重複":"","備考":""}},
{"type":"Feature","geometry":{"type":"Point","coordinates":[136.1929960000,36.0772940000]},"properties":{"Name":"三郎丸公園","Jusho":"福井県福井市三郎丸1丁目801","Kouzui":"","がけ崩れ、土石流及び地滑り":"◎","Takashio":"","地震":"◎","津波":"","大規模な火事":"","内水氾濫":"","火山現象":"","指定避難所との重複":"","備考":""}},
{"type":"Feature","geometry":{"type":"Point","coordinates":[136.1917390000,36.0800660000]},"properties":{"Name":"祇王公園","Jusho":"福井県福井市三郎丸2丁目2501","Kouzui":"","がけ崩れ、土石流及び地滑り":"◎","Takashio":"","地震":"◎","津波":"","大規模な火事":"","内水氾濫":"","火山現象":"","指定避難所との重複":"","備考":""}},
{"type":"Feature","geometry":{"type":"Point","coordinates":[136.1828080430,36.0591142794]},"properties":{"Name":"新堀北公園","Jusho":"福井県福井市若杉町28字28-4","Kouzui":"","がけ崩れ、土石流及び地滑り":"◎","Takashio":"","地震":"◎","津波":"","大規模な火事":"","内水氾濫":"","火山現象":"","指定避難所との重複":"","備考":""}},
{"type":"Feature","geometry":{"type":"Point","coordinates":[136.1797880000,36.0570880000]},"properties":{"Name":"高塚公園","Jusho":"福井県福井市高塚町809","Kouzui":"","がけ崩れ、土石流及び地滑り":"◎","Takashio":"","地震":"◎","津波":"","大規模な火事":"","内水氾濫":"","火山現象":"","指定避難所との重複":"","備考":""}},
{"type":"Feature","geometry":{"type":"Point","coordinates":[136.2071110000,36.0416890000]},"properties":{"Name":"コモンライフ花堂公園","Jusho":"福井県福井市花堂北2丁目28","Kouzui":"","がけ崩れ、土石流及び地滑り":"","Takashio":"","地震":"◎","津波":"","大規模な火事":"","内水氾濫":"","火山現象":"","指定避難所との重複":"","備考":""}},
{"type":"Feature","geometry":{"type":"Point","coordinates":[136.2081930000,36.0285970000]},"properties":{"Name":"江端団地２号公園","Jusho":"福井県福井市江端町1006","Kouzui":"","がけ崩れ、土石流及び地滑り":"◎","Takashio":"","地震":"◎","津波":"","大規模な火事":"","内水氾濫":"","火山現象":"","指定避難所との重複":"","備考":""}},
{"type":"Feature","geometry":{"type":"Point","coordinates":[136.1943490000,36.0462970000]},"properties":{"Name":"陽光台公園","Jusho":"福井県福井市福町36字150","Kouzui":"◎","がけ崩れ、土石流及び地滑り":"◎","Takashio":"","地震":"◎","津波":"","大規模な火事":"","内水氾濫":"","火山現象":"","指定避難所との重複":"","備考":""}},
{"type":"Feature","geometry":{"type":"Point","coordinates":[136.2184190000,36.0363050000]},"properties":{"Name":"大町１号公園","Jusho":"福井県福井市大町1丁目1","Kouzui":"","がけ崩れ、土石流及び地滑り":"","Takashio":"","地震":"◎","津波":"","大規模な火事":"","内水氾濫":"","火山現象":"","指定避難所との重複":"","備考":""}},
{"type":"Feature","geometry":{"type":"Point","coordinates":[136.2219310000,36.0350230000]},"properties":{"Name":"大町２号公園","Jusho":"福井県福井市大町2丁目1","Kouzui":"","がけ崩れ、土石流及び地滑り":"","Takashio":"","地震":"◎","津波":"","大規模な火事":"","内水氾濫":"","火山現象":"","指定避難所との重複":"","備考":""}},
{"type":"Feature","geometry":{"type":"Point","coordinates":[136.2108504385,36.0381970053]},"properties":{"Name":"サンライフ花堂公園","Jusho":"福井県福井市花堂中2丁目13","Kouzui":"","がけ崩れ、土石流及び地滑り":"◎","Takashio":"","地震":"◎","津波":"","大規模な火事":"","内水氾濫":"","火山現象":"","指定避難所との重複":"","備考":""}},
{"type":"Feature","geometry":{"type":"Point","coordinates":[136.2321780000,36.1016720000]},"properties":{"Name":"舟橋第２公園","Jusho":"福井県福井市舟橋3丁目701","Kouzui":"","がけ崩れ、土石流及び地滑り":"","Takashio":"","地震":"◎","津波":"","大規模な火事":"","内水氾濫":"","火山現象":"","指定避難所との重複":"","備考":""}},
{"type":"Feature","geometry":{"type":"Point","coordinates":[136.1878520000,35.9943530000]},"properties":{"Name":"江尻ヶ丘北公園","Jusho":"福井県福井市江尻ヶ丘町290","Kouzui":"◎","がけ崩れ、土石流及び地滑り":"◎","Takashio":"","地震":"◎","津波":"","大規模な火事":"","内水氾濫":"","火山現象":"","指定避難所との重複":"","備考":""}},
{"type":"Feature","geometry":{"type":"Point","coordinates":[136.1876010000,35.9915180000]},"properties":{"Name":"江尻ヶ丘南公園","Jusho":"福井県福井市江尻ヶ丘町13","Kouzui":"◎","がけ崩れ、土石流及び地滑り":"◎","Takashio":"","地震":"◎","津波":"","大規模な火事":"","内水氾濫":"","火山現象":"","指定避難所との重複":"","備考":""}},
{"type":"Feature","geometry":{"type":"Point","coordinates":[136.1940150930,36.0570716287]},"properties":{"Name":"若茂公園","Jusho":"福井県福井市加茂河原町20字25-21","Kouzui":"◎","がけ崩れ、土石流及び地滑り":"","Takashio":"","地震":"◎","津波":"","大規模な火事":"","内水氾濫":"","火山現象":"","指定避難所との重複":"","備考":""}},
{"type":"Feature","geometry":{"type":"Point","coordinates":[136.1944100000,36.0039720000]},"properties":{"Name":"杉の木台第３公園","Jusho":"福井県福井市浅水二日町401","Kouzui":"◎","がけ崩れ、土石流及び地滑り":"◎","Takashio":"","地震":"◎","津波":"","大規模な火事":"","内水氾濫":"","火山現象":"","指定避難所との重複":"","備考":""}},
{"type":"Feature","geometry":{"type":"Point","coordinates":[136.1920870894,36.0853783062]},"properties":{"Name":"三ツ屋公園","Jusho":"福井県福井市三ツ屋2丁目302","Kouzui":"","がけ崩れ、土石流及び地滑り":"◎","Takashio":"","地震":"◎","津波":"","大規模な火事":"","内水氾濫":"","火山現象":"","指定避難所との重複":"","備考":""}},
{"type":"Feature","geometry":{"type":"Point","coordinates":[136.1789335364,36.0596837021]},"properties":{"Name":"狐橋公園","Jusho":"福井県福井市狐橋2丁目401","Kouzui":"","がけ崩れ、土石流及び地滑り":"◎","Takashio":"","地震":"◎","津波":"","大規模な火事":"","内水氾濫":"","火山現象":"","指定避難所との重複":"","備考":""}},
{"type":"Feature","geometry":{"type":"Point","coordinates":[136.1876790000,36.0772410000]},"properties":{"Name":"薬師公園","Jusho":"福井県福井市三郎丸2丁目501","Kouzui":"","がけ崩れ、土石流及び地滑り":"◎","Takashio":"","地震":"◎","津波":"","大規模な火事":"","内水氾濫":"","火山現象":"","指定避難所との重複":"","備考":""}},
{"type":"Feature","geometry":{"type":"Point","coordinates":[136.1947030000,36.0836240000]},"properties":{"Name":"小鳩公園","Jusho":"福井県福井市三郎丸4丁目403","Kouzui":"","がけ崩れ、土石流及び地滑り":"◎","Takashio":"","地震":"◎","津波":"","大規模な火事":"","内水氾濫":"","火山現象":"","指定避難所との重複":"","備考":""}},
{"type":"Feature","geometry":{"type":"Point","coordinates":[136.2460168260,36.0679800225]},"properties":{"Name":"江添公園","Jusho":"福井県福井市北四ツ居3丁目13","Kouzui":"","がけ崩れ、土石流及び地滑り":"","Takashio":"","地震":"◎","津波":"","大規模な火事":"","内水氾濫":"","火山現象":"","指定避難所との重複":"","備考":""}},
{"type":"Feature","geometry":{"type":"Point","coordinates":[136.2494270000,36.0654340000]},"properties":{"Name":"久保公園","Jusho":"福井県福井市大東2丁目6","Kouzui":"","がけ崩れ、土石流及び地滑り":"","Takashio":"","地震":"◎","津波":"","大規模な火事":"","内水氾濫":"","火山現象":"","指定避難所との重複":"","備考":""}},
{"type":"Feature","geometry":{"type":"Point","coordinates":[136.2450470000,36.0619860000]},"properties":{"Name":"西代公園","Jusho":"福井県福井市南四ツ居1丁目7","Kouzui":"","がけ崩れ、土石流及び地滑り":"","Takashio":"","地震":"◎","津波":"","大規模な火事":"","内水氾濫":"","火山現象":"","指定避難所との重複":"","備考":""}},
{"type":"Feature","geometry":{"type":"Point","coordinates":[136.2495840000,36.0619780000]},"properties":{"Name":"西浜公園","Jusho":"福井県福井市上北野1丁目21","Kouzui":"","がけ崩れ、土石流及び地滑り":"","Takashio":"","地震":"◎","津波":"","大規模な火事":"","内水氾濫":"","火山現象":"","指定避難所との重複":"","備考":""}},
{"type":"Feature","geometry":{"type":"Point","coordinates":[136.2461430000,36.0597020000]},"properties":{"Name":"東窪公園","Jusho":"福井県福井市南四ツ居2丁目17","Kouzui":"","がけ崩れ、土石流及び地滑り":"","Takashio":"","地震":"◎","津波":"","大規模な火事":"","内水氾濫":"","火山現象":"","指定避難所との重複":"","備考":""}},
{"type":"Feature","geometry":{"type":"Point","coordinates":[136.2814150000,36.0811090000]},"properties":{"Name":"流通センター公園","Jusho":"福井県福井市重立町28字61","Kouzui":"","がけ崩れ、土石流及び地滑り":"◎","Takashio":"","地震":"◎","津波":"","大規模な火事":"","内水氾濫":"","火山現象":"","指定避難所との重複":"","備考":""}},
{"type":"Feature","geometry":{"type":"Point","coordinates":[136.2692866749,36.0171615748]},"properties":{"Name":"東郷福田公園","Jusho":"福井県福井市東郷二ヶ町14字1-5","Kouzui":"◎","がけ崩れ、土石流及び地滑り":"◎","Takashio":"","地震":"◎","津波":"","大規模な火事":"","内水氾濫":"","火山現象":"","指定避難所との重複":"","備考":""}},
{"type":"Feature","geometry":{"type":"Point","coordinates":[136.2734986320,36.0070570525]},"properties":{"Name":"栃泉団地公園","Jusho":"福井県福井市栃泉町104字9-54","Kouzui":"◎","がけ崩れ、土石流及び地滑り":"","Takashio":"","地震":"◎","津波":"","大規模な火事":"","内水氾濫":"","火山現象":"","指定避難所との重複":"","備考":""}},
{"type":"Feature","geometry":{"type":"Point","coordinates":[136.2284430000,36.0813450000]},"properties":{"Name":"大願寺２号公園","Jusho":"福井県福井市大願寺3丁目2","Kouzui":"","がけ崩れ、土石流及び地滑り":"","Takashio":"","地震":"◎","津波":"","大規模な火事":"","内水氾濫":"","火山現象":"","指定避難所との重複":"","備考":""}},
{"type":"Feature","geometry":{"type":"Point","coordinates":[136.1965199990,36.0800215257]},"properties":{"Name":"堀の宮公園","Jusho":"福井県福井市堀ノ宮1丁目401","Kouzui":"","がけ崩れ、土石流及び地滑り":"◎","Takashio":"","地震":"◎","津波":"","大規模な火事":"","内水氾濫":"","火山現象":"","指定避難所との重複":"","備考":""}},
{"type":"Feature","geometry":{"type":"Point","coordinates":[136.1875151150,36.0102179738]},"properties":{"Name":"青葉台西公園","Jusho":"福井県福井市冬野町26字143","Kouzui":"◎","がけ崩れ、土石流及び地滑り":"","Takashio":"","地震":"◎","津波":"","大規模な火事":"","内水氾濫":"","火山現象":"","指定避難所との重複":"","備考":""}},
{"type":"Feature","geometry":{"type":"Point","coordinates":[136.2251792841,36.0509487275]},"properties":{"Name":"一本木公園","Jusho":"福井県福井市春日3丁目1306","Kouzui":"","がけ崩れ、土石流及び地滑り":"","Takashio":"","地震":"◎","津波":"","大規模な火事":"","内水氾濫":"","火山現象":"","指定避難所との重複":"","備考":""}},
{"type":"Feature","geometry":{"type":"Point","coordinates":[136.2348118738,36.0614160332]},"properties":{"Name":"東篁公園","Jusho":"福井県福井市城東2丁目301","Kouzui":"","がけ崩れ、土石流及び地滑り":"","Takashio":"","地震":"◎","津波":"","大規模な火事":"","内水氾濫":"","火山現象":"","指定避難所との重複":"","備考":""}},
{"type":"Feature","geometry":{"type":"Point","coordinates":[136.2294070000,36.0461140000]},"properties":{"Name":"板垣西公園","Jusho":"福井県福井市板垣4丁目501","Kouzui":"","がけ崩れ、土石流及び地滑り":"","Takashio":"","地震":"◎","津波":"","大規模な火事":"","内水氾濫":"","火山現象":"","指定避難所との重複":"","備考":""}},
{"type":"Feature","geometry":{"type":"Point","coordinates":[136.2329677811,36.0452948385]},"properties":{"Name":"板垣東公園","Jusho":"福井県福井市板垣3丁目1101","Kouzui":"","がけ崩れ、土石流及び地滑り":"","Takashio":"","地震":"◎","津波":"","大規模な火事":"","内水氾濫":"","火山現象":"","指定避難所との重複":"","備考":""}},
{"type":"Feature","geometry":{"type":"Point","coordinates":[136.2015690000,36.0879850000]},"properties":{"Name":"秋桜公園","Jusho":"福井県福井市新田塚2丁目27","Kouzui":"","がけ崩れ、土石流及び地滑り":"","Takashio":"","地震":"◎","津波":"","大規模な火事":"","内水氾濫":"","火山現象":"","指定避難所との重複":"","備考":""}},
{"type":"Feature","geometry":{"type":"Point","coordinates":[136.2023892615,36.0913065872]},"properties":{"Name":"上伏東公園","Jusho":"福井県福井市新田塚2丁目75","Kouzui":"","がけ崩れ、土石流及び地滑り":"","Takashio":"","地震":"◎","津波":"","大規模な火事":"","内水氾濫":"","火山現象":"","指定避難所との重複":"","備考":""}},
{"type":"Feature","geometry":{"type":"Point","coordinates":[136.2134316520,36.0493167928]},"properties":{"Name":"みのり２丁目公園","Jusho":"福井県福井市みのり2丁目11","Kouzui":"","がけ崩れ、土石流及び地滑り":"◎","Takashio":"","地震":"◎","津波":"","大規模な火事":"","内水氾濫":"","火山現象":"","指定避難所との重複":"","備考":""}},
{"type":"Feature","geometry":{"type":"Point","coordinates":[136.1861848697,36.0708579286]},"properties":{"Name":"大瀬公園","Jusho":"福井県福井市大瀬町19字101","Kouzui":"","がけ崩れ、土石流及び地滑り":"◎","Takashio":"","地震":"◎","津波":"","大規模な火事":"","内水氾濫":"","火山現象":"","指定避難所との重複":"","備考":""}},
{"type":"Feature","geometry":{"type":"Point","coordinates":[136.2069230000,36.0904960000]},"properties":{"Name":"新田塚１丁目公園","Jusho":"福井県福井市新田塚1丁目34","Kouzui":"","がけ崩れ、土石流及び地滑り":"","Takashio":"","地震":"◎","津波":"","大規模な火事":"","内水氾濫":"","火山現象":"","指定避難所との重複":"","備考":""}},
{"type":"Feature","geometry":{"type":"Point","coordinates":[136.2389770000,36.0418760000]},"properties":{"Name":"下馬東公園","Jusho":"福井県福井市下馬2丁目1108","Kouzui":"","がけ崩れ、土石流及び地滑り":"","Takashio":"","地震":"◎","津波":"","大規模な火事":"","内水氾濫":"","火山現象":"","指定避難所との重複":"","備考":""}},
{"type":"Feature","geometry":{"type":"Point","coordinates":[136.2286980000,36.0400450000]},"properties":{"Name":"羽水公園","Jusho":"福井県福井市羽水2丁目205","Kouzui":"","がけ崩れ、土石流及び地滑り":"","Takashio":"","地震":"◎","津波":"","大規模な火事":"","内水氾濫":"","火山現象":"","指定避難所との重複":"","備考":""}},
{"type":"Feature","geometry":{"type":"Point","coordinates":[136.2279178294,36.1075439924]},"properties":{"Name":"下森田新町公園","Jusho":"福井県福井市下森田新町15字54-36","Kouzui":"","がけ崩れ、土石流及び地滑り":"","Takashio":"","地震":"◎","津波":"","大規模な火事":"","内水氾濫":"","火山現象":"","指定避難所との重複":"","備考":""}},
{"type":"Feature","geometry":{"type":"Point","coordinates":[136.2006016694,36.0911530323]},"properties":{"Name":"新田塚西部公園","Jusho":"福井県福井市新田塚2丁目76","Kouzui":"","がけ崩れ、土石流及び地滑り":"","Takashio":"","地震":"◎","津波":"","大規模な火事":"","内水氾濫":"","火山現象":"","指定避難所との重複":"","備考":""}},
{"type":"Feature","geometry":{"type":"Point","coordinates":[136.2632752922,36.0840988575]},"properties":{"Name":"若栄団地公園","Jusho":"福井県福井市若栄町1382","Kouzui":"◎","がけ崩れ、土石流及び地滑り":"◎","Takashio":"","地震":"◎","津波":"","大規模な火事":"","内水氾濫":"","火山現象":"","指定避難所との重複":"","備考":""}},
{"type":"Feature","geometry":{"type":"Point","coordinates":[136.2488063620,36.0508481816]},"properties":{"Name":"和田東公園","Jusho":"福井県福井市和田東2丁目301","Kouzui":"","がけ崩れ、土石流及び地滑り":"","Takashio":"","地震":"◎","津波":"","大規模な火事":"","内水氾濫":"","火山現象":"","指定避難所との重複":"","備考":""}},
{"type":"Feature","geometry":{"type":"Point","coordinates":[136.2484210000,36.0476930000]},"properties":{"Name":"和田中東公園","Jusho":"福井県福井市和田中2丁目801","Kouzui":"","がけ崩れ、土石流及び地滑り":"","Takashio":"","地震":"◎","津波":"","大規模な火事":"","内水氾濫":"","火山現象":"","指定避難所との重複":"","備考":""}},
{"type":"Feature","geometry":{"type":"Point","coordinates":[136.2438820428,36.0419018340]},"properties":{"Name":"前向公園","Jusho":"福井県福井市和田中町116字2","Kouzui":"","がけ崩れ、土石流及び地滑り":"","Takashio":"","地震":"◎","津波":"","大規模な火事":"","内水氾濫":"","火山現象":"","指定避難所との重複":"","備考":""}},
{"type":"Feature","geometry":{"type":"Point","coordinates":[136.2097572420,36.0384920500]},"properties":{"Name":"サンライフ花堂西公園","Jusho":"福井県福井市花堂中2丁目11","Kouzui":"","がけ崩れ、土石流及び地滑り":"◎","Takashio":"","地震":"◎","津波":"","大規模な火事":"","内水氾濫":"","火山現象":"","指定避難所との重複":"","備考":""}},
{"type":"Feature","geometry":{"type":"Point","coordinates":[136.1854690000,36.0325650000]},"properties":{"Name":"種池南公園","Jusho":"福井県福井市種池町21字1-97","Kouzui":"","がけ崩れ、土石流及び地滑り":"◎","Takashio":"","地震":"◎","津波":"","大規模な火事":"","内水氾濫":"","火山現象":"","指定避難所との重複":"","備考":""}},
{"type":"Feature","geometry":{"type":"Point","coordinates":[136.2042269189,36.0855419131]},"properties":{"Name":"八ツ島公園","Jusho":"福井県福井市八ツ島1丁目508","Kouzui":"","がけ崩れ、土石流及び地滑り":"","Takashio":"","地震":"◎","津波":"","大規模な火事":"","内水氾濫":"","火山現象":"","指定避難所との重複":"","備考":""}},
{"type":"Feature","geometry":{"type":"Point","coordinates":[136.1979911342,36.0879374760]},"properties":{"Name":"里別所新町公園","Jusho":"福井県福井市里別所新町301","Kouzui":"","がけ崩れ、土石流及び地滑り":"","Takashio":"","地震":"◎","津波":"","大規模な火事":"","内水氾濫":"","火山現象":"","指定避難所との重複":"","備考":""}},
{"type":"Feature","geometry":{"type":"Point","coordinates":[136.2106235293,36.0512002653]},"properties":{"Name":"パークアベニューみのり公園","Jusho":"福井県福井市みのり3丁目38","Kouzui":"","がけ崩れ、土石流及び地滑り":"◎","Takashio":"","地震":"◎","津波":"","大規模な火事":"","内水氾濫":"","火山現象":"","指定避難所との重複":"","備考":""}},
{"type":"Feature","geometry":{"type":"Point","coordinates":[136.2732938952,36.0181020389]},"properties":{"Name":"東郷駅前ふれあい公園","Jusho":"福井県福井市東郷二ヶ町33字3-7","Kouzui":"◎","がけ崩れ、土石流及び地滑り":"◎","Takashio":"","地震":"◎","津波":"","大規模な火事":"","内水氾濫":"","火山現象":"","指定避難所との重複":"","備考":""}},
{"type":"Feature","geometry":{"type":"Point","coordinates":[136.2169087816,36.0109946451]},"properties":{"Name":"大土呂駅前ふれあい公園","Jusho":"福井県福井市半田町5字1-5","Kouzui":"◎","がけ崩れ、土石流及び地滑り":"◎","Takashio":"","地震":"◎","津波":"","大規模な火事":"","内水氾濫":"","火山現象":"","指定避難所との重複":"","備考":""}},
{"type":"Feature","geometry":{"type":"Point","coordinates":[136.2049179970,36.0906265800]},"properties":{"Name":"新田塚ふれあい公園","Jusho":"福井県福井市新田塚2丁目50","Kouzui":"","がけ崩れ、土石流及び地滑り":"","Takashio":"","地震":"◎","津波":"","大規模な火事":"","内水氾濫":"","火山現象":"","指定避難所との重複":"","備考":""}},
{"type":"Feature","geometry":{"type":"Point","coordinates":[136.1831190000,36.0636060000]},"properties":{"Name":"飯塚中央公園","Jusho":"福井県福井市飯塚町31字208","Kouzui":"","がけ崩れ、土石流及び地滑り":"◎","Takashio":"","地震":"◎","津波":"","大規模な火事":"","内水氾濫":"","火山現象":"","指定避難所との重複":"","備考":""}},
{"type":"Feature","geometry":{"type":"Point","coordinates":[136.2329255090,36.1002622704]},"properties":{"Name":"スタイリッシュ・ステージ舟橋公園","Jusho":"福井県福井市高木北2丁目","Kouzui":"","がけ崩れ、土石流及び地滑り":"","Takashio":"","地震":"◎","津波":"","大規模な火事":"","内水氾濫":"","火山現象":"","指定避難所との重複":"","備考":""}},
{"type":"Feature","geometry":{"type":"Point","coordinates":[136.1638946906,36.0649199580]},"properties":{"Name":"西下野西公園","Jusho":"福井県福井市西下野町15字","Kouzui":"","がけ崩れ、土石流及び地滑り":"◎","Takashio":"","地震":"◎","津波":"","大規模な火事":"","内水氾濫":"","火山現象":"","指定避難所との重複":"","備考":""}},
{"type":"Feature","geometry":{"type":"Point","coordinates":[136.1611265914,36.0455925878]},"properties":{"Name":"グリーンハイツ1号公園","Jusho":"福井県福井市グリーンハイツ1丁目","Kouzui":"◎","がけ崩れ、土石流及び地滑り":"◎","Takashio":"","地震":"◎","津波":"","大規模な火事":"","内水氾濫":"","火山現象":"","指定避難所との重複":"","備考":""}},
{"type":"Feature","geometry":{"type":"Point","coordinates":[136.1606317918,36.0444573552]},"properties":{"Name":"グリーンハイツ2号公園","Jusho":"福井県福井市グリーンハイツ2丁目","Kouzui":"◎","がけ崩れ、土石流及び地滑り":"","Takashio":"","地震":"◎","津波":"","大規模な火事":"","内水氾濫":"","火山現象":"","指定避難所との重複":"","備考":""}},
{"type":"Feature","geometry":{"type":"Point","coordinates":[136.1686910000,36.0404230000]},"properties":{"Name":"グリーンハイツ3号公園","Jusho":"福井県福井市グリーンハイツ9丁目","Kouzui":"◎","がけ崩れ、土石流及び地滑り":"◎","Takashio":"","地震":"◎","津波":"","大規模な火事":"","内水氾濫":"","火山現象":"","指定避難所との重複":"","備考":""}},
{"type":"Feature","geometry":{"type":"Point","coordinates":[136.1852480000,36.0410570000]},"properties":{"Name":"ふち西公園","Jusho":"福井県福井市渕3丁目2212","Kouzui":"","がけ崩れ、土石流及び地滑り":"◎","Takashio":"","地震":"◎","津波":"","大規模な火事":"","内水氾濫":"","火山現象":"","指定避難所との重複":"","備考":""}},
{"type":"Feature","geometry":{"type":"Point","coordinates":[136.1942866760,36.0404526730]},"properties":{"Name":"渕きつね公園","Jusho":"福井県福井市渕1丁目1202","Kouzui":"","がけ崩れ、土石流及び地滑り":"◎","Takashio":"","地震":"◎","津波":"","大規模な火事":"","内水氾濫":"","火山現象":"","指定避難所との重複":"","備考":""}},
{"type":"Feature","geometry":{"type":"Point","coordinates":[136.2206610580,36.0411146077]},"properties":{"Name":"花堂東公園","Jusho":"福井県福井市花堂東1丁目3506番15","Kouzui":"","がけ崩れ、土石流及び地滑り":"","Takashio":"","地震":"◎","津波":"","大規模な火事":"","内水氾濫":"","火山現象":"","指定避難所との重複":"","備考":""}},
{"type":"Feature","geometry":{"type":"Point","coordinates":[136.2025268269,36.0914720302]},"properties":{"Name":"新田塚北公園","Jusho":"福井県福井市新田塚2丁目6305番16","Kouzui":"","がけ崩れ、土石流及び地滑り":"","Takashio":"","地震":"◎","津波":"","大規模な火事":"","内水氾濫":"","火山現象":"","指定避難所との重複":"","備考":""}},
{"type":"Feature","geometry":{"type":"Point","coordinates":[136.2050390000,36.0290240000]},"properties":{"Name":"大島台公園","Jusho":"福井県福井市大島町大島台815","Kouzui":"◎","がけ崩れ、土石流及び地滑り":"◎","Takashio":"","地震":"◎","津波":"","大規模な火事":"","内水氾濫":"","火山現象":"","指定避難所との重複":"","備考":""}},
{"type":"Feature","geometry":{"type":"Point","coordinates":[136.1280780000,36.0530790000]},"properties":{"Name":"桜ヶ丘公園","Jusho":"福井県福井市本堂町89字6番325","Kouzui":"◎","がけ崩れ、土石流及び地滑り":"◎","Takashio":"","地震":"◎","津波":"","大規模な火事":"","内水氾濫":"","火山現象":"","指定避難所との重複":"","備考":""}},
{"type":"Feature","geometry":{"type":"Point","coordinates":[136.1296450000,36.0506030000]},"properties":{"Name":"桜ヶ丘三角公園","Jusho":"福井県福井市本堂町89字6番178","Kouzui":"◎","がけ崩れ、土石流及び地滑り":"","Takashio":"","地震":"◎","津波":"","大規模な火事":"","内水氾濫":"","火山現象":"","指定避難所との重複":"","備考":""}},
{"type":"Feature","geometry":{"type":"Point","coordinates":[136.1286820000,36.0491480000]},"properties":{"Name":"桜ヶ丘山水公園","Jusho":"福井県福井市本堂町39字1番24外","Kouzui":"◎","がけ崩れ、土石流及び地滑り":"◎","Takashio":"","地震":"◎","津波":"","大規模な火事":"","内水氾濫":"","火山現象":"","指定避難所との重複":"","備考":""}},
{"type":"Feature","geometry":{"type":"Point","coordinates":[136.1311550000,36.0519710000]},"properties":{"Name":"桜ヶ丘朝日公園","Jusho":"福井県福井市本堂町89字8番65外","Kouzui":"◎","がけ崩れ、土石流及び地滑り":"","Takashio":"","地震":"◎","津波":"","大規模な火事":"","内水氾濫":"","火山現象":"","指定避難所との重複":"","備考":""}},
{"type":"Feature","geometry":{"type":"Point","coordinates":[136.1238840000,36.0540200000]},"properties":{"Name":"桜ヶ丘運動公園","Jusho":"福井県福井市本堂町46字1番25外","Kouzui":"◎","がけ崩れ、土石流及び地滑り":"","Takashio":"","地震":"◎","津波":"","大規模な火事":"","内水氾濫":"","火山現象":"","指定避難所との重複":"","備考":""}},
{"type":"Feature","geometry":{"type":"Point","coordinates":[136.1255460000,36.0515180000]},"properties":{"Name":"桜ヶ丘中央公園","Jusho":"福井県福井市本堂町88字4番144外","Kouzui":"◎","がけ崩れ、土石流及び地滑り":"","Takashio":"","地震":"◎","津波":"","大規模な火事":"","内水氾濫":"","火山現象":"","指定避難所との重複":"","備考":""}},
{"type":"Feature","geometry":{"type":"Point","coordinates":[136.1625522410,36.1283136170]},"properties":{"Name":"サニータウン仙町公園","Jusho":"福井県福井市仙町7字1番16","Kouzui":"◎","がけ崩れ、土石流及び地滑り":"","Takashio":"","地震":"◎","津波":"","大規模な火事":"","内水氾濫":"","火山現象":"","指定避難所との重複":"","備考":""}},
{"type":"Feature","geometry":{"type":"Point","coordinates":[136.1547590000,36.1398570000]},"properties":{"Name":"ガーデンコート川西公園","Jusho":"福井県福井市浄土寺町39番33","Kouzui":"◎","がけ崩れ、土石流及び地滑り":"◎","Takashio":"","地震":"◎","津波":"","大規模な火事":"","内水氾濫":"","火山現象":"","指定避難所との重複":"","備考":""}},
{"type":"Feature","geometry":{"type":"Point","coordinates":[136.1525330000,36.1417230000]},"properties":{"Name":"浄土寺団地公園","Jusho":"福井県福井市浄土寺町48番27","Kouzui":"◎","がけ崩れ、土石流及び地滑り":"◎","Takashio":"","地震":"◎","津波":"","大規模な火事":"","内水氾濫":"","火山現象":"","指定避難所との重複":"","備考":""}},
{"type":"Feature","geometry":{"type":"Point","coordinates":[136.1322790000,36.1455590000]},"properties":{"Name":"木下団地公園","Jusho":"福井県福井市木下町6字1番14","Kouzui":"","がけ崩れ、土石流及び地滑り":"◎","Takashio":"","地震":"◎","津波":"","大規模な火事":"","内水氾濫":"","火山現象":"","指定避難所との重複":"","備考":""}},
{"type":"Feature","geometry":{"type":"Point","coordinates":[136.1268607130,36.1389047488]},"properties":{"Name":"小野団地１号公園","Jusho":"福井県福井市小野町13字45番8","Kouzui":"◎","がけ崩れ、土石流及び地滑り":"","Takashio":"","地震":"◎","津波":"","大規模な火事":"","内水氾濫":"","火山現象":"","指定避難所との重複":"","備考":""}},
{"type":"Feature","geometry":{"type":"Point","coordinates":[136.1281710000,36.1385850000]},"properties":{"Name":"小野団地２号公園","Jusho":"福井県福井市小野町13字70番13","Kouzui":"◎","がけ崩れ、土石流及び地滑り":"","Takashio":"","地震":"◎","津波":"","大規模な火事":"","内水氾濫":"","火山現象":"","指定避難所との重複":"","備考":""}},
{"type":"Feature","geometry":{"type":"Point","coordinates":[136.2514900000,36.0610230000]},"properties":{"Name":"上北野橘公園","Jusho":"福井県福井市上北野1丁目30","Kouzui":"","がけ崩れ、土石流及び地滑り":"","Takashio":"","地震":"◎","津波":"","大規模な火事":"","内水氾濫":"","火山現象":"","指定避難所との重複":"","備考":""}},
{"type":"Feature","geometry":{"type":"Point","coordinates":[136.2017983151,36.0870244400]},"properties":{"Name":"ホームランド新田塚公園","Jusho":"福井県福井市新田塚2丁目19","Kouzui":"","がけ崩れ、土石流及び地滑り":"","Takashio":"","地震":"◎","津波":"","大規模な火事":"","内水氾濫":"","火山現象":"","指定避難所との重複":"","備考":""}},
{"type":"Feature","geometry":{"type":"Point","coordinates":[136.2223723164,36.0507692802]},"properties":{"Name":"西一本木公園","Jusho":"福井県福井市春日3丁目203-27","Kouzui":"","がけ崩れ、土石流及び地滑り":"","Takashio":"","地震":"◎","津波":"","大規模な火事":"","内水氾濫":"","火山現象":"","指定避難所との重複":"","備考":""}},
{"type":"Feature","geometry":{"type":"Point","coordinates":[136.2025798092,36.0289386651]},"properties":{"Name":"ひのき台公園","Jusho":"福井県福井市引目町19字2ー3","Kouzui":"◎","がけ崩れ、土石流及び地滑り":"◎","Takashio":"","地震":"◎","津波":"","大規模な火事":"","内水氾濫":"","火山現象":"","指定避難所との重複":"","備考":""}},
{"type":"Feature","geometry":{"type":"Point","coordinates":[136.1823376730,36.0465706092]},"properties":{"Name":"渕ふれあい公園","Jusho":"福井県福井市渕4丁目2501","Kouzui":"","がけ崩れ、土石流及び地滑り":"◎","Takashio":"","地震":"◎","津波":"","大規模な火事":"","内水氾濫":"","火山現象":"","指定避難所との重複":"","備考":""}},
{"type":"Feature","geometry":{"type":"Point","coordinates":[136.1838230000,36.0453640000]},"properties":{"Name":"新渕町公園","Jusho":"福井県福井市渕4丁目1301","Kouzui":"","がけ崩れ、土石流及び地滑り":"◎","Takashio":"","地震":"◎","津波":"","大規模な火事":"","内水氾濫":"","火山現象":"","指定避難所との重複":"","備考":""}},
{"type":"Feature","geometry":{"type":"Point","coordinates":[136.1942306380,36.0378432049]},"properties":{"Name":"新江守中西公園","Jusho":"福井県福井市江守中2丁目2007","Kouzui":"","がけ崩れ、土石流及び地滑り":"◎","Takashio":"","地震":"◎","津波":"","大規模な火事":"","内水氾濫":"","火山現象":"","指定避難所との重複":"","備考":""}},
{"type":"Feature","geometry":{"type":"Point","coordinates":[136.1977066050,36.0378588821]},"properties":{"Name":"新江守中中央公園","Jusho":"福井県福井市江守中2丁目1011","Kouzui":"","がけ崩れ、土石流及び地滑り":"◎","Takashio":"","地震":"◎","津波":"","大規模な火事":"","内水氾濫":"","火山現象":"","指定避難所との重複":"","備考":""}},
{"type":"Feature","geometry":{"type":"Point","coordinates":[136.1922400000,36.0359200000]},"properties":{"Name":"種池東公園","Jusho":"福井県福井市種池1丁目401","Kouzui":"","がけ崩れ、土石流及び地滑り":"◎","Takashio":"","地震":"◎","津波":"","大規模な火事":"","内水氾濫":"","火山現象":"","指定避難所との重複":"","備考":""}},
{"type":"Feature","geometry":{"type":"Point","coordinates":[136.1970712570,36.0344537933]},"properties":{"Name":"江守中中央公園","Jusho":"福井県福井市江守中1丁目523","Kouzui":"","がけ崩れ、土石流及び地滑り":"◎","Takashio":"","地震":"◎","津波":"","大規模な火事":"","内水氾濫":"","火山現象":"","指定避難所との重複":"","備考":""}},
{"type":"Feature","geometry":{"type":"Point","coordinates":[136.1887678760,36.0362729877]},"properties":{"Name":"種池西公園","Jusho":"福井県福井市種池1丁目1805","Kouzui":"","がけ崩れ、土石流及び地滑り":"◎","Takashio":"","地震":"◎","津波":"","大規模な火事":"","内水氾濫":"","火山現象":"","指定避難所との重複":"","備考":""}},
{"type":"Feature","geometry":{"type":"Point","coordinates":[136.1843927550,36.0575802059]},"properties":{"Name":"新堀北ファミリー公園","Jusho":"福井県若杉4丁目1901","Kouzui":"","がけ崩れ、土石流及び地滑り":"◎","Takashio":"","地震":"◎","津波":"","大規模な火事":"","内水氾濫":"","火山現象":"","指定避難所との重複":"","備考":""}},
{"type":"Feature","geometry":{"type":"Point","coordinates":[136.1901610000,36.0546240000]},"properties":{"Name":"若杉三角公園","Jusho":"福井県福井市若杉2丁目1001","Kouzui":"","がけ崩れ、土石流及び地滑り":"◎","Takashio":"","地震":"◎","津波":"","大規模な火事":"","内水氾濫":"","火山現象":"","指定避難所との重複":"","備考":""}},
{"type":"Feature","geometry":{"type":"Point","coordinates":[136.1890757837,36.0491529010]},"properties":{"Name":"福町公園","Jusho":"福井県福井市福2丁目1102","Kouzui":"","がけ崩れ、土石流及び地滑り":"◎","Takashio":"","地震":"◎","津波":"","大規模な火事":"","内水氾濫":"","火山現象":"","指定避難所との重複":"","備考":""}},
{"type":"Feature","geometry":{"type":"Point","coordinates":[136.1976550000,36.0486640000]},"properties":{"Name":"門前中央公園","Jusho":"福井県福井市門前1丁目913","Kouzui":"","がけ崩れ、土石流及び地滑り":"","Takashio":"","地震":"◎","津波":"","大規模な火事":"","内水氾濫":"","火山現象":"","指定避難所との重複":"","備考":""}},
{"type":"Feature","geometry":{"type":"Point","coordinates":[136.1968980000,36.0481490000]},"properties":{"Name":"門前はしだし公園","Jusho":"福井県福井市門前1丁目521","Kouzui":"◎","がけ崩れ、土石流及び地滑り":"","Takashio":"","地震":"◎","津波":"","大規模な火事":"","内水氾濫":"","火山現象":"","指定避難所との重複":"","備考":""}},
{"type":"Feature","geometry":{"type":"Point","coordinates":[136.2053018471,36.0321731916]},"properties":{"Name":"舞屋熊野公園","Jusho":"福井県福井市舞屋町10字","Kouzui":"","がけ崩れ、土石流及び地滑り":"◎","Takashio":"","地震":"◎","津波":"","大規模な火事":"","内水氾濫":"","火山現象":"","指定避難所との重複":"","備考":""}},
{"type":"Feature","geometry":{"type":"Point","coordinates":[136.2021143770,36.0331962044]},"properties":{"Name":"まいや西公園","Jusho":"福井県福井市舞屋町8字","Kouzui":"","がけ崩れ、土石流及び地滑り":"◎","Takashio":"","地震":"◎","津波":"","大規模な火事":"","内水氾濫":"","火山現象":"","指定避難所との重複":"","備考":""}},
{"type":"Feature","geometry":{"type":"Point","coordinates":[136.2099610000,36.0325050000]},"properties":{"Name":"大島いぬい公園","Jusho":"福井県福井市大島町2字","Kouzui":"","がけ崩れ、土石流及び地滑り":"◎","Takashio":"","地震":"◎","津波":"","大規模な火事":"","内水氾濫":"","火山現象":"","指定避難所との重複":"","備考":""}},
{"type":"Feature","geometry":{"type":"Point","coordinates":[136.2005514210,36.0334646079]},"properties":{"Name":"江守中館公園","Jusho":"福井県福井市江守中町20字","Kouzui":"","がけ崩れ、土石流及び地滑り":"◎","Takashio":"","地震":"◎","津波":"","大規模な火事":"","内水氾濫":"","火山現象":"","指定避難所との重複":"","備考":""}},
{"type":"Feature","geometry":{"type":"Point","coordinates":[136.2266680000,36.0799680000]},"properties":{"Name":"桜谷神社前公園","Jusho":"福井県福井市町屋3丁目1、006番","Kouzui":"","がけ崩れ、土石流及び地滑り":"","Takashio":"","地震":"◎","津波":"","大規模な火事":"","内水氾濫":"","火山現象":"","指定避難所との重複":"","備考":""}},
{"type":"Feature","geometry":{"type":"Point","coordinates":[136.2264245279,36.0767564754]},"properties":{"Name":"三軒町三角公園","Jusho":"福井県福井市町屋3丁目238番","Kouzui":"","がけ崩れ、土石流及び地滑り":"","Takashio":"","地震":"◎","津波":"","大規模な火事":"","内水氾濫":"","火山現象":"","指定避難所との重複":"","備考":""}},
{"type":"Feature","geometry":{"type":"Point","coordinates":[136.2155663547,36.1061034308]},"properties":{"Name":"ニュータウン天池公園","Jusho":"福井県福井市天池町33字西宅地1番3","Kouzui":"","がけ崩れ、土石流及び地滑り":"","Takashio":"","地震":"◎","津波":"","大規模な火事":"","内水氾濫":"","火山現象":"","指定避難所との重複":"","備考":""}},
{"type":"Feature","geometry":{"type":"Point","coordinates":[136.2353417069,36.1038025258]},"properties":{"Name":"寺前新町公園","Jusho":"福井県福井市寺前町1字西浦2番8","Kouzui":"◎","がけ崩れ、土石流及び地滑り":"","Takashio":"","地震":"◎","津波":"","大規模な火事":"","内水氾濫":"","火山現象":"","指定避難所との重複":"","備考":""}},
{"type":"Feature","geometry":{"type":"Point","coordinates":[136.2267960648,36.1104757309]},"properties":{"Name":"下森田さくら公園","Jusho":"福井県福井市下森田桜町3番13","Kouzui":"","がけ崩れ、土石流及び地滑り":"","Takashio":"","地震":"◎","津波":"","大規模な火事":"","内水氾濫":"","火山現象":"","指定避難所との重複":"","備考":""}},
{"type":"Feature","geometry":{"type":"Point","coordinates":[136.2055176434,36.0603266400]},"properties":{"Name":"千年緑地公園","Jusho":"福井県福井市足羽2丁目1101番","Kouzui":"","がけ崩れ、土石流及び地滑り":"◎","Takashio":"","地震":"◎","津波":"","大規模な火事":"","内水氾濫":"","火山現象":"","指定避難所との重複":"","備考":""}},
{"type":"Feature","geometry":{"type":"Point","coordinates":[136.1968456240,35.9954222440]},"properties":{"Name":"森行公園","Jusho":"福井県福井市森行町20字1番42号","Kouzui":"◎","がけ崩れ、土石流及び地滑り":"◎","Takashio":"","地震":"◎","津波":"","大規模な火事":"","内水氾濫":"","火山現象":"","指定避難所との重複":"","備考":""}},
{"type":"Feature","geometry":{"type":"Point","coordinates":[136.1957807169,35.9994175469]},"properties":{"Name":"大門公園","Jusho":"福井県福井市浅水町137字17番11","Kouzui":"◎","がけ崩れ、土石流及び地滑り":"◎","Takashio":"","地震":"◎","津波":"","大規模な火事":"","内水氾濫":"","火山現象":"","指定避難所との重複":"","備考":""}},
{"type":"Feature","geometry":{"type":"Point","coordinates":[136.2175947308,36.0417072750]},"properties":{"Name":"花堂北公園","Jusho":"福井県福井市花堂北1丁目501番36","Kouzui":"","がけ崩れ、土石流及び地滑り":"◎","Takashio":"","地震":"◎","津波":"","大規模な火事":"","内水氾濫":"","火山現象":"","指定避難所との重複":"","備考":""}},
{"type":"Feature","geometry":{"type":"Point","coordinates":[136.2099774978,36.0423353042]},"properties":{"Name":"コモンライフ花堂西公園","Jusho":"福井県福井市花堂北2丁目2713番2","Kouzui":"","がけ崩れ、土石流及び地滑り":"","Takashio":"","地震":"◎","津波":"","大規模な火事":"","内水氾濫":"","火山現象":"","指定避難所との重複":"","備考":""}},
{"type":"Feature","geometry":{"type":"Point","coordinates":[136.2322889993,36.0702220848]},"properties":{"Name":"清川公園","Jusho":"福井県福井市宝永1丁目2501番1外","Kouzui":"","がけ崩れ、土石流及び地滑り":"","Takashio":"","地震":"◎","津波":"","大規模な火事":"","内水氾濫":"","火山現象":"","指定避難所との重複":"","備考":""}},
{"type":"Feature","geometry":{"type":"Point","coordinates":[136.2507988496,36.0590481570]},"properties":{"Name":"上北野西部桜公園","Jusho":"福井県福井市上北野2丁目205番","Kouzui":"","がけ崩れ、土石流及び地滑り":"","Takashio":"","地震":"◎","津波":"","大規模な火事":"","内水氾濫":"","火山現象":"","指定避難所との重複":"","備考":""}},
{"type":"Feature","geometry":{"type":"Point","coordinates":[136.1773583813,36.0514744891]},"properties":{"Name":"運動公園４丁目公園","Jusho":"福井県福井市運動公園4丁目304番","Kouzui":"","がけ崩れ、土石流及び地滑り":"◎","Takashio":"","地震":"◎","津波":"","大規模な火事":"","内水氾濫":"","火山現象":"","指定避難所との重複":"","備考":""}},
{"type":"Feature","geometry":{"type":"Point","coordinates":[136.2008837629,36.0369002594]},"properties":{"Name":"江守中１号公園","Jusho":"福井県福井市江守中町1字15番2外","Kouzui":"","がけ崩れ、土石流及び地滑り":"◎","Takashio":"","地震":"◎","津波":"","大規模な火事":"","内水氾濫":"","火山現象":"","指定避難所との重複":"","備考":""}},
{"type":"Feature","geometry":{"type":"Point","coordinates":[136.1999557186,36.0366703518]},"properties":{"Name":"江守中２号公園","Jusho":"福井県福井市江守中町1字34番","Kouzui":"","がけ崩れ、土石流及び地滑り":"◎","Takashio":"","地震":"◎","津波":"","大規模な火事":"","内水氾濫":"","火山現象":"","指定避難所との重複":"","備考":""}},
{"type":"Feature","geometry":{"type":"Point","coordinates":[136.2002024818,36.0374164647]},"properties":{"Name":"江守中３号公園","Jusho":"福井県福井市江守中町7字45番7","Kouzui":"","がけ崩れ、土石流及び地滑り":"◎","Takashio":"","地震":"◎","津波":"","大規模な火事":"","内水氾濫":"","火山現象":"","指定避難所との重複":"","備考":""}},
{"type":"Feature","geometry":{"type":"Point","coordinates":[136.2244219556,36.0553120630]},"properties":{"Name":"勝見吉野公園","Jusho":"福井県福井市勝見1丁目1216番","Kouzui":"","がけ崩れ、土石流及び地滑り":"","Takashio":"","地震":"◎","津波":"","大規模な火事":"","内水氾濫":"","火山現象":"","指定避難所との重複":"","備考":""}},
{"type":"Feature","geometry":{"type":"Point","coordinates":[136.2396540980,36.1150729684]},"properties":{"Name":"上野団地３号公園","Jusho":"福井県福井市上野本町新815番外","Kouzui":"","がけ崩れ、土石流及び地滑り":"","Takashio":"","地震":"◎","津波":"","大規模な火事":"","内水氾濫":"","火山現象":"","指定避難所との重複":"","備考":""}},
{"type":"Feature","geometry":{"type":"Point","coordinates":[136.1434785581,36.0624988085]},"properties":{"Name":"羽坂町９字公園","Jusho":"福井県福井市羽坂町9字9番4","Kouzui":"◎","がけ崩れ、土石流及び地滑り":"◎","Takashio":"","地震":"◎","津波":"","大規模な火事":"","内水氾濫":"","火山現象":"","指定避難所との重複":"","備考":""}},
{"type":"Feature","geometry":{"type":"Point","coordinates":[136.1456162787,36.0634203015]},"properties":{"Name":"羽坂公園","Jusho":"福井県福井市羽坂町48字6番14外","Kouzui":"◎","がけ崩れ、土石流及び地滑り":"","Takashio":"","地震":"◎","津波":"","大規模な火事":"","内水氾濫":"","火山現象":"","指定避難所との重複":"","備考":""}},
{"type":"Feature","geometry":{"type":"Point","coordinates":[136.1401257969,36.0607685406]},"properties":{"Name":"フェニックスタウン羽坂公園","Jusho":"福井県福井市羽坂町24字1番26","Kouzui":"◎","がけ崩れ、土石流及び地滑り":"◎","Takashio":"","地震":"◎","津波":"","大規模な火事":"","内水氾濫":"","火山現象":"","指定避難所との重複":"","備考":""}},
{"type":"Feature","geometry":{"type":"Point","coordinates":[136.2505005760,36.0705669568]},"properties":{"Name":"円山元町三角公園","Jusho":"福井県福井市北四ツ居町30字166番","Kouzui":"","がけ崩れ、土石流及び地滑り":"","Takashio":"","地震":"◎","津波":"","大規模な火事":"","内水氾濫":"","火山現象":"","指定避難所との重複":"","備考":""}},
{"type":"Feature","geometry":{"type":"Point","coordinates":[136.1921678943,36.0417878751]},"properties":{"Name":"渕団地公園","Jusho":"福井県福井市渕町31字701番3","Kouzui":"◎","がけ崩れ、土石流及び地滑り":"◎","Takashio":"","地震":"◎","津波":"","大規模な火事":"","内水氾濫":"","火山現象":"","指定避難所との重複":"","備考":""}},
{"type":"Feature","geometry":{"type":"Point","coordinates":[136.1663323215,36.0352161840]},"properties":{"Name":"ホープタウン田尻公園","Jusho":"福井県福井市田尻栃谷町38字36番226","Kouzui":"◎","がけ崩れ、土石流及び地滑り":"◎","Takashio":"","地震":"◎","津波":"","大規模な火事":"","内水氾濫":"","火山現象":"","指定避難所との重複":"","備考":""}},
{"type":"Feature","geometry":{"type":"Point","coordinates":[136.1477002798,36.0274581587]},"properties":{"Name":"清水公園","Jusho":"福井県福井市風巻町28字1番1外","Kouzui":"","がけ崩れ、土石流及び地滑り":"◎","Takashio":"","地震":"◎","津波":"","大規模な火事":"","内水氾濫":"","火山現象":"","指定避難所との重複":"","備考":""}},
{"type":"Feature","geometry":{"type":"Point","coordinates":[136.2286329427,36.0930599663]},"properties":{"Name":"高木睦公園","Jusho":"福井県福井市高木2丁目1001番9","Kouzui":"","がけ崩れ、土石流及び地滑り":"","Takashio":"","地震":"◎","津波":"","大規模な火事":"","内水氾濫":"","火山現象":"","指定避難所との重複":"","備考":""}},
{"type":"Feature","geometry":{"type":"Point","coordinates":[136.1786338549,36.0513656205]},"properties":{"Name":"ワイワイ公園","Jusho":"福井県福井市運動公園1丁目3203番","Kouzui":"","がけ崩れ、土石流及び地滑り":"◎","Takashio":"","地震":"◎","津波":"","大規模な火事":"","内水氾濫":"","火山現象":"","指定避難所との重複":"","備考":""}},
{"type":"Feature","geometry":{"type":"Point","coordinates":[136.2104911549,36.0303996825]},"properties":{"Name":"江端団地１号公園","Jusho":"福井県福井市江端町401番","Kouzui":"","がけ崩れ、土石流及び地滑り":"◎","Takashio":"","地震":"◎","津波":"","大規模な火事":"","内水氾濫":"","火山現象":"","指定避難所との重複":"","備考":""}},
{"type":"Feature","geometry":{"type":"Point","coordinates":[136.1968428717,36.0010623660]},"properties":{"Name":"フレッシュ浅水公園","Jusho":"福井県福井市浅水町131字15番3","Kouzui":"◎","がけ崩れ、土石流及び地滑り":"◎","Takashio":"","地震":"◎","津波":"","大規模な火事":"","内水氾濫":"","火山現象":"","指定避難所との重複":"","備考":""}},
{"type":"Feature","geometry":{"type":"Point","coordinates":[136.2210536940,36.0510426218]},"properties":{"Name":"マイタウン春日公園","Jusho":"福井県福井市春日町244番20","Kouzui":"","がけ崩れ、土石流及び地滑り":"","Takashio":"","地震":"◎","津波":"","大規模な火事":"","内水氾濫":"","火山現象":"","指定避難所との重複":"","備考":""}},
{"type":"Feature","geometry":{"type":"Point","coordinates":[136.2158318205,36.0460398859]},"properties":{"Name":"月見三谷公園","Jusho":"福井県福井市月見1丁目264-15","Kouzui":"◎","がけ崩れ、土石流及び地滑り":"◎","Takashio":"","地震":"◎","津波":"","大規模な火事":"","内水氾濫":"","火山現象":"","指定避難所との重複":"","備考":""}},
{"type":"Feature","geometry":{"type":"Point","coordinates":[136.2088452560,36.0922417978]},"properties":{"Name":"フレッシュタウン新田塚公園","Jusho":"福井県福井市新田塚1丁目8001番18外","Kouzui":"","がけ崩れ、土石流及び地滑り":"","Takashio":"","地震":"◎","津波":"","大規模な火事":"","内水氾濫":"","火山現象":"","指定避難所との重複":"","備考":""}},
{"type":"Feature","geometry":{"type":"Point","coordinates":[136.2226175362,36.0912080875]},"properties":{"Name":"高木西２号公園","Jusho":"福井県福井市灯明寺町59字25番6","Kouzui":"","がけ崩れ、土石流及び地滑り":"","Takashio":"","地震":"◎","津波":"","大規模な火事":"","内水氾濫":"","火山現象":"","指定避難所との重複":"","備考":""}},
{"type":"Feature","geometry":{"type":"Point","coordinates":[136.2592961793,36.0736010701]},"properties":{"Name":"下中公園","Jusho":"福井県福井市下中町1字3番11","Kouzui":"","がけ崩れ、土石流及び地滑り":"","Takashio":"","地震":"◎","津波":"","大規模な火事":"","内水氾濫":"","火山現象":"","指定避難所との重複":"","備考":""}},
{"type":"Feature","geometry":{"type":"Point","coordinates":[136.2698644824,36.0833772510]},"properties":{"Name":"上中三谷公園","Jusho":"福井県福井市上中町28字1番20","Kouzui":"","がけ崩れ、土石流及び地滑り":"◎","Takashio":"","地震":"◎","津波":"","大規模な火事":"","内水氾濫":"","火山現象":"","指定避難所との重複":"","備考":""}},
{"type":"Feature","geometry":{"type":"Point","coordinates":[136.2460935577,36.0270737211]},"properties":{"Name":"上六条公園","Jusho":"福井県福井市上六条町18字49番5","Kouzui":"◎","がけ崩れ、土石流及び地滑り":"","Takashio":"","地震":"◎","津波":"","大規模な火事":"","内水氾濫":"","火山現象":"","指定避難所との重複":"","備考":""}},
{"type":"Feature","geometry":{"type":"Point","coordinates":[136.2683409877,36.0156305167]},"properties":{"Name":"ニュータウン東郷公園","Jusho":"福井県福井市東郷二ヶ町22字22番4","Kouzui":"◎","がけ崩れ、土石流及び地滑り":"◎","Takashio":"","地震":"◎","津波":"","大規模な火事":"","内水氾濫":"","火山現象":"","指定避難所との重複":"","備考":""}},
{"type":"Feature","geometry":{"type":"Point","coordinates":[136.1984399930,36.0304113976]},"properties":{"Name":"サニー公園","Jusho":"福井県福井市南江守町62字1番61外","Kouzui":"◎","がけ崩れ、土石流及び地滑り":"","Takashio":"","地震":"◎","津波":"","大規模な火事":"","内水氾濫":"","火山現象":"","指定避難所との重複":"","備考":""}},
{"type":"Feature","geometry":{"type":"Point","coordinates":[136.2054378763,36.0965893142]},"properties":{"Name":"灯明寺けやき公園","Jusho":"福井県福井市灯明寺4丁目2405番","Kouzui":"","がけ崩れ、土石流及び地滑り":"","Takashio":"","地震":"◎","津波":"","大規模な火事":"","内水氾濫":"","火山現象":"","指定避難所との重複":"","備考":""}},
{"type":"Feature","geometry":{"type":"Point","coordinates":[136.2100621830,36.1004121008]},"properties":{"Name":"舟橋新公園","Jusho":"福井県福井市舟橋新1丁目1701番","Kouzui":"","がけ崩れ、土石流及び地滑り":"","Takashio":"","地震":"◎","津波":"","大規模な火事":"","内水氾濫":"","火山現象":"","指定避難所との重複":"","備考":""}},
{"type":"Feature","geometry":{"type":"Point","coordinates":[136.2145513613,36.0999102183]},"properties":{"Name":"ふれあいターザン公園","Jusho":"福井県福井市舟橋黒竜1丁目407番","Kouzui":"","がけ崩れ、土石流及び地滑り":"","Takashio":"","地震":"◎","津波":"","大規模な火事":"","内水氾濫":"","火山現象":"","指定避難所との重複":"","備考":""}},
{"type":"Feature","geometry":{"type":"Point","coordinates":[136.2156686281,36.0976894340]},"properties":{"Name":"灯明寺どんぐり公園","Jusho":"福井県福井市灯明寺3丁目3903番","Kouzui":"","がけ崩れ、土石流及び地滑り":"","Takashio":"","地震":"◎","津波":"","大規模な火事":"","内水氾濫":"","火山現象":"","指定避難所との重複":"","備考":""}},
{"type":"Feature","geometry":{"type":"Point","coordinates":[136.2187478041,36.0960596365]},"properties":{"Name":"灯明寺クスノキ公園","Jusho":"福井県福井市灯明寺3丁目401番","Kouzui":"","がけ崩れ、土石流及び地滑り":"","Takashio":"","地震":"◎","津波":"","大規模な火事":"","内水氾濫":"","火山現象":"","指定避難所との重複":"","備考":""}},
{"type":"Feature","geometry":{"type":"Point","coordinates":[136.2233424281,36.0971454495]},"properties":{"Name":"かおり公園","Jusho":"福井県福井市高木西1丁目105番","Kouzui":"","がけ崩れ、土石流及び地滑り":"","Takashio":"","地震":"◎","津波":"","大規模な火事":"","内水氾濫":"","火山現象":"","指定避難所との重複":"","備考":""}},
{"type":"Feature","geometry":{"type":"Point","coordinates":[136.2100994966,36.0362035825]},"properties":{"Name":"花堂中２丁目公園","Jusho":"福井県福井市花堂中2丁目1518番1","Kouzui":"","がけ崩れ、土石流及び地滑り":"◎","Takashio":"","地震":"◎","津波":"","大規模な火事":"","内水氾濫":"","火山現象":"","指定避難所との重複":"","備考":""}},
{"type":"Feature","geometry":{"type":"Point","coordinates":[136.2266320660,36.0912237605]},"properties":{"Name":"高木西１号公園","Jusho":"福井県福井市高木町25字23番","Kouzui":"","がけ崩れ、土石流及び地滑り":"","Takashio":"","地震":"◎","津波":"","大規模な火事":"","内水氾濫":"","火山現象":"","指定避難所との重複":"","備考":""}},
{"type":"Feature","geometry":{"type":"Point","coordinates":[136.1936765494,36.0457506019]},"properties":{"Name":"福町三谷公園","Jusho":"福井県福井市福町33字7番1","Kouzui":"◎","がけ崩れ、土石流及び地滑り":"","Takashio":"","地震":"◎","津波":"","大規模な火事":"","内水氾濫":"","火山現象":"","指定避難所との重複":"","備考":""}},
{"type":"Feature","geometry":{"type":"Point","coordinates":[136.2013966674,36.0001596686]},"properties":{"Name":"福井ハイツ公園","Jusho":"福井県福井市浅水二日町126字6番6外","Kouzui":"◎","がけ崩れ、土石流及び地滑り":"◎","Takashio":"","地震":"◎","津波":"","大規模な火事":"","内水氾濫":"","火山現象":"","指定避難所との重複":"","備考":""}},
{"type":"Feature","geometry":{"type":"Point","coordinates":[136.2497668019,36.1058629211]},"properties":{"Name":"中藤新保公園","Jusho":"福井県福井市中藤新保町14字1番5外","Kouzui":"","がけ崩れ、土石流及び地滑り":"","Takashio":"","地震":"◎","津波":"","大規模な火事":"","内水氾濫":"","火山現象":"","指定避難所との重複":"","備考":""}},
{"type":"Feature","geometry":{"type":"Point","coordinates":[136.2532438857,36.0616238047]},"properties":{"Name":"チビチビ公園","Jusho":"福井県福井市河増町20字1番10外","Kouzui":"","がけ崩れ、土石流及び地滑り":"","Takashio":"","地震":"◎","津波":"","大規模な火事":"","内水氾濫":"","火山現象":"","指定避難所との重複":"","備考":""}},
{"type":"Feature","geometry":{"type":"Point","coordinates":[136.2260698791,36.0603580151]},"properties":{"Name":"手寄公園","Jusho":"福井県福井市手寄2丁目101番1","Kouzui":"","がけ崩れ、土石流及び地滑り":"","Takashio":"","地震":"◎","津波":"","大規模な火事":"","内水氾濫":"","火山現象":"","指定避難所との重複":"","備考":""}},
{"type":"Feature","geometry":{"type":"Point","coordinates":[136.2210780406,36.0474939302]},"properties":{"Name":"明倫公園","Jusho":"福井県福井市木田1丁目1344番外","Kouzui":"","がけ崩れ、土石流及び地滑り":"","Takashio":"","地震":"◎","津波":"","大規模な火事":"","内水氾濫":"","火山現象":"","指定避難所との重複":"","備考":""}},
{"type":"Feature","geometry":{"type":"Point","coordinates":[136.2555250085,36.0812046995]},"properties":{"Name":"大沢宅地公園","Jusho":"福井県福井市新保町40字18番4外","Kouzui":"","がけ崩れ、土石流及び地滑り":"◎","Takashio":"","地震":"◎","津波":"","大規模な火事":"","内水氾濫":"","火山現象":"","指定避難所との重複":"","備考":""}},
{"type":"Feature","geometry":{"type":"Point","coordinates":[136.2366952698,36.0724633522]},"properties":{"Name":"志比口北公園","Jusho":"福井県福井市志比口3丁目4-6","Kouzui":"","がけ崩れ、土石流及び地滑り":"","Takashio":"","地震":"◎","津波":"","大規模な火事":"","内水氾濫":"","火山現象":"","指定避難所との重複":"","備考":""}},
{"type":"Feature","geometry":{"type":"Point","coordinates":[136.1972759004,36.0421789335]},"properties":{"Name":"西谷池田開発公園","Jusho":"福井県福井市西谷町2字1番18","Kouzui":"","がけ崩れ、土石流及び地滑り":"◎","Takashio":"","地震":"◎","津波":"","大規模な火事":"","内水氾濫":"","火山現象":"","指定避難所との重複":"","備考":""}},
{"type":"Feature","geometry":{"type":"Point","coordinates":[136.2397488827,36.0947668477]},"properties":{"Name":"居村せせらぎ公園","Jusho":"福井県福井市高柳3丁目1203番","Kouzui":"","がけ崩れ、土石流及び地滑り":"","Takashio":"","地震":"◎","津波":"","大規模な火事":"","内水氾濫":"","火山現象":"","指定避難所との重複":"","備考":""}},
{"type":"Feature","geometry":{"type":"Point","coordinates":[136.2422594303,36.0937481903]},"properties":{"Name":"高柳土器の丘公園","Jusho":"福井県福井市高柳3丁目2301番","Kouzui":"","がけ崩れ、土石流及び地滑り":"","Takashio":"","地震":"◎","津波":"","大規模な火事":"","内水氾濫":"","火山現象":"","指定避難所との重複":"","備考":""}},
{"type":"Feature","geometry":{"type":"Point","coordinates":[136.2479628704,36.0961945237]},"properties":{"Name":"大和田西公園","Jusho":"福井県福井市大和田2丁目302番","Kouzui":"","がけ崩れ、土石流及び地滑り":"◎","Takashio":"","地震":"◎","津波":"","大規模な火事":"","内水氾濫":"","火山現象":"","指定避難所との重複":"","備考":""}},
{"type":"Feature","geometry":{"type":"Point","coordinates":[136.2530309043,36.0965954737]},"properties":{"Name":"大和田公園","Jusho":"福井県福井市大和田2丁目1801番","Kouzui":"","がけ崩れ、土石流及び地滑り":"◎","Takashio":"","地震":"◎","津波":"","大規模な火事":"","内水氾濫":"","火山現象":"","指定避難所との重複":"","備考":""}},
{"type":"Feature","geometry":{"type":"Point","coordinates":[136.2395421023,36.0914919272]},"properties":{"Name":"茶畔東公園","Jusho":"福井県福井市高木中央3丁目1503番","Kouzui":"","がけ崩れ、土石流及び地滑り":"","Takashio":"","地震":"◎","津波":"","大規模な火事":"","内水氾濫":"","火山現象":"","指定避難所との重複":"","備考":""}},
{"type":"Feature","geometry":{"type":"Point","coordinates":[136.2505035516,36.0901628042]},"properties":{"Name":"大和田南公園","Jusho":"福井県福井市大和田1丁目1601番","Kouzui":"","がけ崩れ、土石流及び地滑り":"◎","Takashio":"","地震":"◎","津波":"","大規模な火事":"","内水氾濫":"","火山現象":"","指定避難所との重複":"","備考":""}},
{"type":"Feature","geometry":{"type":"Point","coordinates":[136.1996240149,36.0289646950]},"properties":{"Name":"ひのき台西公園","Jusho":"福井県福井市引目町19字5番77","Kouzui":"◎","がけ崩れ、土石流及び地滑り":"","Takashio":"","地震":"◎","津波":"","大規模な火事":"","内水氾濫":"","火山現象":"","指定避難所との重複":"","備考":""}},
{"type":"Feature","geometry":{"type":"Point","coordinates":[136.2192898549,36.0648588064]},"properties":{"Name":"中央公園","Jusho":"福井県福井市大手3丁目11","Kouzui":"","がけ崩れ、土石流及び地滑り":"","Takashio":"","地震":"◎","津波":"","大規模な火事":"","内水氾濫":"","火山現象":"","指定避難所との重複":"","備考":""}},
{"type":"Feature","geometry":{"type":"Point","coordinates":[136.2109858259,36.0698591869]},"properties":{"Name":"西公園","Jusho":"福井県福井市花月1丁目3","Kouzui":"","がけ崩れ、土石流及び地滑り":"","Takashio":"","地震":"◎","津波":"","大規模な火事":"","内水氾濫":"","火山現象":"","指定避難所との重複":"","備考":""}},
{"type":"Feature","geometry":{"type":"Point","coordinates":[136.2088965150,36.0338635158]},"properties":{"Name":"南公園","Jusho":"福井県福井市大島町3字201","Kouzui":"","がけ崩れ、土石流及び地滑り":"◎","Takashio":"","地震":"◎","津波":"","大規模な火事":"","内水氾濫":"","火山現象":"","指定避難所との重複":"","備考":""}},
{"type":"Feature","geometry":{"type":"Point","coordinates":[136.2065310000,36.0466160000]},"properties":{"Name":"山奥公園","Jusho":"福井県福井市月見4丁目8","Kouzui":"","がけ崩れ、土石流及び地滑り":"◎","Takashio":"","地震":"◎","津波":"","大規模な火事":"","内水氾濫":"","火山現象":"","指定避難所との重複":"","備考":""}},
{"type":"Feature","geometry":{"type":"Point","coordinates":[136.2384620000,36.0562890000]},"properties":{"Name":"和田公園","Jusho":"福井県福井市御幸4丁目4","Kouzui":"","がけ崩れ、土石流及び地滑り":"","Takashio":"","地震":"◎","津波":"","大規模な火事":"","内水氾濫":"","火山現象":"","指定避難所との重複":"","備考":""}},
{"type":"Feature","geometry":{"type":"Point","coordinates":[136.2340822915,36.0812901424]},"properties":{"Name":"開発公園","Jusho":"福井県福井市西開発3丁目801","Kouzui":"","がけ崩れ、土石流及び地滑り":"◎","Takashio":"","地震":"◎","津波":"","大規模な火事":"","内水氾濫":"","火山現象":"","指定避難所との重複":"","備考":""}},
{"type":"Feature","geometry":{"type":"Point","coordinates":[136.2404207646,36.0650894129]},"properties":{"Name":"米松公園","Jusho":"福井県福井市米松1丁目10","Kouzui":"","がけ崩れ、土石流及び地滑り":"","Takashio":"","地震":"◎","津波":"","大規模な火事":"","内水氾濫":"","火山現象":"","指定避難所との重複":"","備考":""}},
{"type":"Feature","geometry":{"type":"Point","coordinates":[136.2028500000,36.0798500000]},"properties":{"Name":"西藤公園","Jusho":"福井県福井市大宮5丁目5","Kouzui":"","がけ崩れ、土石流及び地滑り":"","Takashio":"","地震":"◎","津波":"","大規模な火事":"","内水氾濫":"","火山現象":"","指定避難所との重複":"","備考":""}},
{"type":"Feature","geometry":{"type":"Point","coordinates":[136.2310710000,36.0916570000]},"properties":{"Name":"高木中央公園","Jusho":"福井県福井市高木中央1丁目601","Kouzui":"","がけ崩れ、土石流及び地滑り":"","Takashio":"","地震":"◎","津波":"","大規模な火事":"","内水氾濫":"","火山現象":"","指定避難所との重複":"","備考":""}},
{"type":"Feature","geometry":{"type":"Point","coordinates":[136.1923700000,36.0714300000]},"properties":{"Name":"菅谷公園","Jusho":"福井県福井市菅谷1丁目6","Kouzui":"","がけ崩れ、土石流及び地滑り":"◎","Takashio":"","地震":"◎","津波":"","大規模な火事":"","内水氾濫":"","火山現象":"","指定避難所との重複":"","備考":""}},
{"type":"Feature","geometry":{"type":"Point","coordinates":[136.2014790000,36.0668610000]},"properties":{"Name":"中狭公園","Jusho":"福井県福井市光陽1丁目13","Kouzui":"","がけ崩れ、土石流及び地滑り":"","Takashio":"","地震":"◎","津波":"","大規模な火事":"","内水氾濫":"","火山現象":"","指定避難所との重複":"","備考":""}},
{"type":"Feature","geometry":{"type":"Point","coordinates":[136.2171200000,36.0865300000]},"properties":{"Name":"北部公園","Jusho":"福井県福井市二の宮3丁目33","Kouzui":"","がけ崩れ、土石流及び地滑り":"","Takashio":"","地震":"◎","津波":"","大規模な火事":"","内水氾濫":"","火山現象":"","指定避難所との重複":"","備考":""}},
{"type":"Feature","geometry":{"type":"Point","coordinates":[136.2279890000,36.1058050000]},"properties":{"Name":"森田公園","Jusho":"福井県福井市古市3丁目201-1","Kouzui":"","がけ崩れ、土石流及び地滑り":"","Takashio":"","地震":"◎","津波":"","大規模な火事":"","内水氾濫":"","火山現象":"","指定避難所との重複":"","備考":""}},
{"type":"Feature","geometry":{"type":"Point","coordinates":[136.2465430000,36.0799050000]},"properties":{"Name":"新保公園","Jusho":"福井県福井市新保1丁目701","Kouzui":"","がけ崩れ、土石流及び地滑り":"◎","Takashio":"","地震":"◎","津波":"","大規模な火事":"","内水氾濫":"","火山現象":"","指定避難所との重複":"","備考":""}},
{"type":"Feature","geometry":{"type":"Point","coordinates":[136.2342930000,36.0399650000]},"properties":{"Name":"下馬中央公園","Jusho":"福井県福井市下馬3丁目1306","Kouzui":"","がけ崩れ、土石流及び地滑り":"","Takashio":"","地震":"◎","津波":"","大規模な火事":"","内水氾濫":"","火山現象":"","指定避難所との重複":"","備考":""}},
{"type":"Feature","geometry":{"type":"Point","coordinates":[136.2014000000,36.0400800000]},"properties":{"Name":"西谷中央公園","Jusho":"福井県福井市西谷2丁目2501","Kouzui":"","がけ崩れ、土石流及び地滑り":"","Takashio":"","地震":"◎","津波":"","大規模な火事":"","内水氾濫":"","火山現象":"","指定避難所との重複":"","備考":""}},
{"type":"Feature","geometry":{"type":"Point","coordinates":[136.2089937021,36.0976669093]},"properties":{"Name":"灯舟ひまわり公園","Jusho":"福井県福井市灯明寺4丁目2001番","Kouzui":"","がけ崩れ、土石流及び地滑り":"","Takashio":"","地震":"◎","津波":"","大規模な火事":"","内水氾濫":"","火山現象":"","指定避難所との重複":"","備考":""}},
{"type":"Feature","geometry":{"type":"Point","coordinates":[136.2309520000,36.0795170000]},"properties":{"Name":"町屋公園","Jusho":"福井県福井市町屋2丁目10","Kouzui":"","がけ崩れ、土石流及び地滑り":"","Takashio":"","地震":"◎","津波":"","大規模な火事":"","内水氾濫":"","火山現象":"","指定避難所との重複":"","備考":""}},
{"type":"Feature","geometry":{"type":"Point","coordinates":[136.2285050000,36.0482060000]},"properties":{"Name":"板垣中央公園","Jusho":"福井県福井市板垣2丁目901","Kouzui":"","がけ崩れ、土石流及び地滑り":"","Takashio":"","地震":"◎","津波":"","大規模な火事":"","内水氾濫":"","火山現象":"","指定避難所との重複":"","備考":""}},
{"type":"Feature","geometry":{"type":"Point","coordinates":[136.2253440000,36.1177780000]},"properties":{"Name":"定正公園","Jusho":"福井県福井市石盛町201","Kouzui":"","がけ崩れ、土石流及び地滑り":"","Takashio":"","地震":"◎","津波":"","大規模な火事":"","内水氾濫":"","火山現象":"","指定避難所との重複":"","備考":""}},
{"type":"Feature","geometry":{"type":"Point","coordinates":[136.2462250000,36.0651170000]},"properties":{"Name":"ちぐさ公園","Jusho":"福井県福井市北四ツ居1丁目23","Kouzui":"","がけ崩れ、土石流及び地滑り":"","Takashio":"","地震":"◎","津波":"","大規模な火事":"","内水氾濫":"","火山現象":"","指定避難所との重複":"","備考":""}},
{"type":"Feature","geometry":{"type":"Point","coordinates":[136.2246450771,36.0435507535]},"properties":{"Name":"鹿江公園","Jusho":"福井県福井市木田3丁目2001","Kouzui":"","がけ崩れ、土石流及び地滑り":"","Takashio":"","地震":"◎","津波":"","大規模な火事":"","内水氾濫":"","火山現象":"","指定避難所との重複":"","備考":""}},
{"type":"Feature","geometry":{"type":"Point","coordinates":[136.2478550000,36.0549140000]},"properties":{"Name":"成和公園","Jusho":"福井県福井市成和2丁目801","Kouzui":"","がけ崩れ、土石流及び地滑り":"","Takashio":"","地震":"◎","津波":"","大規模な火事":"","内水氾濫":"","火山現象":"","指定避難所との重複":"","備考":""}},
{"type":"Feature","geometry":{"type":"Point","coordinates":[136.2452700000,36.0455510000]},"properties":{"Name":"和田中西公園","Jusho":"福井県福井市和田中1丁目1001","Kouzui":"","がけ崩れ、土石流及び地滑り":"","Takashio":"","地震":"◎","津波":"","大規模な火事":"","内水氾濫":"","火山現象":"","指定避難所との重複":"","備考":""}},
{"type":"Feature","geometry":{"type":"Point","coordinates":[136.1893600000,36.0404800000]},"properties":{"Name":"ふち中央公園","Jusho":"福井県福井市渕2丁目701","Kouzui":"","がけ崩れ、土石流及び地滑り":"◎","Takashio":"","地震":"◎","津波":"","大規模な火事":"","内水氾濫":"","火山現象":"","指定避難所との重複":"","備考":""}},
{"type":"Feature","geometry":{"type":"Point","coordinates":[136.1901579740,36.0581783215]},"properties":{"Name":"若杉中央公園","Jusho":"福井県福井市若杉1丁目2601","Kouzui":"","がけ崩れ、土石流及び地滑り":"◎","Takashio":"","地震":"◎","津波":"","大規模な火事":"","内水氾濫":"","火山現象":"","指定避難所との重複":"","備考":""}},
{"type":"Feature","geometry":{"type":"Point","coordinates":[136.1913932123,36.0491138662]},"properties":{"Name":"緑苑公園","Jusho":"福井県福井市福2丁目801","Kouzui":"","がけ崩れ、土石流及び地滑り":"◎","Takashio":"","地震":"◎","津波":"","大規模な火事":"","内水氾濫":"","火山現象":"","指定避難所との重複":"","備考":""}},
{"type":"Feature","geometry":{"type":"Point","coordinates":[136.2004626540,36.0510858564]},"properties":{"Name":"足羽山公園","Jusho":"福井県福井市小山谷町他6","Kouzui":"◎","がけ崩れ、土石流及び地滑り":"◎","Takashio":"","地震":"◎","津波":"","大規模な火事":"","内水氾濫":"","火山現象":"","指定避難所との重複":"","備考":""}},
{"type":"Feature","geometry":{"type":"Point","coordinates":[136.2808970000,36.0534990000]},"properties":{"Name":"東山公園","Jusho":"福井県福井市河水町他3","Kouzui":"◎","がけ崩れ、土石流及び地滑り":"◎","Takashio":"","地震":"◎","津波":"","大規模な火事":"","内水氾濫":"","火山現象":"","指定避難所との重複":"","備考":""}},
{"type":"Feature","geometry":{"type":"Point","coordinates":[136.2229663877,36.0565417293]},"properties":{"Name":"東公園","Jusho":"福井県福井市豊島2丁目5","Kouzui":"","がけ崩れ、土石流及び地滑り":"","Takashio":"","地震":"◎","津波":"","大規模な火事":"","内水氾濫":"","火山現象":"","指定避難所との重複":"","備考":""}},
{"type":"Feature","geometry":{"type":"Point","coordinates":[136.1532610000,36.0621900000]},"properties":{"Name":"福井市総合運動公園","Jusho":"福井県福井市安田町、細坂町","Kouzui":"","がけ崩れ、土石流及び地滑り":"◎","Takashio":"","地震":"◎","津波":"","大規模な火事":"","内水氾濫":"","火山現象":"","指定避難所との重複":"","備考":""}},
{"type":"Feature","geometry":{"type":"Point","coordinates":[136.2209929400,36.0612124100]},"properties":{"Name":"ガレリアポケット公園","Jusho":"福井県福井市中央1丁目10","Kouzui":"","がけ崩れ、土石流及び地滑り":"","Takashio":"","地震":"◎","津波":"","大規模な火事":"","内水氾濫":"","火山現象":"","指定避難所との重複":"","備考":""}},
{"type":"Feature","geometry":{"type":"Point","coordinates":[136.1224198806,36.1436448832]},"properties":{"Name":"春日神社","Jusho":"福井県福井市小幡町","Kouzui":"","がけ崩れ、土石流及び地滑り":"","Takashio":"","地震":"","津波":"◎","大規模な火事":"","内水氾濫":"","火山現象":"","指定避難所との重複":"","備考":""}},
{"type":"Feature","geometry":{"type":"Point","coordinates":[136.1246514785,36.1417387860]},"properties":{"Name":"蓮照寺","Jusho":"福井県福井市小幡町","Kouzui":"","がけ崩れ、土石流及び地滑り":"","Takashio":"","地震":"","津波":"◎","大規模な火事":"","内水氾濫":"","火山現象":"","指定避難所との重複":"","備考":""}},
{"type":"Feature","geometry":{"type":"Point","coordinates":[136.1223125922,36.1401445600]},"properties":{"Name":"為口寿人宅前","Jusho":"福井県福井市為寄町","Kouzui":"","がけ崩れ、土石流及び地滑り":"","Takashio":"","地震":"","津波":"◎","大規模な火事":"","内水氾濫":"","火山現象":"","指定避難所との重複":"","備考":""}},
{"type":"Feature","geometry":{"type":"Point","coordinates":[136.1223876941,36.1380564215]},"properties":{"Name":"春日神社","Jusho":"福井県福井市石畠町","Kouzui":"","がけ崩れ、土石流及び地滑り":"","Takashio":"","地震":"","津波":"◎","大規模な火事":"","内水氾濫":"","火山現象":"","指定避難所との重複":"","備考":""}},
{"type":"Feature","geometry":{"type":"Point","coordinates":[136.1169076425,36.1365993765]},"properties":{"Name":"坪田秀幸宅後方の山","Jusho":"福井県福井市田ノ頭町","Kouzui":"","がけ崩れ、土石流及び地滑り":"","Takashio":"","地震":"","津波":"◎","大規模な火事":"","内水氾濫":"","火山現象":"","指定避難所との重複":"","備考":""}},
{"type":"Feature","geometry":{"type":"Point","coordinates":[136.1189000072,36.1411601955]},"properties":{"Name":"硲神社境内","Jusho":"福井県福井市石畠町","Kouzui":"","がけ崩れ、土石流及び地滑り":"","Takashio":"","地震":"","津波":"◎","大規模な火事":"","内水氾濫":"","火山現象":"","指定避難所との重複":"","備考":""}},
{"type":"Feature","geometry":{"type":"Point","coordinates":[136.1099982721,36.1442499788]},"properties":{"Name":"ヤマショウ建設駐車場","Jusho":"福井県福井市深坂町","Kouzui":"","がけ崩れ、土石流及び地滑り":"","Takashio":"","地震":"","津波":"◎","大規模な火事":"","内水氾濫":"","火山現象":"","指定避難所との重複":"","備考":""}},
{"type":"Feature","geometry":{"type":"Point","coordinates":[136.1113898220,36.1486804020]},"properties":{"Name":"春日神社","Jusho":"福井県福井市浜島町","Kouzui":"","がけ崩れ、土石流及び地滑り":"","Takashio":"","地震":"","津波":"◎","大規模な火事":"","内水氾濫":"","火山現象":"","指定避難所との重複":"","備考":""}},
{"type":"Feature","geometry":{"type":"Point","coordinates":[136.1111001434,36.1554635641]},"properties":{"Name":"渡辺プロパン前","Jusho":"福井県福井市白方町","Kouzui":"","がけ崩れ、土石流及び地滑り":"","Takashio":"","地震":"","津波":"◎","大規模な火事":"","内水氾濫":"","火山現象":"","指定避難所との重複":"","備考":""}},
{"type":"Feature","geometry":{"type":"Point","coordinates":[136.1163363565,36.1649961752]},"properties":{"Name":"さわやか広場（北側）","Jusho":"福井県福井市テクノポート","Kouzui":"","がけ崩れ、土石流及び地滑り":"","Takashio":"","地震":"","津波":"◎","大規模な火事":"","内水氾濫":"","火山現象":"","指定避難所との重複":"","備考":""}},
{"type":"Feature","geometry":{"type":"Point","coordinates":[136.1114654650,36.1594698704]},"properties":{"Name":"さわやか広場（南側）","Jusho":"福井県福井市テクノポート","Kouzui":"","がけ崩れ、土石流及び地滑り":"","Takashio":"","地震":"","津波":"◎","大規模な火事":"","内水氾濫":"","火山現象":"","指定避難所との重複":"","備考":""}},