var hyogo={"type":"FeatureCollection","name":"hyogo","features":[
{"type":"Feature","geometry":{"type":"Point","coordinates":[135.2944292000,34.7248161000]},"properties":{"Name":"東灘小学校","Jusho":"兵庫県神戸市東灘区深江北町2-4-1","洪水":"◎","がけ崩れ、土石流及び地滑り":"◎","高潮":"","地震":"","津波":"","大規模な火事":"","内水氾濫":"","火山現象":"","指定避難所との重複":"◎","備考":""}},
{"type":"Feature","geometry":{"type":"Point","coordinates":[135.2888714000,34.7211525000]},"properties":{"Name":"本庄小学校","Jusho":"兵庫県神戸市東灘区青木4-4-1","洪水":"◎","がけ崩れ、土石流及び地滑り":"◎","高潮":"","地震":"","津波":"","大規模な火事":"","内水氾濫":"","火山現象":"","指定避難所との重複":"◎","備考":""}},
{"type":"Feature","geometry":{"type":"Point","coordinates":[135.2875439000,34.7203025000]},"properties":{"Name":"本庄中学校","Jusho":"兵庫県神戸市東灘区青木4-4-2","洪水":"◎","がけ崩れ、土石流及び地滑り":"◎","高潮":"","地震":"","津波":"","大規模な火事":"","内水氾濫":"","火山現象":"","指定避難所との重複":"◎","備考":""}},
{"type":"Feature","geometry":{"type":"Point","coordinates":[135.3010486000,34.7099789000]},"properties":{"Name":"東灘高校","Jusho":"兵庫県神戸市東灘区深江浜町50","洪水":"◎","がけ崩れ、土石流及び地滑り":"◎","高潮":"","地震":"","津波":"","大規模な火事":"","内水氾濫":"","火山現象":"","指定避難所との重複":"◎","備考":""}},
{"type":"Feature","geometry":{"type":"Point","coordinates":[135.2883578000,34.7187444000]},"properties":{"Name":"神戸大学海事科学部","Jusho":"兵庫県神戸市東灘区深江南町5-1-1","洪水":"◎","がけ崩れ、土石流及び地滑り":"◎","高潮":"","地震":"","津波":"","大規模な火事":"","内水氾濫":"","火山現象":"","指定避難所との重複":"◎","備考":""}},
{"type":"Feature","geometry":{"type":"Point","coordinates":[135.2712570000,34.7149660000]},"properties":{"Name":"魚崎小学校","Jusho":"兵庫県神戸市東灘区魚崎中町4-10-8","洪水":"◎","がけ崩れ、土石流及び地滑り":"◎","高潮":"","地震":"","津波":"◎","大規模な火事":"","内水氾濫":"","火山現象":"","指定避難所との重複":"◎","備考":""}},
{"type":"Feature","geometry":{"type":"Point","coordinates":[135.2684539000,34.7191636000]},"properties":{"Name":"灘中・高校","Jusho":"兵庫県神戸市東灘区魚崎北町8-5-1","洪水":"◎","がけ崩れ、土石流及び地滑り":"◎","高潮":"","地震":"","津波":"◎","大規模な火事":"","内水氾濫":"","火山現象":"","指定避難所との重複":"◎","備考":""}},
{"type":"Feature","geometry":{"type":"Point","coordinates":[135.2789056000,34.7289433000]},"properties":{"Name":"本山第一小学校","Jusho":"兵庫県神戸市東灘区本山北町3-10-1","洪水":"◎","がけ崩れ、土石流及び地滑り":"◎","高潮":"","地震":"","津波":"◎","大規模な火事":"","内水氾濫":"","火山現象":"","指定避難所との重複":"◎","備考":""}},
{"type":"Feature","geometry":{"type":"Point","coordinates":[135.2917292000,34.7349206000]},"properties":{"Name":"甲南女子中・高校","Jusho":"兵庫県神戸市東灘区森北町5-6-1","洪水":"◎","がけ崩れ、土石流及び地滑り":"◎","高潮":"","地震":"","津波":"◎","大規模な火事":"","内水氾濫":"","火山現象":"","指定避難所との重複":"◎","備考":""}},
{"type":"Feature","geometry":{"type":"Point","coordinates":[135.2874710000,34.7348020000]},"properties":{"Name":"甲南女子大学","Jusho":"兵庫県神戸市東灘区森北町6-2-23","洪水":"◎","がけ崩れ、土石流及び地滑り":"◎","高潮":"","地震":"","津波":"◎","大規模な火事":"","内水氾濫":"","火山現象":"","指定避難所との重複":"","備考":""}},
{"type":"Feature","geometry":{"type":"Point","coordinates":[135.2832689000,34.7331150000]},"properties":{"Name":"神戸薬科大学","Jusho":"兵庫県神戸市東灘区本山北町4-19-1","洪水":"◎","がけ崩れ、土石流及び地滑り":"◎","高潮":"","地震":"","津波":"◎","大規模な火事":"","内水氾濫":"","火山現象":"","指定避難所との重複":"◎","備考":""}},
{"type":"Feature","geometry":{"type":"Point","coordinates":[135.2695758000,34.7253269000]},"properties":{"Name":"本山第二小学校","Jusho":"兵庫県神戸市東灘区西岡本1-3-1","洪水":"◎","がけ崩れ、土石流及び地滑り":"◎","高潮":"","地震":"","津波":"◎","大規模な火事":"","内水氾濫":"","火山現象":"","指定避難所との重複":"◎","備考":""}},
{"type":"Feature","geometry":{"type":"Point","coordinates":[135.2709397000,34.7256325000]},"properties":{"Name":"本山中学校","Jusho":"兵庫県神戸市東灘区岡本3-3-1","洪水":"◎","がけ崩れ、土石流及び地滑り":"◎","高潮":"","地震":"","津波":"◎","大規模な火事":"","内水氾濫":"","火山現象":"","指定避難所との重複":"◎","備考":""}},
{"type":"Feature","geometry":{"type":"Point","coordinates":[135.2679925000,34.7297340000]},"properties":{"Name":"甲南大学","Jusho":"兵庫県神戸市東灘区岡本8-9-1","洪水":"◎","がけ崩れ、土石流及び地滑り":"◎","高潮":"","地震":"","津波":"◎","大規模な火事":"","内水氾濫":"","火山現象":"","指定避難所との重複":"◎","備考":""}},
{"type":"Feature","geometry":{"type":"Point","coordinates":[135.2864103000,34.7280906000]},"properties":{"Name":"本山第三小学校","Jusho":"兵庫県神戸市東灘区本山中町1-2-35","洪水":"◎","がけ崩れ、土石流及び地滑り":"◎","高潮":"","地震":"","津波":"◎","大規模な火事":"","内水氾濫":"","火山現象":"","指定避難所との重複":"◎","備考":""}},
{"type":"Feature","geometry":{"type":"Point","coordinates":[135.2644850000,34.7175747000]},"properties":{"Name":"住吉小学校","Jusho":"兵庫県神戸市東灘区住吉東町4-1-31","洪水":"","がけ崩れ、土石流及び地滑り":"◎","高潮":"","地震":"","津波":"◎","大規模な火事":"","内水氾濫":"","火山現象":"","指定避難所との重複":"◎","備考":""}},
{"type":"Feature","geometry":{"type":"Point","coordinates":[135.2655489000,34.7170611000]},"properties":{"Name":"友生支援学校住吉分校","Jusho":"兵庫県神戸市東灘区住吉東町4-1-58","洪水":"◎","がけ崩れ、土石流及び地滑り":"◎","高潮":"","地震":"","津波":"◎","大規模な火事":"","内水氾濫":"","火山現象":"","指定避難所との重複":"◎","備考":""}},
{"type":"Feature","geometry":{"type":"Point","coordinates":[135.2636564000,34.7139751000]},"properties":{"Name":"住之江公民館","Jusho":"兵庫県神戸市東灘区住吉宮町2-2-3","洪水":"","がけ崩れ、土石流及び地滑り":"◎","高潮":"","地震":"","津波":"◎","大規模な火事":"","内水氾濫":"","火山現象":"","指定避難所との重複":"◎","備考":""}},
{"type":"Feature","geometry":{"type":"Point","coordinates":[135.2646774000,34.7143023000]},"properties":{"Name":"住之江公民館別館","Jusho":"兵庫県神戸市東灘区住吉宮町2-1-3","洪水":"","がけ崩れ、土石流及び地滑り":"◎","高潮":"","地震":"","津波":"◎","大規模な火事":"","内水氾濫":"","火山現象":"","指定避難所との重複":"◎","備考":""}},
{"type":"Feature","geometry":{"type":"Point","coordinates":[135.2624866000,34.7107873000]},"properties":{"Name":"呉田会館","Jusho":"兵庫県神戸市東灘区住吉南町4-6-23","洪水":"◎","がけ崩れ、土石流及び地滑り":"◎","高潮":"","地震":"","津波":"◎","大規模な火事":"","内水氾濫":"","火山現象":"","指定避難所との重複":"◎","備考":""}},
{"type":"Feature","geometry":{"type":"Point","coordinates":[135.2515083000,34.7148111000]},"properties":{"Name":"御影小学校","Jusho":"兵庫県神戸市東灘区御影石町3-1-1","洪水":"◎","がけ崩れ、土石流及び地滑り":"◎","高潮":"","地震":"","津波":"◎","大規模な火事":"","内水氾濫":"","火山現象":"","指定避難所との重複":"◎","備考":""}},
{"type":"Feature","geometry":{"type":"Point","coordinates":[135.2505750000,34.7169608000]},"properties":{"Name":"御影高校","Jusho":"兵庫県神戸市東灘区御影石町4-1-1","洪水":"◎","がけ崩れ、土石流及び地滑り":"◎","高潮":"","地震":"","津波":"◎","大規模な火事":"","内水氾濫":"","火山現象":"","指定避難所との重複":"◎","備考":""}},
{"type":"Feature","geometry":{"type":"Point","coordinates":[135.2492512000,34.7160708000]},"properties":{"Name":"御影公会堂","Jusho":"兵庫県神戸市東灘区御影石町4-4-1","洪水":"◎","がけ崩れ、土石流及び地滑り":"◎","高潮":"","地震":"","津波":"◎","大規模な火事":"","内水氾濫":"","火山現象":"","指定避難所との重複":"◎","備考":""}},
{"type":"Feature","geometry":{"type":"Point","coordinates":[135.2488056000,34.7246294000]},"properties":{"Name":"御影北小学校","Jusho":"兵庫県神戸市東灘区御影山手1-12-1","洪水":"◎","がけ崩れ、土石流及び地滑り":"◎","高潮":"","地震":"","津波":"◎","大規模な火事":"","内水氾濫":"","火山現象":"","指定避難所との重複":"◎","備考":""}},
{"type":"Feature","geometry":{"type":"Point","coordinates":[135.2491389000,34.7274431000]},"properties":{"Name":"頌栄短期大学","Jusho":"兵庫県神戸市東灘区御影山手1-18-1","洪水":"◎","がけ崩れ、土石流及び地滑り":"◎","高潮":"","地震":"","津波":"◎","大規模な火事":"","内水氾濫":"","火山現象":"","指定避難所との重複":"◎","備考":""}},
{"type":"Feature","geometry":{"type":"Point","coordinates":[135.2503494000,34.7389833000]},"properties":{"Name":"渦が森小学校","Jusho":"兵庫県神戸市東灘区渦森台1-12-1","洪水":"◎","がけ崩れ、土石流及び地滑り":"◎","高潮":"","地震":"","津波":"◎","大規模な火事":"","内水氾濫":"","火山現象":"","指定避難所との重複":"◎","備考":""}},
{"type":"Feature","geometry":{"type":"Point","coordinates":[135.2567989000,34.7386169000]},"properties":{"Name":"同朋住吉台こども園","Jusho":"兵庫県神戸市東灘区住吉台25-7","洪水":"◎","がけ崩れ、土石流及び地滑り":"◎","高潮":"","地震":"","津波":"◎","大規模な火事":"","内水氾濫":"","火山現象":"","指定避難所との重複":"","備考":""}},
{"type":"Feature","geometry":{"type":"Point","coordinates":[135.2744986000,34.6888558000]},"properties":{"Name":"六甲アイランド小学校","Jusho":"兵庫県神戸市東灘区向洋町中2-7","洪水":"","がけ崩れ、土石流及び地滑り":"","高潮":"","地震":"","津波":"◎","大規模な火事":"","内水氾濫":"","火山現象":"","指定避難所との重複":"◎","備考":""}},
{"type":"Feature","geometry":{"type":"Point","coordinates":[135.2740625000,34.6899361000]},"properties":{"Name":"向洋中学校","Jusho":"兵庫県神戸市東灘区向洋町中2","洪水":"","がけ崩れ、土石流及び地滑り":"","高潮":"","地震":"","津波":"◎","大規模な火事":"","内水氾濫":"","火山現象":"","指定避難所との重複":"◎","備考":""}},
{"type":"Feature","geometry":{"type":"Point","coordinates":[135.2714269000,34.6848339000]},"properties":{"Name":"六甲アイランド高校","Jusho":"兵庫県神戸市東灘区向洋町中4-4","洪水":"","がけ崩れ、土石流及び地滑り":"","高潮":"","地震":"","津波":"◎","大規模な火事":"","内水氾濫":"","火山現象":"","指定避難所との重複":"◎","備考":""}},
{"type":"Feature","geometry":{"type":"Point","coordinates":[135.2787669000,34.7212831000]},"properties":{"Name":"福池小学校","Jusho":"兵庫県神戸市東灘区本山南町4-4-28","洪水":"◎","がけ崩れ、土石流及び地滑り":"◎","高潮":"","地震":"","津波":"◎","大規模な火事":"","内水氾濫":"","火山現象":"","指定避難所との重複":"◎","備考":""}},
{"type":"Feature","geometry":{"type":"Point","coordinates":[135.2824636000,34.7235717000]},"properties":{"Name":"本山南小学校","Jusho":"兵庫県神戸市東灘区本山南町8-2-1","洪水":"◎","がけ崩れ、土石流及び地滑り":"◎","高潮":"","地震":"","津波":"◎","大規模な火事":"","内水氾濫":"","火山現象":"","指定避難所との重複":"◎","備考":""}},
{"type":"Feature","geometry":{"type":"Point","coordinates":[135.2876408000,34.7235202000]},"properties":{"Name":"神戸大学白鴎寮","Jusho":"兵庫県神戸市東灘区本山南町1-4-50","洪水":"◎","がけ崩れ、土石流及び地滑り":"◎","高潮":"","地震":"","津波":"◎","大規模な火事":"","内水氾濫":"","火山現象":"","指定避難所との重複":"◎","備考":""}},
{"type":"Feature","geometry":{"type":"Point","coordinates":[135.2644942000,34.6876808000]},"properties":{"Name":"向洋小学校","Jusho":"兵庫県神戸市東灘区向洋町中6","洪水":"","がけ崩れ、土石流及び地滑り":"","高潮":"","地震":"","津波":"◎","大規模な火事":"","内水氾濫":"","火山現象":"","指定避難所との重複":"◎","備考":""}},
{"type":"Feature","geometry":{"type":"Point","coordinates":[135.2639961000,34.7222717000]},"properties":{"Name":"甲南小学校","Jusho":"兵庫県神戸市東灘区住吉本町1-12-1","洪水":"◎","がけ崩れ、土石流及び地滑り":"◎","高潮":"","地震":"","津波":"◎","大規模な火事":"","内水氾濫":"","火山現象":"","指定避難所との重複":"◎","備考":""}},
{"type":"Feature","geometry":{"type":"Point","coordinates":[135.2544994000,34.7320231000]},"properties":{"Name":"神大附属中等教育学校","Jusho":"兵庫県神戸市東灘区住吉山手5-11-1","洪水":"◎","がけ崩れ、土石流及び地滑り":"◎","高潮":"","地震":"","津波":"◎","大規模な火事":"","内水氾濫":"","火山現象":"","指定避難所との重複":"◎","備考":""}},
{"type":"Feature","geometry":{"type":"Point","coordinates":[135.2705342000,34.7231161000]},"properties":{"Name":"本山南中学校","Jusho":"兵庫県神戸市東灘区田中町4-12-1","洪水":"◎","がけ崩れ、土石流及び地滑り":"◎","高潮":"","地震":"","津波":"◎","大規模な火事":"","内水氾濫":"","火山現象":"","指定避難所との重複":"◎","備考":""}},
{"type":"Feature","geometry":{"type":"Point","coordinates":[135.2587214000,34.7258628000]},"properties":{"Name":"住吉中学校","Jusho":"兵庫県神戸市東灘区住吉山手1-11-1","洪水":"◎","がけ崩れ、土石流及び地滑り":"◎","高潮":"","地震":"","津波":"◎","大規模な火事":"","内水氾濫":"","火山現象":"","指定避難所との重複":"◎","備考":""}},
{"type":"Feature","geometry":{"type":"Point","coordinates":[135.2535331000,34.7159417000]},"properties":{"Name":"御影中学校","Jusho":"兵庫県神戸市東灘区御影中町5-1-1","洪水":"◎","がけ崩れ、土石流及び地滑り":"◎","高潮":"","地震":"","津波":"◎","大規模な火事":"","内水氾濫":"","火山現象":"","指定避難所との重複":"◎","備考":""}},
{"type":"Feature","geometry":{"type":"Point","coordinates":[135.2790506000,34.7131200000]},"properties":{"Name":"魚崎中学校","Jusho":"兵庫県神戸市東灘区魚崎南町1-2-1","洪水":"◎","がけ崩れ、土石流及び地滑り":"◎","高潮":"","地震":"","津波":"","大規模な火事":"","内水氾濫":"","火山現象":"","指定避難所との重複":"◎","備考":""}},
{"type":"Feature","geometry":{"type":"Point","coordinates":[135.2781160000,34.7146660000]},"properties":{"Name":"東灘体育館","Jusho":"兵庫県神戸市東灘区魚崎南町6-5-11","洪水":"◎","がけ崩れ、土石流及び地滑り":"◎","高潮":"","地震":"","津波":"","大規模な火事":"","内水氾濫":"","火山現象":"","指定避難所との重複":"◎","備考":""}},
{"type":"Feature","geometry":{"type":"Point","coordinates":[135.2363925000,34.7335836000]},"properties":{"Name":"鶴甲小学校","Jusho":"兵庫県神戸市灘区鶴甲2-10-1","洪水":"◎","がけ崩れ、土石流及び地滑り":"◎","高潮":"","地震":"","津波":"◎","大規模な火事":"","内水氾濫":"","火山現象":"","指定避難所との重複":"◎","備考":""}},
{"type":"Feature","geometry":{"type":"Point","coordinates":[135.2332720000,34.7246400000]},"properties":{"Name":"神戸大学農学部","Jusho":"兵庫県神戸市灘区六甲台町1-1","洪水":"◎","がけ崩れ、土石流及び地滑り":"◎","高潮":"","地震":"","津波":"◎","大規模な火事":"","内水氾濫":"","火山現象":"","指定避難所との重複":"◎","備考":""}},
{"type":"Feature","geometry":{"type":"Point","coordinates":[135.2374880000,34.7269940000]},"properties":{"Name":"神戸大学工学部","Jusho":"兵庫県神戸市灘区六甲台町1-1","洪水":"◎","がけ崩れ、土石流及び地滑り":"◎","高潮":"","地震":"","津波":"◎","大規模な火事":"","内水氾濫":"","火山現象":"","指定避難所との重複":"◎","備考":""}},
{"type":"Feature","geometry":{"type":"Point","coordinates":[135.2344840000,34.7346090000]},"properties":{"Name":"神戸大学発達科学部","Jusho":"兵庫県神戸市灘区鶴甲３-11","洪水":"◎","がけ崩れ、土石流及び地滑り":"◎","高潮":"","地震":"","津波":"◎","大規模な火事":"","内水氾濫":"","火山現象":"","指定避難所との重複":"◎","備考":""}},
{"type":"Feature","geometry":{"type":"Point","coordinates":[135.2295239000,34.7273600000]},"properties":{"Name":"神戸松蔭女子学院大学","Jusho":"兵庫県神戸市灘区篠原伯母野山町1-2-1","洪水":"◎","がけ崩れ、土石流及び地滑り":"◎","高潮":"","地震":"","津波":"◎","大規模な火事":"","内水氾濫":"","火山現象":"","指定避難所との重複":"","備考":""}},
{"type":"Feature","geometry":{"type":"Point","coordinates":[135.2422119000,34.7156136000]},"properties":{"Name":"成徳小学校","Jusho":"兵庫県神戸市灘区備後町1-3-1","洪水":"◎","がけ崩れ、土石流及び地滑り":"◎","高潮":"","地震":"","津波":"◎","大規模な火事":"","内水氾濫":"","火山現象":"","指定避難所との重複":"◎","備考":""}},
{"type":"Feature","geometry":{"type":"Point","coordinates":[135.2394699000,34.7232671000]},"properties":{"Name":"高羽小学校","Jusho":"兵庫県神戸市灘区高羽町3-11-11","洪水":"◎","がけ崩れ、土石流及び地滑り":"◎","高潮":"","地震":"","津波":"◎","大規模な火事":"","内水氾濫":"","火山現象":"","指定避難所との重複":"◎","備考":""}},
{"type":"Feature","geometry":{"type":"Point","coordinates":[135.2420260000,34.7267560000]},"properties":{"Name":"親和女子高等学校・親和中学校","Jusho":"兵庫県神戸市灘区土山町6-1","洪水":"◎","がけ崩れ、土石流及び地滑り":"◎","高潮":"","地震":"","津波":"◎","大規模な火事":"","内水氾濫":"","火山現象":"","指定避難所との重複":"","備考":""}},
{"type":"Feature","geometry":{"type":"Point","coordinates":[135.2327520000,34.7069712000]},"properties":{"Name":"西郷小学校","Jusho":"兵庫県神戸市灘区大石東町6-2-1","洪水":"◎","がけ崩れ、土石流及び地滑り":"◎","高潮":"","地震":"","津波":"◎","大規模な火事":"","内水氾濫":"","火山現象":"","指定避難所との重複":"◎","備考":""}},
{"type":"Feature","geometry":{"type":"Point","coordinates":[135.2333847000,34.7176856000]},"properties":{"Name":"六甲小学校","Jusho":"兵庫県神戸市灘区八幡町4-4-1","洪水":"◎","がけ崩れ、土石流及び地滑り":"◎","高潮":"","地震":"","津波":"◎","大規模な火事":"","内水氾濫":"","火山現象":"","指定避難所との重複":"◎","備考":""}},
{"type":"Feature","geometry":{"type":"Point","coordinates":[135.2184924000,34.7131542000]},"properties":{"Name":"福住小学校","Jusho":"兵庫県神戸市灘区福住通7-1-1","洪水":"◎","がけ崩れ、土石流及び地滑り":"◎","高潮":"","地震":"","津波":"◎","大規模な火事":"","内水氾濫":"","火山現象":"","指定避難所との重複":"◎","備考":""}},
{"type":"Feature","geometry":{"type":"Point","coordinates":[135.2139531000,34.7183517000]},"properties":{"Name":"神戸高校","Jusho":"兵庫県神戸市灘区城の下通1-5-1","洪水":"◎","がけ崩れ、土石流及び地滑り":"◎","高潮":"","地震":"","津波":"◎","大規模な火事":"","内水氾濫":"","火山現象":"","指定避難所との重複":"◎","備考":""}},
{"type":"Feature","geometry":{"type":"Point","coordinates":[135.2127184000,34.7112438000]},"properties":{"Name":"王子スポーツセンター","Jusho":"兵庫県神戸市灘区青谷町1-1-1","洪水":"◎","がけ崩れ、土石流及び地滑り":"◎","高潮":"","地震":"","津波":"◎","大規模な火事":"","内水氾濫":"","火山現象":"","指定避難所との重複":"◎","備考":""}},
{"type":"Feature","geometry":{"type":"Point","coordinates":[135.2277828000,34.7078003000]},"properties":{"Name":"西灘小学校","Jusho":"兵庫県神戸市灘区船寺通3-4-1","洪水":"◎","がけ崩れ、土石流及び地滑り":"◎","高潮":"","地震":"","津波":"◎","大規模な火事":"","内水氾濫":"","火山現象":"","指定避難所との重複":"◎","備考":""}},
{"type":"Feature","geometry":{"type":"Point","coordinates":[135.2287470000,34.7079570000]},"properties":{"Name":"原田中学校","Jusho":"兵庫県神戸市灘区船寺通2-4-1","洪水":"◎","がけ崩れ、土石流及び地滑り":"◎","高潮":"","地震":"","津波":"◎","大規模な火事":"","内水氾濫":"","火山現象":"","指定避難所との重複":"◎","備考":""}},
{"type":"Feature","geometry":{"type":"Point","coordinates":[135.2224081000,34.7113389000]},"properties":{"Name":"稗田小学校","Jusho":"兵庫県神戸市灘区岸地通4-2-1","洪水":"◎","がけ崩れ、土石流及び地滑り":"◎","高潮":"","地震":"","津波":"◎","大規模な火事":"","内水氾濫":"","火山現象":"","指定避難所との重複":"◎","備考":""}},
{"type":"Feature","geometry":{"type":"Point","coordinates":[135.2211800000,34.7230792000]},"properties":{"Name":"美野丘小学校","Jusho":"兵庫県神戸市灘区箕岡通1-3-17","洪水":"◎","がけ崩れ、土石流及び地滑り":"◎","高潮":"","地震":"","津波":"◎","大規模な火事":"","内水氾濫":"","火山現象":"","指定避難所との重複":"◎","備考":""}},
{"type":"Feature","geometry":{"type":"Point","coordinates":[135.2228913000,34.7193019900]},"properties":{"Name":"上野中学校","Jusho":"兵庫県神戸市灘区国玉通1-1-1","洪水":"◎","がけ崩れ、土石流及び地滑り":"◎","高潮":"","地震":"","津波":"◎","大規模な火事":"","内水氾濫":"","火山現象":"","指定避難所との重複":"◎","備考":""}},
{"type":"Feature","geometry":{"type":"Point","coordinates":[135.2205719000,34.7157272000]},"properties":{"Name":"摩耶小学校","Jusho":"兵庫県神戸市灘区畑原通4-1-1","洪水":"◎","がけ崩れ、土石流及び地滑り":"◎","高潮":"","地震":"","津波":"◎","大規模な火事":"","内水氾濫":"","火山現象":"","指定避難所との重複":"◎","備考":""}},
{"type":"Feature","geometry":{"type":"Point","coordinates":[135.2325461000,34.7132556000]},"properties":{"Name":"灘小学校","Jusho":"兵庫県神戸市灘区千旦通1-5-1","洪水":"◎","がけ崩れ、土石流及び地滑り":"◎","高潮":"","地震":"","津波":"◎","大規模な火事":"","内水氾濫":"","火山現象":"","指定避難所との重複":"◎","備考":""}},
{"type":"Feature","geometry":{"type":"Point","coordinates":[135.2322536000,34.7573864000]},"properties":{"Name":"六甲山小学校","Jusho":"兵庫県神戸市灘区六甲山町北六甲4512-42","洪水":"","がけ崩れ、土石流及び地滑り":"◎","高潮":"","地震":"","津波":"","大規模な火事":"","内水氾濫":"","火山現象":"","指定避難所との重複":"◎","備考":""}},
{"type":"Feature","geometry":{"type":"Point","coordinates":[135.2438533000,34.7201547000]},"properties":{"Name":"鷹匠中学校","Jusho":"兵庫県神戸市灘区高徳町2-2-19","洪水":"◎","がけ崩れ、土石流及び地滑り":"◎","高潮":"","地震":"","津波":"◎","大規模な火事":"","内水氾濫":"","火山現象":"","指定避難所との重複":"◎","備考":""}},
{"type":"Feature","geometry":{"type":"Point","coordinates":[135.2376273000,34.7106720000]},"properties":{"Name":"烏帽子中学校","Jusho":"兵庫県神戸市灘区烏帽子町1-2-1","洪水":"◎","がけ崩れ、土石流及び地滑り":"◎","高潮":"","地震":"","津波":"◎","大規模な火事":"","内水氾濫":"","火山現象":"","指定避難所との重複":"◎","備考":""}},
{"type":"Feature","geometry":{"type":"Point","coordinates":[135.2226050000,34.7248011000]},"properties":{"Name":"長峰中学校","Jusho":"兵庫県神戸市灘区長峰台2-2-1","洪水":"◎","がけ崩れ、土石流及び地滑り":"◎","高潮":"","地震":"","津波":"◎","大規模な火事":"","内水氾濫":"","火山現象":"","指定避難所との重複":"◎","備考":""}},
{"type":"Feature","geometry":{"type":"Point","coordinates":[135.2113422000,34.7106192000]},"properties":{"Name":"上筒井小学校","Jusho":"兵庫県神戸市中央区野崎通1-1-2","洪水":"◎","がけ崩れ、土石流及び地滑り":"◎","高潮":"","地震":"","津波":"◎","大規模な火事":"","内水氾濫":"","火山現象":"","指定避難所との重複":"◎","備考":""}},
{"type":"Feature","geometry":{"type":"Point","coordinates":[135.2100675000,34.7093111000]},"properties":{"Name":"筒井台中学校","Jusho":"兵庫県神戸市中央区野崎通1-1-3","洪水":"◎","がけ崩れ、土石流及び地滑り":"◎","高潮":"","地震":"","津波":"◎","大規模な火事":"","内水氾濫":"","火山現象":"","指定避難所との重複":"◎","備考":""}},
{"type":"Feature","geometry":{"type":"Point","coordinates":[135.2102842000,34.7110108000]},"properties":{"Name":"葺合高校","Jusho":"兵庫県神戸市中央区野崎通1-1-1","洪水":"◎","がけ崩れ、土石流及び地滑り":"◎","高潮":"","地震":"","津波":"◎","大規模な火事":"","内水氾濫":"","火山現象":"","指定避難所との重複":"◎","備考":""}},
{"type":"Feature","geometry":{"type":"Point","coordinates":[135.2117731000,34.7067197000]},"properties":{"Name":"宮本小学校","Jusho":"兵庫県神戸市中央区宮本通2-1-36","洪水":"◎","がけ崩れ、土石流及び地滑り":"◎","高潮":"","地震":"","津波":"◎","大規模な火事":"","内水氾濫":"","火山現象":"","指定避難所との重複":"◎","備考":""}},
{"type":"Feature","geometry":{"type":"Point","coordinates":[135.2135256000,34.7043033000]},"properties":{"Name":"科学技術高校","Jusho":"兵庫県神戸市中央区脇浜町1-4-70","洪水":"","がけ崩れ、土石流及び地滑り":"◎","高潮":"","地震":"","津波":"◎","大規模な火事":"","内水氾濫":"","火山現象":"","指定避難所との重複":"◎","備考":""}},
{"type":"Feature","geometry":{"type":"Point","coordinates":[135.2032542000,34.7068444000]},"properties":{"Name":"葺合中学校","Jusho":"兵庫県神戸市中央区熊内町1-4-28","洪水":"◎","がけ崩れ、土石流及び地滑り":"","高潮":"","地震":"","津波":"◎","大規模な火事":"","内水氾濫":"","火山現象":"","指定避難所との重複":"◎","備考":""}},
{"type":"Feature","geometry":{"type":"Point","coordinates":[135.2061429900,34.7056614700]},"properties":{"Name":"春日野小学校","Jusho":"兵庫県神戸市中央区宮本通7-1-6","洪水":"","がけ崩れ、土石流及び地滑り":"◎","高潮":"","地震":"","津波":"◎","大規模な火事":"","内水氾濫":"","火山現象":"","指定避難所との重複":"◎","備考":""}},
{"type":"Feature","geometry":{"type":"Point","coordinates":[135.2110122000,34.6977428000]},"properties":{"Name":"なぎさ小学校","Jusho":"兵庫県神戸市中央区脇浜海岸通2-4-1","洪水":"◎","がけ崩れ、土石流及び地滑り":"◎","高潮":"","地震":"","津波":"◎","大規模な火事":"","内水氾濫":"","火山現象":"","指定避難所との重複":"◎","備考":""}},
{"type":"Feature","geometry":{"type":"Point","coordinates":[135.2175697000,34.7004675000]},"properties":{"Name":"渚中学校","Jusho":"兵庫県神戸市中央区脇浜海岸通2-1-1","洪水":"◎","がけ崩れ、土石流及び地滑り":"◎","高潮":"","地震":"","津波":"◎","大規模な火事":"","内水氾濫":"","火山現象":"","指定避難所との重複":"◎","備考":""}},
{"type":"Feature","geometry":{"type":"Point","coordinates":[135.2001544000,34.7059667000]},"properties":{"Name":"雲中小学校","Jusho":"兵庫県神戸市中央区熊内町3-1-7","洪水":"◎","がけ崩れ、土石流及び地滑り":"◎","高潮":"","地震":"","津波":"◎","大規模な火事":"","内水氾濫":"","火山現象":"","指定避難所との重複":"◎","備考":""}},
{"type":"Feature","geometry":{"type":"Point","coordinates":[135.1991572000,34.7094081000]},"properties":{"Name":"布引中学校","Jusho":"兵庫県神戸市中央区熊内町6-7-1","洪水":"◎","がけ崩れ、土石流及び地滑り":"","高潮":"","地震":"","津波":"◎","大規模な火事":"","内水氾濫":"","火山現象":"","指定避難所との重複":"◎","備考":""}},
{"type":"Feature","geometry":{"type":"Point","coordinates":[135.1996908000,34.7017422000]},"properties":{"Name":"中央小学校","Jusho":"兵庫県神戸市中央区神若通7-1-1","洪水":"◎","がけ崩れ、土石流及び地滑り":"◎","高潮":"","地震":"","津波":"◎","大規模な火事":"","内水氾濫":"","火山現象":"","指定避難所との重複":"◎","備考":""}},
{"type":"Feature","geometry":{"type":"Point","coordinates":[135.2046319000,34.6982261000]},"properties":{"Name":"コミスタこうべ（生涯学習支援センター）","Jusho":"兵庫県神戸市中央区吾妻通4-1-6","洪水":"◎","がけ崩れ、土石流及び地滑り":"◎","高潮":"","地震":"","津波":"◎","大規模な火事":"","内水氾濫":"","火山現象":"","指定避難所との重複":"◎","備考":""}},
{"type":"Feature","geometry":{"type":"Point","coordinates":[135.2045350000,34.6949830000]},"properties":{"Name":"葺合公民館","Jusho":"兵庫県神戸市中央区真砂通2-1-1","洪水":"◎","がけ崩れ、土石流及び地滑り":"◎","高潮":"","地震":"","津波":"◎","大規模な火事":"","内水氾濫":"","火山現象":"","指定避難所との重複":"◎","備考":""}},
{"type":"Feature","geometry":{"type":"Point","coordinates":[135.1973800000,34.6949431000]},"properties":{"Name":"勤労会館","Jusho":"兵庫県神戸市中央区雲井通5-1-2","洪水":"◎","がけ崩れ、土石流及び地滑り":"◎","高潮":"","地震":"","津波":"◎","大規模な火事":"","内水氾濫":"","火山現象":"","指定避難所との重複":"◎","備考":""}},
{"type":"Feature","geometry":{"type":"Point","coordinates":[135.2017676000,34.6928637000]},"properties":{"Name":"こうべ市民福祉交流センター","Jusho":"兵庫県神戸市中央区磯上通3-1-32","洪水":"◎","がけ崩れ、土石流及び地滑り":"◎","高潮":"","地震":"","津波":"◎","大規模な火事":"","内水氾濫":"","火山現象":"","指定避難所との重複":"","備考":""}},
{"type":"Feature","geometry":{"type":"Point","coordinates":[135.1824700000,34.6935569000]},"properties":{"Name":"こうべ小学校","Jusho":"兵庫県神戸市中央区中山手通4-23-2","洪水":"◎","がけ崩れ、土石流及び地滑り":"◎","高潮":"","地震":"","津波":"◎","大規模な火事":"","内水氾濫":"","火山現象":"","指定避難所との重複":"◎","備考":""}},
{"type":"Feature","geometry":{"type":"Point","coordinates":[135.1846367000,34.6974231000]},"properties":{"Name":"海外移住と文化の交流センター","Jusho":"兵庫県神戸市中央区山本通3-19-8","洪水":"◎","がけ崩れ、土石流及び地滑り":"","高潮":"","地震":"","津波":"◎","大規模な火事":"","内水氾濫":"","火山現象":"","指定避難所との重複":"◎","備考":""}},
{"type":"Feature","geometry":{"type":"Point","coordinates":[135.1856644000,34.6899906000]},"properties":{"Name":"神戸生田中学校","Jusho":"兵庫県神戸市中央区北長狭通4-10-1","洪水":"◎","がけ崩れ、土石流及び地滑り":"◎","高潮":"","地震":"","津波":"◎","大規模な火事":"","内水氾濫":"","火山現象":"","指定避難所との重複":"◎","備考":""}},
{"type":"Feature","geometry":{"type":"Point","coordinates":[135.1757292000,34.6906489000]},"properties":{"Name":"山の手小学校","Jusho":"兵庫県神戸市中央区中山手通7-31-1","洪水":"◎","がけ崩れ、土石流及び地滑り":"◎","高潮":"","地震":"","津波":"◎","大規模な火事":"","内水氾濫":"","火山現象":"","指定避難所との重複":"◎","備考":""}},
{"type":"Feature","geometry":{"type":"Point","coordinates":[135.1741492000,34.6856249000]},"properties":{"Name":"中央図書館","Jusho":"兵庫県神戸市中央区楠町7-2-1","洪水":"◎","がけ崩れ、土石流及び地滑り":"◎","高潮":"","地震":"","津波":"◎","大規模な火事":"","内水氾濫":"","火山現象":"","指定避難所との重複":"◎","備考":""}},
{"type":"Feature","geometry":{"type":"Point","coordinates":[135.1716466000,34.6839972000]},"properties":{"Name":"湊翔楠中学校","Jusho":"兵庫県神戸市中央区楠町4-2-5","洪水":"◎","がけ崩れ、土石流及び地滑り":"◎","高潮":"","地震":"","津波":"◎","大規模な火事":"","内水氾濫":"","火山現象":"","指定避難所との重複":"◎","備考":""}},
{"type":"Feature","geometry":{"type":"Point","coordinates":[135.1744294000,34.6827886000]},"properties":{"Name":"中央体育館","Jusho":"兵庫県神戸市中央区楠町4-1-1","洪水":"◎","がけ崩れ、土石流及び地滑り":"◎","高潮":"","地震":"","津波":"◎","大規模な火事":"","内水氾濫":"","火山現象":"","指定避難所との重複":"◎","備考":""}},
{"type":"Feature","geometry":{"type":"Point","coordinates":[135.1808511000,34.6768975000]},"properties":{"Name":"湊小学校","Jusho":"兵庫県神戸市中央区東川崎町1-4-1","洪水":"◎","がけ崩れ、土石流及び地滑り":"◎","高潮":"","地震":"","津波":"","大規模な火事":"","内水氾濫":"","火山現象":"","指定避難所との重複":"◎","備考":""}},
{"type":"Feature","geometry":{"type":"Point","coordinates":[135.1817956000,34.6806028000]},"properties":{"Name":"産業振興センター","Jusho":"兵庫県神戸市中央区東川崎1-8-4","洪水":"◎","がけ崩れ、土石流及び地滑り":"◎","高潮":"","地震":"","津波":"◎","大規模な火事":"","内水氾濫":"","火山現象":"","指定避難所との重複":"","備考":""}},
{"type":"Feature","geometry":{"type":"Point","coordinates":[135.1829065000,34.6860973000]},"properties":{"Name":"こうべまちづくり会館","Jusho":"兵庫県神戸市中央区元町通4-2-14","洪水":"◎","がけ崩れ、土石流及び地滑り":"◎","高潮":"","地震":"","津波":"","大規模な火事":"","内水氾濫":"","火山現象":"","指定避難所との重複":"◎","備考":""}},
{"type":"Feature","geometry":{"type":"Point","coordinates":[135.2140986000,34.6696569000]},"properties":{"Name":"義務教育学校港島学園","Jusho":"兵庫県神戸市中央区港島中町3-2-2","洪水":"","がけ崩れ、土石流及び地滑り":"","高潮":"","地震":"","津波":"◎","大規模な火事":"","内水氾濫":"","火山現象":"","指定避難所との重複":"◎","備考":""}},
{"type":"Feature","geometry":{"type":"Point","coordinates":[135.2126072000,34.6637300000]},"properties":{"Name":"神戸国際展示場","Jusho":"兵庫県神戸市中央区港島中町6-11-1","洪水":"","がけ崩れ、土石流及び地滑り":"","高潮":"","地震":"","津波":"◎","大規模な火事":"","内水氾濫":"","火山現象":"","指定避難所との重複":"◎","備考":""}},
{"type":"Feature","geometry":{"type":"Point","coordinates":[135.2101714000,34.6639883000]},"properties":{"Name":"ワールド記念ホール","Jusho":"兵庫県神戸市中央区港島中町6-12-2","洪水":"","がけ崩れ、土石流及び地滑り":"","高潮":"","地震":"","津波":"◎","大規模な火事":"","内水氾濫":"","火山現象":"","指定避難所との重複":"◎","備考":""}},
{"type":"Feature","geometry":{"type":"Point","coordinates":[135.2107350000,34.6631078000]},"properties":{"Name":"ポートアイランドスポーツセンター","Jusho":"兵庫県神戸市中央区港島中町6-12-1","洪水":"","がけ崩れ、土石流及び地滑り":"","高潮":"","地震":"","津波":"◎","大規模な火事":"","内水氾濫":"","火山現象":"","指定避難所との重複":"◎","備考":""}},
{"type":"Feature","geometry":{"type":"Point","coordinates":[135.2182844000,34.6659964000]},"properties":{"Name":"バンドー神戸青少年科学館","Jusho":"兵庫県神戸市中央区港島中町7-7-6","洪水":"","がけ崩れ、土石流及び地滑り":"","高潮":"","地震":"","津波":"◎","大規模な火事":"","内水氾濫":"","火山現象":"","指定避難所との重複":"◎","備考":""}},
{"type":"Feature","geometry":{"type":"Point","coordinates":[135.2039939000,34.6694625000]},"properties":{"Name":"神戸学院大学","Jusho":"兵庫県神戸市中央区港島1-1-3","洪水":"","がけ崩れ、土石流及び地滑り":"","高潮":"","地震":"","津波":"◎","大規模な火事":"","内水氾濫":"","火山現象":"","指定避難所との重複":"◎","備考":""}},
{"type":"Feature","geometry":{"type":"Point","coordinates":[135.1669860000,34.6879110000]},"properties":{"Name":"神戸祇園小学校","Jusho":"兵庫県神戸市兵庫区下三条町11-1","洪水":"◎","がけ崩れ、土石流及び地滑り":"◎","高潮":"","地震":"","津波":"◎","大規模な火事":"","内水氾濫":"","火山現象":"","指定避難所との重複":"◎","備考":""}},
{"type":"Feature","geometry":{"type":"Point","coordinates":[135.1656770000,34.6893910000]},"properties":{"Name":"雪御所児童館","Jusho":"兵庫県神戸市兵庫区雪御所町1-8","洪水":"◎","がけ崩れ、土石流及び地滑り":"◎","高潮":"","地震":"","津波":"◎","大規模な火事":"","内水氾濫":"","火山現象":"","指定避難所との重複":"","備考":""}},
{"type":"Feature","geometry":{"type":"Point","coordinates":[135.1482163000,34.6984246000]},"properties":{"Name":"建設局中央水環境センター鈴蘭台処理場","Jusho":"兵庫県神戸市兵庫区烏原町字譲原","洪水":"◎","がけ崩れ、土石流及び地滑り":"","高潮":"","地震":"","津波":"◎","大規模な火事":"","内水氾濫":"","火山現象":"","指定避難所との重複":"◎","備考":""}},
{"type":"Feature","geometry":{"type":"Point","coordinates":[135.1603502000,34.6862663000]},"properties":{"Name":"友生支援学校","Jusho":"兵庫県神戸市兵庫区夢野町1-1-1","洪水":"◎","がけ崩れ、土石流及び地滑り":"◎","高潮":"","地震":"","津波":"◎","大規模な火事":"","内水氾濫":"","火山現象":"","指定避難所との重複":"◎","備考":""}},
{"type":"Feature","geometry":{"type":"Point","coordinates":[135.1530040000,34.6820730000]},"properties":{"Name":"夢野中学校","Jusho":"兵庫県神戸市兵庫区鵯越町10-1","洪水":"◎","がけ崩れ、土石流及び地滑り":"◎","高潮":"","地震":"","津波":"◎","大規模な火事":"","内水氾濫":"","火山現象":"","指定避難所との重複":"◎","備考":""}},
{"type":"Feature","geometry":{"type":"Point","coordinates":[135.1562126000,34.6835817000]},"properties":{"Name":"夢野こどもホーム（一階地域交流スペース）","Jusho":"兵庫県神戸市兵庫区夢野町4-3-13","洪水":"◎","がけ崩れ、土石流及び地滑り":"◎","高潮":"","地震":"","津波":"◎","大規模な火事":"","内水氾濫":"","火山現象":"","指定避難所との重複":"","備考":""}},
{"type":"Feature","geometry":{"type":"Point","coordinates":[135.1605583000,34.6816692000]},"properties":{"Name":"夢野の丘小学校","Jusho":"兵庫県神戸市兵庫区東山町4-20","洪水":"◎","がけ崩れ、土石流及び地滑り":"◎","高潮":"","地震":"","津波":"◎","大規模な火事":"","内水氾濫":"","火山現象":"","指定避難所との重複":"◎","備考":""}},
{"type":"Feature","geometry":{"type":"Point","coordinates":[135.1652133000,34.6792201000]},"properties":{"Name":"会下山小学校","Jusho":"兵庫県神戸市兵庫区上沢通1-3-26","洪水":"◎","がけ崩れ、土石流及び地滑り":"◎","高潮":"","地震":"","津波":"◎","大規模な火事":"","内水氾濫":"","火山現象":"","指定避難所との重複":"◎","備考":""}},
{"type":"Feature","geometry":{"type":"Point","coordinates":[135.1641303000,34.6799525000]},"properties":{"Name":"湊川中学校・楠高校","Jusho":"兵庫県神戸市兵庫区松本通1-1-1","洪水":"◎","がけ崩れ、土石流及び地滑り":"◎","高潮":"","地震":"","津波":"◎","大規模な火事":"","内水氾濫":"","火山現象":"","指定避難所との重複":"◎","備考":""}},
{"type":"Feature","geometry":{"type":"Point","coordinates":[135.1567640000,34.6752090000]},"properties":{"Name":"神港橘高等学校","Jusho":"兵庫県神戸市兵庫区会下山町3-16-1","洪水":"◎","がけ崩れ、土石流及び地滑り":"◎","高潮":"","地震":"","津波":"◎","大規模な火事":"","内水氾濫":"","火山現象":"","指定避難所との重複":"◎","備考":""}},
{"type":"Feature","geometry":{"type":"Point","coordinates":[135.1663192000,34.6736700000]},"properties":{"Name":"兵庫大開小学校","Jusho":"兵庫県神戸市兵庫区大開通4-1-39","洪水":"◎","がけ崩れ、土石流及び地滑り":"◎","高潮":"","地震":"","津波":"◎","大規模な火事":"","内水氾濫":"","火山現象":"","指定避難所との重複":"◎","備考":""}},
{"type":"Feature","geometry":{"type":"Point","coordinates":[135.1594761000,34.6703563000]},"properties":{"Name":"水木小学絞","Jusho":"兵庫県神戸市兵庫区水木通9-1-8","洪水":"◎","がけ崩れ、土石流及び地滑り":"◎","高潮":"","地震":"","津波":"◎","大規模な火事":"","内水氾濫":"","火山現象":"","指定避難所との重複":"◎","備考":""}},
{"type":"Feature","geometry":{"type":"Point","coordinates":[135.1699550000,34.6736533000]},"properties":{"Name":"兵庫中学校","Jusho":"兵庫県神戸市兵庫区永沢町4-3-36","洪水":"◎","がけ崩れ、土石流及び地滑り":"◎","高潮":"","地震":"","津波":"◎","大規模な火事":"","内水氾濫":"","火山現象":"","指定避難所との重複":"◎","備考":""}},
{"type":"Feature","geometry":{"type":"Point","coordinates":[135.1661081000,34.6651625000]},"properties":{"Name":"明親小学校","Jusho":"兵庫県神戸市兵庫区須佐野通4-1-19","洪水":"◎","がけ崩れ、土石流及び地滑り":"◎","高潮":"","地震":"","津波":"◎","大規模な火事":"","内水氾濫":"","火山現象":"","指定避難所との重複":"◎","備考":""}},
{"type":"Feature","geometry":{"type":"Point","coordinates":[135.1697442000,34.6644600000]},"properties":{"Name":"須佐野中学絞","Jusho":"兵庫県神戸市兵庫区松原通1-1-44","洪水":"◎","がけ崩れ、土石流及び地滑り":"◎","高潮":"","地震":"","津波":"◎","大規模な火事":"","内水氾濫":"","火山現象":"","指定避難所との重複":"◎","備考":""}},
{"type":"Feature","geometry":{"type":"Point","coordinates":[135.1754714000,34.6551500000]},"properties":{"Name":"和田岬小学校","Jusho":"兵庫県神戸市兵庫区和田宮通6-1-18","洪水":"◎","がけ崩れ、土石流及び地滑り":"◎","高潮":"","地震":"","津波":"","大規模な火事":"","内水氾濫":"","火山現象":"","指定避難所との重複":"◎","備考":""}},
{"type":"Feature","geometry":{"type":"Point","coordinates":[135.1737856000,34.6595550000]},"properties":{"Name":"兵庫工業高校","Jusho":"兵庫県神戸市兵庫区和田宮通2-1-63","洪水":"◎","がけ崩れ、土石流及び地滑り":"◎","高潮":"","地震":"","津波":"◎","大規模な火事":"","内水氾濫":"","火山現象":"","指定避難所との重複":"◎","備考":""}},
{"type":"Feature","geometry":{"type":"Point","coordinates":[135.1662009000,34.6577497000]},"properties":{"Name":"浜山小学校","Jusho":"兵庫県神戸市兵庫区材木町4-2","洪水":"◎","がけ崩れ、土石流及び地滑り":"◎","高潮":"","地震":"","津波":"◎","大規模な火事":"","内水氾濫":"","火山現象":"","指定避難所との重複":"◎","備考":""}},
{"type":"Feature","geometry":{"type":"Point","coordinates":[135.1711849000,34.6521824000]},"properties":{"Name":"吉田中学校","Jusho":"兵庫県神戸市兵庫区吉田町1-5-1","洪水":"◎","がけ崩れ、土石流及び地滑り":"◎","高潮":"","地震":"","津波":"","大規模な火事":"","内水氾濫":"","火山現象":"","指定避難所との重複":"◎","備考":""}},
{"type":"Feature","geometry":{"type":"Point","coordinates":[135.1409349000,34.6926209000]},"properties":{"Name":"高齢者ケアセンターひょうご","Jusho":"兵庫県神戸市兵庫区里山町1-48","洪水":"◎","がけ崩れ、土石流及び地滑り":"◎","高潮":"","地震":"","津波":"◎","大規模な火事":"","内水氾濫":"","火山現象":"","指定避難所との重複":"","備考":""}},
{"type":"Feature","geometry":{"type":"Point","coordinates":[135.1193950000,34.6940922000]},"properties":{"Name":"鵯台中学校","Jusho":"兵庫県神戸市北区ひよどり台1-15-31","洪水":"◎","がけ崩れ、土石流及び地滑り":"◎","高潮":"","地震":"","津波":"","大規模な火事":"","内水氾濫":"","火山現象":"","指定避難所との重複":"◎","備考":""}},
{"type":"Feature","geometry":{"type":"Point","coordinates":[135.1248861000,34.6978361000]},"properties":{"Name":"ひよどり台小学校","Jusho":"兵庫県神戸市北区ひよどり台3-3","洪水":"◎","がけ崩れ、土石流及び地滑り":"◎","高潮":"","地震":"","津波":"","大規模な火事":"","内水氾濫":"","火山現象":"","指定避難所との重複":"◎","備考":""}},
{"type":"Feature","geometry":{"type":"Point","coordinates":[135.1285742000,34.7191089000]},"properties":{"Name":"星和台中学校","Jusho":"兵庫県神戸市北区星和台1-6","洪水":"◎","がけ崩れ、土石流及び地滑り":"◎","高潮":"","地震":"","津波":"","大規模な火事":"","内水氾濫":"","火山現象":"","指定避難所との重複":"◎","備考":""}},
{"type":"Feature","geometry":{"type":"Point","coordinates":[135.1237550000,34.7238111000]},"properties":{"Name":"星和台小学校","Jusho":"兵庫県神戸市北区星和台6-21","洪水":"◎","がけ崩れ、土石流及び地滑り":"◎","高潮":"","地震":"","津波":"","大規模な火事":"","内水氾濫":"","火山現象":"","指定避難所との重複":"◎","備考":""}},
{"type":"Feature","geometry":{"type":"Point","coordinates":[135.1325319000,34.7293744000]},"properties":{"Name":"鈴蘭台中学校","Jusho":"兵庫県神戸市北区北五葉2-10-32","洪水":"◎","がけ崩れ、土石流及び地滑り":"◎","高潮":"","地震":"","津波":"","大規模な火事":"","内水氾濫":"","火山現象":"","指定避難所との重複":"◎","備考":""}},
{"type":"Feature","geometry":{"type":"Point","coordinates":[135.1364567000,34.7305658000]},"properties":{"Name":"北五葉小学校","Jusho":"兵庫県神戸市北区北五葉3-7-1","洪水":"◎","がけ崩れ、土石流及び地滑り":"◎","高潮":"","地震":"","津波":"","大規模な火事":"","内水氾濫":"","火山現象":"","指定避難所との重複":"◎","備考":""}},
{"type":"Feature","geometry":{"type":"Point","coordinates":[135.1159370000,34.7332880000]},"properties":{"Name":"藍那公民館","Jusho":"兵庫県神戸市北区山田町藍那字北ノ町1","洪水":"◎","がけ崩れ、土石流及び地滑り":"","高潮":"","地震":"","津波":"","大規模な火事":"","内水氾濫":"","火山現象":"","指定避難所との重複":"◎","備考":""}},
{"type":"Feature","geometry":{"type":"Point","coordinates":[135.1362431000,34.7143622000]},"properties":{"Name":"君影小学校","Jusho":"兵庫県神戸市北区君影町1-11-13","洪水":"◎","がけ崩れ、土石流及び地滑り":"◎","高潮":"","地震":"","津波":"","大規模な火事":"","内水氾濫":"","火山現象":"","指定避難所との重複":"◎","備考":""}},
{"type":"Feature","geometry":{"type":"Point","coordinates":[135.1335958000,34.7220808000]},"properties":{"Name":"南五葉小学校","Jusho":"兵庫県神戸市北区南五葉3-1-1","洪水":"◎","がけ崩れ、土石流及び地滑り":"◎","高潮":"","地震":"","津波":"","大規模な火事":"","内水氾濫":"","火山現象":"","指定避難所との重複":"◎","備考":""}},
{"type":"Feature","geometry":{"type":"Point","coordinates":[135.1409536000,34.7253611000]},"properties":{"Name":"鈴蘭台小学校","Jusho":"兵庫県神戸市北区鈴蘭台南町2-14-24","洪水":"◎","がけ崩れ、土石流及び地滑り":"◎","高潮":"","地震":"","津波":"","大規模な火事":"","内水氾濫":"","火山現象":"","指定避難所との重複":"◎","備考":""}},
{"type":"Feature","geometry":{"type":"Point","coordinates":[135.1531139000,34.7197425000]},"properties":{"Name":"神戸鈴蘭台高等学校","Jusho":"兵庫県神戸市北区山田町下谷上字中一里山9-107","洪水":"◎","がけ崩れ、土石流及び地滑り":"◎","高潮":"","地震":"","津波":"","大規模な火事":"","内水氾濫":"","火山現象":"","指定避難所との重複":"◎","備考":""}},
{"type":"Feature","geometry":{"type":"Point","coordinates":[135.1481373000,34.7296452000]},"properties":{"Name":"小部小学校","Jusho":"兵庫県神戸市北区鈴蘭台北町3-8-1","洪水":"◎","がけ崩れ、土石流及び地滑り":"◎","高潮":"","地震":"","津波":"","大規模な火事":"","内水氾濫":"","火山現象":"","指定避難所との重複":"◎","備考":""}},
{"type":"Feature","geometry":{"type":"Point","coordinates":[135.1552522000,34.7304383000]},"properties":{"Name":"小部中学校","Jusho":"兵庫県神戸市北区山田町小部字向井谷23-1","洪水":"◎","がけ崩れ、土石流及び地滑り":"◎","高潮":"","地震":"","津波":"","大規模な火事":"","内水氾濫":"","火山現象":"","指定避難所との重複":"◎","備考":""}},
{"type":"Feature","geometry":{"type":"Point","coordinates":[135.1570161000,34.7277472000]},"properties":{"Name":"小部東小学校","Jusho":"兵庫県神戸市北区鈴蘭台北町7-11-22","洪水":"◎","がけ崩れ、土石流及び地滑り":"◎","高潮":"","地震":"","津波":"","大規模な火事":"","内水氾濫":"","火山現象":"","指定避難所との重複":"◎","備考":""}},
{"type":"Feature","geometry":{"type":"Point","coordinates":[135.1374203000,34.7384094000]},"properties":{"Name":"泉台小学校","Jusho":"兵庫県神戸市北区泉台3-1-4","洪水":"◎","がけ崩れ、土石流及び地滑り":"◎","高潮":"","地震":"","津波":"","大規模な火事":"","内水氾濫":"","火山現象":"","指定避難所との重複":"◎","備考":""}},
{"type":"Feature","geometry":{"type":"Point","coordinates":[135.1544244000,34.7405872000]},"properties":{"Name":"桜の宮小学校","Jusho":"兵庫県神戸市北区若葉台1-3-15","洪水":"◎","がけ崩れ、土石流及び地滑り":"◎","高潮":"","地震":"","津波":"","大規模な火事":"","内水氾濫":"","火山現象":"","指定避難所との重複":"◎","備考":""}},
{"type":"Feature","geometry":{"type":"Point","coordinates":[135.1598575000,34.7381208000]},"properties":{"Name":"桜の宮中学校","Jusho":"兵庫県神戸市北区大脇台6-1","洪水":"◎","がけ崩れ、土石流及び地滑り":"◎","高潮":"","地震":"","津波":"","大規模な火事":"","内水氾濫":"","火山現象":"","指定避難所との重複":"◎","備考":""}},
{"type":"Feature","geometry":{"type":"Point","coordinates":[135.1439031000,34.7459253000]},"properties":{"Name":"大原中学校","Jusho":"兵庫県神戸市北区大原1-19","洪水":"◎","がけ崩れ、土石流及び地滑り":"◎","高潮":"","地震":"","津波":"","大規模な火事":"","内水氾濫":"","火山現象":"","指定避難所との重複":"◎","備考":""}},
{"type":"Feature","geometry":{"type":"Point","coordinates":[135.1457500000,34.7478194000]},"properties":{"Name":"桂木小学校","Jusho":"兵庫県神戸市北区桂木1-2-5","洪水":"◎","がけ崩れ、土石流及び地滑り":"◎","高潮":"","地震":"","津波":"","大規模な火事":"","内水氾濫":"","火山現象":"","指定避難所との重複":"◎","備考":""}},
{"type":"Feature","geometry":{"type":"Point","coordinates":[135.1501775000,34.7445700000]},"properties":{"Name":"甲緑小学校","Jusho":"兵庫県神戸市北区緑町7-12-10","洪水":"◎","がけ崩れ、土石流及び地滑り":"◎","高潮":"","地震":"","津波":"","大規模な火事":"","内水氾濫":"","火山現象":"","指定避難所との重複":"◎","備考":""}},
{"type":"Feature","geometry":{"type":"Point","coordinates":[135.1494689000,34.7582989000]},"properties":{"Name":"箕谷小学校","Jusho":"兵庫県神戸市北区松が枝町1-11","洪水":"◎","がけ崩れ、土石流及び地滑り":"◎","高潮":"","地震":"","津波":"","大規模な火事":"","内水氾濫":"","火山現象":"","指定避難所との重複":"◎","備考":""}},
{"type":"Feature","geometry":{"type":"Point","coordinates":[135.1652094000,34.7484919000]},"properties":{"Name":"広陵小学校","Jusho":"兵庫県神戸市北区筑紫が丘2-9-1","洪水":"◎","がけ崩れ、土石流及び地滑り":"◎","高潮":"","地震":"","津波":"","大規模な火事":"","内水氾濫":"","火山現象":"","指定避難所との重複":"◎","備考":""}},
{"type":"Feature","geometry":{"type":"Point","coordinates":[135.1698603000,34.7494190000]},"properties":{"Name":"広陵中学校","Jusho":"兵庫県神戸市北区小倉台5-1-1","洪水":"◎","がけ崩れ、土石流及び地滑り":"◎","高潮":"","地震":"","津波":"","大規模な火事":"","内水氾濫":"","火山現象":"","指定避難所との重複":"◎","備考":""}},
{"type":"Feature","geometry":{"type":"Point","coordinates":[135.1626847000,34.7442508000]},"properties":{"Name":"筑紫が丘小学校","Jusho":"兵庫県神戸市北区筑紫が丘3-4-1","洪水":"◎","がけ崩れ、土石流及び地滑り":"◎","高潮":"","地震":"","津波":"","大規模な火事":"","内水氾濫":"","火山現象":"","指定避難所との重複":"◎","備考":""}},
{"type":"Feature","geometry":{"type":"Point","coordinates":[135.1565600000,34.7631097000]},"properties":{"Name":"山田中学校","Jusho":"兵庫県神戸市北区山田町下谷上字宮前15","洪水":"◎","がけ崩れ、土石流及び地滑り":"◎","高潮":"","地震":"","津波":"","大規模な火事":"","内水氾濫":"","火山現象":"","指定避難所との重複":"◎","備考":""}},
{"type":"Feature","geometry":{"type":"Point","coordinates":[135.1695683000,34.7633560000]},"properties":{"Name":"谷上小学校","Jusho":"兵庫県神戸市北区山田町下谷上字中上16","洪水":"◎","がけ崩れ、土石流及び地滑り":"","高潮":"","地震":"","津波":"","大規模な火事":"","内水氾濫":"","火山現象":"","指定避難所との重複":"◎","備考":""}},
{"type":"Feature","geometry":{"type":"Point","coordinates":[135.1315793000,34.7655384000]},"properties":{"Name":"山田小学校","Jusho":"兵庫県神戸市北区山田町中字長尾サ1","洪水":"◎","がけ崩れ、土石流及び地滑り":"◎","高潮":"","地震":"","津波":"","大規模な火事":"","内水氾濫":"","火山現象":"","指定避難所との重複":"◎","備考":""}},
{"type":"Feature","geometry":{"type":"Point","coordinates":[135.1851184000,34.7652070000]},"properties":{"Name":"花山小学校","Jusho":"兵庫県神戸市北区花山東町3-1","洪水":"◎","がけ崩れ、土石流及び地滑り":"◎","高潮":"","地震":"","津波":"","大規模な火事":"","内水氾濫":"","火山現象":"","指定避難所との重複":"◎","備考":""}},
{"type":"Feature","geometry":{"type":"Point","coordinates":[135.1959735000,34.7722335000]},"properties":{"Name":"大池中学校","Jusho":"兵庫県神戸市北区西大池2-24-3","洪水":"◎","がけ崩れ、土石流及び地滑り":"◎","高潮":"","地震":"","津波":"","大規模な火事":"","内水氾濫":"","火山現象":"","指定避難所との重複":"◎","備考":""}},
{"type":"Feature","geometry":{"type":"Point","coordinates":[135.1985989000,34.7721855000]},"properties":{"Name":"大池小学校","Jusho":"兵庫県神戸市北区西大池2-24-1","洪水":"◎","がけ崩れ、土石流及び地滑り":"◎","高潮":"","地震":"","津波":"","大規模な火事":"","内水氾濫":"","火山現象":"","指定避難所との重複":"◎","備考":""}},
{"type":"Feature","geometry":{"type":"Point","coordinates":[135.2000142000,34.7794996000]},"properties":{"Name":"六甲が丘会館","Jusho":"兵庫県神戸市北区東大池1-5-8","洪水":"◎","がけ崩れ、土石流及び地滑り":"◎","高潮":"","地震":"","津波":"","大規模な火事":"","内水氾濫":"","火山現象":"","指定避難所との重複":"◎","備考":""}},
{"type":"Feature","geometry":{"type":"Point","coordinates":[135.2116828000,34.7849856000]},"properties":{"Name":"唐櫃中学校","Jusho":"兵庫県神戸市北区唐櫃台4-36-1","洪水":"◎","がけ崩れ、土石流及び地滑り":"◎","高潮":"","地震":"","津波":"","大規模な火事":"","内水氾濫":"","火山現象":"","指定避難所との重複":"◎","備考":""}},
{"type":"Feature","geometry":{"type":"Point","coordinates":[135.2140461000,34.7898350000]},"properties":{"Name":"唐櫃小学校","Jusho":"兵庫県神戸市北区唐櫃台2-39-1","洪水":"◎","がけ崩れ、土石流及び地滑り":"◎","高潮":"","地震":"","津波":"","大規模な火事":"","内水氾濫":"","火山現象":"","指定避難所との重複":"◎","備考":""}},
{"type":"Feature","geometry":{"type":"Point","coordinates":[135.2166767000,34.7884603000]},"properties":{"Name":"神戸北高等学校","Jusho":"兵庫県神戸市北区唐櫃台2-41-1","洪水":"◎","がけ崩れ、土石流及び地滑り":"◎","高潮":"","地震":"","津波":"","大規模な火事":"","内水氾濫":"","火山現象":"","指定避難所との重複":"◎","備考":""}},
{"type":"Feature","geometry":{"type":"Point","coordinates":[135.2484678000,34.8009372000]},"properties":{"Name":"有馬小学校","Jusho":"兵庫県神戸市北区有馬町1274","洪水":"◎","がけ崩れ、土石流及び地滑り":"◎","高潮":"","地震":"","津波":"","大規模な火事":"","内水氾濫":"","火山現象":"","指定避難所との重複":"◎","備考":""}},
{"type":"Feature","geometry":{"type":"Point","coordinates":[135.2153928000,34.8051587000]},"properties":{"Name":"五社ふれあい館","Jusho":"兵庫県神戸市北区有野町有野878-1","洪水":"◎","がけ崩れ、土石流及び地滑り":"◎","高潮":"","地震":"","津波":"","大規模な火事":"","内水氾濫":"","火山現象":"","指定避難所との重複":"◎","備考":""}},
{"type":"Feature","geometry":{"type":"Point","coordinates":[135.2264669000,34.8096414000]},"properties":{"Name":"有馬中学校","Jusho":"兵庫県神戸市北区有野台7-18","洪水":"◎","がけ崩れ、土石流及び地滑り":"◎","高潮":"","地震":"","津波":"","大規模な火事":"","内水氾濫":"","火山現象":"","指定避難所との重複":"◎","備考":""}},
{"type":"Feature","geometry":{"type":"Point","coordinates":[135.2256558000,34.8123106000]},"properties":{"Name":"有野台小学校","Jusho":"兵庫県神戸市北区有野台2-8","洪水":"◎","がけ崩れ、土石流及び地滑り":"◎","高潮":"","地震":"","津波":"","大規模な火事":"","内水氾濫":"","火山現象":"","指定避難所との重複":"◎","備考":""}},
{"type":"Feature","geometry":{"type":"Point","coordinates":[135.2298719000,34.8137606000]},"properties":{"Name":"有野東小学校","Jusho":"兵庫県神戸市北区有野台5-2","洪水":"◎","がけ崩れ、土石流及び地滑り":"◎","高潮":"","地震":"","津波":"","大規模な火事":"","内水氾濫":"","火山現象":"","指定避難所との重複":"◎","備考":""}},
{"type":"Feature","geometry":{"type":"Point","coordinates":[135.2081294000,34.8128017000]},"properties":{"Name":"藤原台小学校","Jusho":"兵庫県神戸市北区藤原台南町1-13-1","洪水":"◎","がけ崩れ、土石流及び地滑り":"◎","高潮":"","地震":"","津波":"","大規模な火事":"","内水氾濫":"","火山現象":"","指定避難所との重複":"◎","備考":""}},
{"type":"Feature","geometry":{"type":"Point","coordinates":[135.2178647000,34.8206678000]},"properties":{"Name":"有野小学校","Jusho":"兵庫県神戸市北区藤原台中町3-17-1","洪水":"◎","がけ崩れ、土石流及び地滑り":"◎","高潮":"","地震":"","津波":"","大規模な火事":"","内水氾濫":"","火山現象":"","指定避難所との重複":"◎","備考":""}},
{"type":"Feature","geometry":{"type":"Point","coordinates":[135.2141150000,34.8220619000]},"properties":{"Name":"有野中学校","Jusho":"兵庫県神戸市北区藤原台中町5-2-1","洪水":"◎","がけ崩れ、土石流及び地滑り":"◎","高潮":"","地震":"","津波":"","大規模な火事":"","内水氾濫":"","火山現象":"","指定避難所との重複":"◎","備考":""}},
{"type":"Feature","geometry":{"type":"Point","coordinates":[135.2231308000,34.8297614000]},"properties":{"Name":"有野北中学校","Jusho":"兵庫県神戸市北区藤原台北町6-4-1","洪水":"◎","がけ崩れ、土石流及び地滑り":"◎","高潮":"","地震":"","津波":"","大規模な火事":"","内水氾濫":"","火山現象":"","指定避難所との重複":"◎","備考":""}},
{"type":"Feature","geometry":{"type":"Point","coordinates":[135.2261756000,34.8266315000]},"properties":{"Name":"ＪＡ兵庫六甲（神戸北文化センター）","Jusho":"兵庫県神戸市北区有野中町2-12-13","洪水":"◎","がけ崩れ、土石流及び地滑り":"◎","高潮":"","地震":"","津波":"","大規模な火事":"","内水氾濫":"","火山現象":"","指定避難所との重複":"◎","備考":""}},
{"type":"Feature","geometry":{"type":"Point","coordinates":[135.2182786000,34.8388828000]},"properties":{"Name":"西山小学校","Jusho":"兵庫県神戸市北区西山1-67","洪水":"◎","がけ崩れ、土石流及び地滑り":"◎","高潮":"","地震":"","津波":"","大規模な火事":"","内水氾濫":"","火山現象":"","指定避難所との重複":"◎","備考":""}},
{"type":"Feature","geometry":{"type":"Point","coordinates":[135.2270181000,34.8379940000]},"properties":{"Name":"西二郎集会所","Jusho":"兵庫県神戸市北区有野町有野3556-1","洪水":"◎","がけ崩れ、土石流及び地滑り":"◎","高潮":"","地震":"","津波":"","大規模な火事":"","内水氾濫":"","火山現象":"","指定避難所との重複":"◎","備考":""}},
{"type":"Feature","geometry":{"type":"Point","coordinates":[135.2324853700,34.8695656300]},"properties":{"Name":"道場小学校","Jusho":"兵庫県神戸市北区道場町塩田1460","洪水":"","がけ崩れ、土石流及び地滑り":"◎","高潮":"","地震":"","津波":"","大規模な火事":"","内水氾濫":"","火山現象":"","指定避難所との重複":"◎","備考":""}},
{"type":"Feature","geometry":{"type":"Point","coordinates":[135.2509650000,34.8662920000]},"properties":{"Name":"生野自治会館","Jusho":"兵庫県神戸市北区道場町生野285","洪水":"◎","がけ崩れ、土石流及び地滑り":"◎","高潮":"","地震":"","津波":"","大規模な火事":"","内水氾濫":"","火山現象":"","指定避難所との重複":"◎","備考":""}},
{"type":"Feature","geometry":{"type":"Point","coordinates":[135.2390834000,34.8514614000]},"properties":{"Name":"平田自治会館","Jusho":"兵庫県神戸市北区道場町平田553","洪水":"◎","がけ崩れ、土石流及び地滑り":"◎","高潮":"","地震":"","津波":"","大規模な火事":"","内水氾濫":"","火山現象":"","指定避難所との重複":"◎","備考":""}},
{"type":"Feature","geometry":{"type":"Point","coordinates":[135.2731905000,34.8511135000]},"properties":{"Name":"生野高原安心コミュニティプラザ","Jusho":"兵庫県神戸市北区道場町生野1172-1022","洪水":"◎","がけ崩れ、土石流及び地滑り":"◎","高潮":"","地震":"","津波":"","大規模な火事":"","内水氾濫":"","火山現象":"","指定避難所との重複":"◎","備考":""}},
{"type":"Feature","geometry":{"type":"Point","coordinates":[135.1956558000,34.8225998000]},"properties":{"Name":"八多小・中学校","Jusho":"兵庫県神戸市北区八多町附物876","洪水":"◎","がけ崩れ、土石流及び地滑り":"◎","高潮":"","地震":"","津波":"","大規模な火事":"","内水氾濫":"","火山現象":"","指定避難所との重複":"◎","備考":""}},
{"type":"Feature","geometry":{"type":"Point","coordinates":[135.2166070000,34.8493620000]},"properties":{"Name":"中公民館","Jusho":"兵庫県神戸市北区八多町中1177","洪水":"◎","がけ崩れ、土石流及び地滑り":"◎","高潮":"","地震":"","津波":"","大規模な火事":"","内水氾濫":"","火山現象":"","指定避難所との重複":"◎","備考":""}},
{"type":"Feature","geometry":{"type":"Point","coordinates":[135.1651806000,34.8550778000]},"properties":{"Name":"大沢小・中学校","Jusho":"兵庫県神戸市北区大沢町中大沢976","洪水":"◎","がけ崩れ、土石流及び地滑り":"◎","高潮":"","地震":"","津波":"","大規模な火事":"","内水氾濫":"","火山現象":"","指定避難所との重複":"◎","備考":""}},
{"type":"Feature","geometry":{"type":"Point","coordinates":[135.1836861000,34.8488791000]},"properties":{"Name":"上大沢ふれあい会館","Jusho":"兵庫県神戸市北区大沢町上大沢3080","洪水":"◎","がけ崩れ、土石流及び地滑り":"◎","高潮":"","地震":"","津波":"","大規模な火事":"","内水氾濫":"","火山現象":"","指定避難所との重複":"◎","備考":""}},
{"type":"Feature","geometry":{"type":"Point","coordinates":[135.1944764000,34.8657092000]},"properties":{"Name":"長尾小学校","Jusho":"兵庫県神戸市北区上津台3-4-1","洪水":"◎","がけ崩れ、土石流及び地滑り":"◎","高潮":"","地震":"","津波":"","大規模な火事":"","内水氾濫":"","火山現象":"","指定避難所との重複":"◎","備考":""}},
{"type":"Feature","geometry":{"type":"Point","coordinates":[135.1733832000,34.8836095000]},"properties":{"Name":"岩谷公会堂","Jusho":"兵庫県神戸市北区長尾町上津4604","洪水":"◎","がけ崩れ、土石流及び地滑り":"◎","高潮":"","地震":"","津波":"","大規模な火事":"","内水氾濫":"","火山現象":"","指定避難所との重複":"◎","備考":""}},
{"type":"Feature","geometry":{"type":"Point","coordinates":[135.2183289000,34.8610031000]},"properties":{"Name":"鹿の子台小学校","Jusho":"兵庫県神戸市北区鹿の子台北町6-34-1","洪水":"◎","がけ崩れ、土石流及び地滑り":"◎","高潮":"","地震":"","津波":"","大規模な火事":"","内水氾濫":"","火山現象":"","指定避難所との重複":"◎","備考":""}},
{"type":"Feature","geometry":{"type":"Point","coordinates":[135.2228700000,34.8629167000]},"properties":{"Name":"北神戸中学校","Jusho":"兵庫県神戸市北区鹿の子台北町2-8-1","洪水":"◎","がけ崩れ、土石流及び地滑り":"◎","高潮":"","地震":"","津波":"","大規模な火事":"","内水氾濫":"","火山現象":"","指定避難所との重複":"◎","備考":""}},
{"type":"Feature","geometry":{"type":"Point","coordinates":[135.1501956000,34.8224556000]},"properties":{"Name":"好徳小学校","Jusho":"兵庫県神戸市北区淡河町野瀬487","洪水":"◎","がけ崩れ、土石流及び地滑り":"◎","高潮":"","地震":"","津波":"","大規模な火事":"","内水氾濫":"","火山現象":"","指定避難所との重複":"◎","備考":""}},
{"type":"Feature","geometry":{"type":"Point","coordinates":[135.1240617000,34.8195472000]},"properties":{"Name":"淡河中学校","Jusho":"兵庫県神戸市北区淡河町行原字中沢179-2","洪水":"◎","がけ崩れ、土石流及び地滑り":"◎","高潮":"","地震":"","津波":"","大規模な火事":"","内水氾濫":"","火山現象":"","指定避難所との重複":"◎","備考":""}},
{"type":"Feature","geometry":{"type":"Point","coordinates":[135.1021525000,34.8163308000]},"properties":{"Name":"淡河小学校","Jusho":"兵庫県神戸市北区淡河町萩原524","洪水":"◎","がけ崩れ、土石流及び地滑り":"◎","高潮":"","地震":"","津波":"","大規模な火事":"","内水氾濫":"","火山現象":"","指定避難所との重複":"◎","備考":""}},
{"type":"Feature","geometry":{"type":"Point","coordinates":[135.1543644000,34.6734728000]},"properties":{"Name":"室内小学校","Jusho":"兵庫県神戸市長田区前原町1-17-1","洪水":"◎","がけ崩れ、土石流及び地滑り":"◎","高潮":"","地震":"","津波":"◎","大規模な火事":"","内水氾濫":"","火山現象":"","指定避難所との重複":"◎","備考":""}},
{"type":"Feature","geometry":{"type":"Point","coordinates":[135.1545541000,34.6697571000]},"properties":{"Name":"長田公民館","Jusho":"兵庫県神戸市長田区四番町4-51","洪水":"◎","がけ崩れ、土石流及び地滑り":"◎","高潮":"","地震":"","津波":"◎","大規模な火事":"","内水氾濫":"","火山現象":"","指定避難所との重複":"◎","備考":""}},
{"type":"Feature","geometry":{"type":"Point","coordinates":[135.1534672000,34.6770833000]},"properties":{"Name":"夢野台高校","Jusho":"兵庫県神戸市長田区房王寺町2-1-1","洪水":"◎","がけ崩れ、土石流及び地滑り":"◎","高潮":"","地震":"","津波":"◎","大規模な火事":"","内水氾濫":"","火山現象":"","指定避難所との重複":"◎","備考":""}},
{"type":"Feature","geometry":{"type":"Point","coordinates":[135.1479261000,34.6799497000]},"properties":{"Name":"名倉小学校","Jusho":"兵庫県神戸市長田区房王寺町4-7-15","洪水":"◎","がけ崩れ、土石流及び地滑り":"◎","高潮":"","地震":"","津波":"◎","大規模な火事":"","内水氾濫":"","火山現象":"","指定避難所との重複":"◎","備考":""}},
{"type":"Feature","geometry":{"type":"Point","coordinates":[135.1487342000,34.6780025000]},"properties":{"Name":"丸山中学校","Jusho":"兵庫県神戸市長田区大丸町2-17-1","洪水":"◎","がけ崩れ、土石流及び地滑り":"◎","高潮":"","地震":"","津波":"◎","大規模な火事":"","内水氾濫":"","火山現象":"","指定避難所との重複":"◎","備考":""}},
{"type":"Feature","geometry":{"type":"Point","coordinates":[135.1343131000,34.6915231000]},"properties":{"Name":"雲雀丘中学校","Jusho":"兵庫県神戸市長田区雲雀ヶ丘1-1-1","洪水":"◎","がけ崩れ、土石流及び地滑り":"◎","高潮":"","地震":"","津波":"◎","大規模な火事":"","内水氾濫":"","火山現象":"","指定避難所との重複":"◎","備考":""}},
{"type":"Feature","geometry":{"type":"Point","coordinates":[135.1375906000,34.6864350000]},"properties":{"Name":"丸山ひばり小学校","Jusho":"兵庫県神戸市長田区西丸山町3-2-1","洪水":"◎","がけ崩れ、土石流及び地滑り":"◎","高潮":"","地震":"","津波":"◎","大規模な火事":"","内水氾濫":"","火山現象":"","指定避難所との重複":"◎","備考":""}},
{"type":"Feature","geometry":{"type":"Point","coordinates":[135.1400806000,34.6833695000]},"properties":{"Name":"総合療育センター","Jusho":"兵庫県神戸市長田区丸山町2-3-50","洪水":"◎","がけ崩れ、土石流及び地滑り":"◎","高潮":"","地震":"","津波":"◎","大規模な火事":"","内水氾濫":"","火山現象":"","指定避難所との重複":"◎","備考":""}},
{"type":"Feature","geometry":{"type":"Point","coordinates":[135.1409072000,34.6859910000]},"properties":{"Name":"丸山コミュニティ・センター","Jusho":"兵庫県神戸市長田区西丸山町1-7-5","洪水":"◎","がけ崩れ、土石流及び地滑り":"◎","高潮":"","地震":"","津波":"◎","大規模な火事":"","内水氾濫":"","火山現象":"","指定避難所との重複":"◎","備考":""}},
{"type":"Feature","geometry":{"type":"Point","coordinates":[135.1472888000,34.6722262000]},"properties":{"Name":"宮川小学校","Jusho":"兵庫県神戸市長田区長田町4-1-1","洪水":"◎","がけ崩れ、土石流及び地滑り":"◎","高潮":"","地震":"","津波":"◎","大規模な火事":"","内水氾濫":"","火山現象":"","指定避難所との重複":"◎","備考":""}},
{"type":"Feature","geometry":{"type":"Point","coordinates":[135.1449296000,34.6678811000]},"properties":{"Name":"池田小学校","Jusho":"兵庫県神戸市長田区池田上町19","洪水":"◎","がけ崩れ、土石流及び地滑り":"◎","高潮":"","地震":"","津波":"◎","大規模な火事":"","内水氾濫":"","火山現象":"","指定避難所との重複":"◎","備考":""}},
{"type":"Feature","geometry":{"type":"Point","coordinates":[135.1396686000,34.6681814000]},"properties":{"Name":"西代中学校","Jusho":"兵庫県神戸市長田区上池田2-4-1","洪水":"◎","がけ崩れ、土石流及び地滑り":"","高潮":"","地震":"","津波":"◎","大規模な火事":"","内水氾濫":"","火山現象":"","指定避難所との重複":"◎","備考":""}},
{"type":"Feature","geometry":{"type":"Point","coordinates":[135.1435322000,34.6702422000]},"properties":{"Name":"長田高校","Jusho":"兵庫県神戸市長田区池田谷町2-5","洪水":"◎","がけ崩れ、土石流及び地滑り":"◎","高潮":"","地震":"","津波":"◎","大規模な火事":"","内水氾濫":"","火山現象":"","指定避難所との重複":"◎","備考":""}},
{"type":"Feature","geometry":{"type":"Point","coordinates":[135.1432128000,34.6624350000]},"properties":{"Name":"蓮池小学校","Jusho":"兵庫県神戸市長田区大谷町1-1-10","洪水":"◎","がけ崩れ、土石流及び地滑り":"◎","高潮":"","地震":"","津波":"◎","大規模な火事":"","内水氾濫":"","火山現象":"","指定避難所との重複":"◎","備考":""}},
{"type":"Feature","geometry":{"type":"Point","coordinates":[135.1411825000,34.6654958000]},"properties":{"Name":"神戸常盤大学","Jusho":"兵庫県神戸市長田区大谷町2-6-2","洪水":"◎","がけ崩れ、土石流及び地滑り":"◎","高潮":"","地震":"","津波":"◎","大規模な火事":"","内水氾濫":"","火山現象":"","指定避難所との重複":"◎","備考":""}},
{"type":"Feature","geometry":{"type":"Point","coordinates":[135.1428822000,34.6725142000]},"properties":{"Name":"長田小学校","Jusho":"兵庫県神戸市長田区西山町2-4-1","洪水":"◎","がけ崩れ、土石流及び地滑り":"◎","高潮":"","地震":"","津波":"◎","大規模な火事":"","内水氾濫":"","火山現象":"","指定避難所との重複":"◎","備考":""}},
{"type":"Feature","geometry":{"type":"Point","coordinates":[135.1372353000,34.6713811000]},"properties":{"Name":"高取台中学校","Jusho":"兵庫県神戸市長田区高取山町1-1-1","洪水":"◎","がけ崩れ、土石流及び地滑り":"◎","高潮":"","地震":"","津波":"◎","大規模な火事":"","内水氾濫":"","火山現象":"","指定避難所との重複":"◎","備考":""}},
{"type":"Feature","geometry":{"type":"Point","coordinates":[135.1348078000,34.6684842000]},"properties":{"Name":"育英高校","Jusho":"兵庫県神戸市長田区長尾町2-1-15","洪水":"◎","がけ崩れ、土石流及び地滑り":"","高潮":"","地震":"","津波":"◎","大規模な火事":"","内水氾濫":"","火山現象":"","指定避難所との重複":"◎","備考":""}},
{"type":"Feature","geometry":{"type":"Point","coordinates":[135.1363515000,34.6660659000]},"properties":{"Name":"五位の池小学校","Jusho":"兵庫県神戸市長田区五位ノ池町2-3-1","洪水":"◎","がけ崩れ、土石流及び地滑り":"◎","高潮":"","地震":"","津波":"◎","大規模な火事":"","内水氾濫":"","火山現象":"","指定避難所との重複":"◎","備考":""}},
{"type":"Feature","geometry":{"type":"Point","coordinates":[135.1550417662,34.6663688046]},"properties":{"Name":"御蔵小学校","Jusho":"兵庫県神戸市長田区一番町4-1","洪水":"◎","がけ崩れ、土石流及び地滑り":"◎","高潮":"","地震":"","津波":"◎","大規模な火事":"","内水氾濫":"","火山現象":"","指定避難所との重複":"◎","備考":""}},
{"type":"Feature","geometry":{"type":"Point","coordinates":[135.1540769000,34.6570313000]},"properties":{"Name":"真野小学校","Jusho":"兵庫県神戸市長田区苅藻通3-4-32","洪水":"◎","がけ崩れ、土石流及び地滑り":"◎","高潮":"","地震":"","津波":"◎","大規模な火事":"","内水氾濫":"","火山現象":"","指定避難所との重複":"◎","備考":""}},
{"type":"Feature","geometry":{"type":"Point","coordinates":[135.1531092000,34.6614128000]},"properties":{"Name":"長田中学校","Jusho":"兵庫県神戸市長田区真野町8-1","洪水":"◎","がけ崩れ、土石流及び地滑り":"◎","高潮":"","地震":"","津波":"◎","大規模な火事":"","内水氾濫":"","火山現象":"","指定避難所との重複":"◎","備考":""}},
{"type":"Feature","geometry":{"type":"Point","coordinates":[135.1498543000,34.6618374000]},"properties":{"Name":"長田南小学校","Jusho":"兵庫県神戸市長田区神楽町1-3-1","洪水":"◎","がけ崩れ、土石流及び地滑り":"◎","高潮":"","地震":"","津波":"◎","大規模な火事":"","内水氾濫":"","火山現象":"","指定避難所との重複":"◎","備考":""}},
{"type":"Feature","geometry":{"type":"Point","coordinates":[135.1434603000,34.6551358000]},"properties":{"Name":"駒ヶ林中学校","Jusho":"兵庫県神戸市長田区若松町7-1-23","洪水":"◎","がけ崩れ、土石流及び地滑り":"◎","高潮":"","地震":"","津波":"◎","大規模な火事":"","内水氾濫":"","火山現象":"","指定避難所との重複":"◎","備考":""}},
{"type":"Feature","geometry":{"type":"Point","coordinates":[135.1512872000,34.6555025000]},"properties":{"Name":"真陽小学校","Jusho":"兵庫県神戸市長田区二葉町1-5-5","洪水":"◎","がけ崩れ、土石流及び地滑り":"◎","高潮":"","地震":"","津波":"◎","大規模な火事":"","内水氾濫":"","火山現象":"","指定避難所との重複":"◎","備考":""}},
{"type":"Feature","geometry":{"type":"Point","coordinates":[135.1462610000,34.6517707000]},"properties":{"Name":"ふたば学舎（地域人材支援センター）","Jusho":"兵庫県神戸市長田区二葉町7-1-18","洪水":"◎","がけ崩れ、土石流及び地滑り":"◎","高潮":"","地震":"","津波":"◎","大規模な火事":"","内水氾濫":"","火山現象":"","指定避難所との重複":"◎","備考":""}},
{"type":"Feature","geometry":{"type":"Point","coordinates":[135.1414645000,34.6500314000]},"properties":{"Name":"駒ケ林小学校","Jusho":"兵庫県神戸市長田区野田町6-1-16","洪水":"◎","がけ崩れ、土石流及び地滑り":"◎","高潮":"","地震":"","津波":"◎","大規模な火事":"","内水氾濫":"","火山現象":"","指定避難所との重複":"◎","備考":""}},
{"type":"Feature","geometry":{"type":"Point","coordinates":[135.1314996000,34.6463436000]},"properties":{"Name":"若宮小学校","Jusho":"兵庫県神戸市須磨区若宮町2-1-21","洪水":"◎","がけ崩れ、土石流及び地滑り":"◎","高潮":"","地震":"","津波":"◎","大規模な火事":"","内水氾濫":"","火山現象":"","指定避難所との重複":"◎","備考":""}},
{"type":"Feature","geometry":{"type":"Point","coordinates":[135.1326031000,34.6479475000]},"properties":{"Name":"鷹取中学校","Jusho":"兵庫県神戸市須磨区青葉町3-1-1","洪水":"","がけ崩れ、土石流及び地滑り":"◎","高潮":"","地震":"","津波":"◎","大規模な火事":"","内水氾濫":"","火山現象":"","指定避難所との重複":"◎","備考":""}},
{"type":"Feature","geometry":{"type":"Point","coordinates":[135.1333241000,34.6488167000]},"properties":{"Name":"南須磨公民館","Jusho":"兵庫県神戸市須磨区青葉町2-2-3","洪水":"◎","がけ崩れ、土石流及び地滑り":"◎","高潮":"","地震":"","津波":"◎","大規模な火事":"","内水氾濫":"","火山現象":"","指定避難所との重複":"◎","備考":""}},
{"type":"Feature","geometry":{"type":"Point","coordinates":[135.1204206000,34.6466586000]},"properties":{"Name":"西須磨小学校","Jusho":"兵庫県神戸市須磨区行幸町3-4-18","洪水":"◎","がけ崩れ、土石流及び地滑り":"◎","高潮":"","地震":"","津波":"◎","大規模な火事":"","内水氾濫":"","火山現象":"","指定避難所との重複":"◎","備考":""}},
{"type":"Feature","geometry":{"type":"Point","coordinates":[135.1060922000,34.6411794000]},"properties":{"Name":"須磨一の谷プラザ","Jusho":"兵庫県神戸市須磨区一ノ谷町5-2-1","洪水":"◎","がけ崩れ、土石流及び地滑り":"◎","高潮":"","地震":"","津波":"◎","大規模な火事":"","内水氾濫":"","火山現象":"","指定避難所との重複":"◎","備考":""}},
{"type":"Feature","geometry":{"type":"Point","coordinates":[135.1152711000,34.6526467000]},"properties":{"Name":"北須磨小学校","Jusho":"兵庫県神戸市須磨区離宮西町2-1-1","洪水":"◎","がけ崩れ、土石流及び地滑り":"◎","高潮":"","地震":"","津波":"◎","大規模な火事":"","内水氾濫":"","火山現象":"","指定避難所との重複":"◎","備考":""}},
{"type":"Feature","geometry":{"type":"Point","coordinates":[135.1342833000,34.6542553000]},"properties":{"Name":"だいち小学校","Jusho":"兵庫県神戸市須磨区大池町5-1-52","洪水":"◎","がけ崩れ、土石流及び地滑り":"◎","高潮":"","地震":"","津波":"◎","大規模な火事":"","内水氾濫":"","火山現象":"","指定避難所との重複":"◎","備考":""}},
{"type":"Feature","geometry":{"type":"Point","coordinates":[135.1329026000,34.6576629000]},"properties":{"Name":"太田中学校","Jusho":"兵庫県神戸市須磨区大黒町5-1-1","洪水":"◎","がけ崩れ、土石流及び地滑り":"◎","高潮":"","地震":"","津波":"◎","大規模な火事":"","内水氾濫":"","火山現象":"","指定避難所との重複":"◎","備考":""}},
{"type":"Feature","geometry":{"type":"Point","coordinates":[135.1276478000,34.6548050000]},"properties":{"Name":"東須磨小学校","Jusho":"兵庫県神戸市須磨区堀池町1-2-1","洪水":"◎","がけ崩れ、土石流及び地滑り":"◎","高潮":"","地震":"","津波":"◎","大規模な火事":"","内水氾濫":"","火山現象":"","指定避難所との重複":"◎","備考":""}},
{"type":"Feature","geometry":{"type":"Point","coordinates":[135.1289669000,34.6507528000]},"properties":{"Name":"須磨体育館","Jusho":"兵庫県神戸市須磨区中島町1-2-2","洪水":"◎","がけ崩れ、土石流及び地滑り":"◎","高潮":"","地震":"","津波":"◎","大規模な火事":"","内水氾濫":"","火山現象":"","指定避難所との重複":"◎","備考":""}},
{"type":"Feature","geometry":{"type":"Point","coordinates":[135.1257339000,34.6582739000]},"properties":{"Name":"飛松中学校","Jusho":"兵庫県神戸市須磨区大手町8-4-25","洪水":"◎","がけ崩れ、土石流及び地滑り":"◎","高潮":"","地震":"","津波":"◎","大規模な火事":"","内水氾濫":"","火山現象":"","指定避難所との重複":"◎","備考":""}},
{"type":"Feature","geometry":{"type":"Point","coordinates":[135.1041192000,34.6562628000]},"properties":{"Name":"高倉台小学校","Jusho":"兵庫県神戸市須磨区高倉台4-1-1","洪水":"◎","がけ崩れ、土石流及び地滑り":"◎","高潮":"","地震":"","津波":"◎","大規模な火事":"","内水氾濫":"","火山現象":"","指定避難所との重複":"◎","備考":""}},
{"type":"Feature","geometry":{"type":"Point","coordinates":[135.1074356000,34.6536575000]},"properties":{"Name":"高倉中学校","Jusho":"兵庫県神戸市須磨区高倉台1-8-1","洪水":"◎","がけ崩れ、土石流及び地滑り":"◎","高潮":"","地震":"","津波":"◎","大規模な火事":"","内水氾濫":"","火山現象":"","指定避難所との重複":"◎","備考":""}},
{"type":"Feature","geometry":{"type":"Point","coordinates":[135.1331303000,34.6630653000]},"properties":{"Name":"板宿小学校","Jusho":"兵庫県神戸市須磨区菊池町1-1-1","洪水":"◎","がけ崩れ、土石流及び地滑り":"◎","高潮":"","地震":"","津波":"◎","大規模な火事":"","内水氾濫":"","火山現象":"","指定避難所との重複":"◎","備考":""}},
{"type":"Feature","geometry":{"type":"Point","coordinates":[135.0943419000,34.6688778000]},"properties":{"Name":"多井畑小学校","Jusho":"兵庫県神戸市須磨区友が丘3-106","洪水":"◎","がけ崩れ、土石流及び地滑り":"◎","高潮":"","地震":"","津波":"◎","大規模な火事":"","内水氾濫":"","火山現象":"","指定避難所との重複":"◎","備考":""}},
{"type":"Feature","geometry":{"type":"Point","coordinates":[135.0994969000,34.6731275000]},"properties":{"Name":"友が丘中学校","Jusho":"兵庫県神戸市須磨区友が丘7-283-1","洪水":"◎","がけ崩れ、土石流及び地滑り":"◎","高潮":"","地震":"","津波":"◎","大規模な火事":"","内水氾濫":"","火山現象":"","指定避難所との重複":"◎","備考":""}},
{"type":"Feature","geometry":{"type":"Point","coordinates":[135.0931745000,34.6608772000]},"properties":{"Name":"多井畑自治会館","Jusho":"兵庫県神戸市須磨区多井畑字東所22","洪水":"◎","がけ崩れ、土石流及び地滑り":"◎","高潮":"","地震":"","津波":"◎","大規模な火事":"","内水氾濫":"","火山現象":"","指定避難所との重複":"◎","備考":""}},
{"type":"Feature","geometry":{"type":"Point","coordinates":[135.1115681000,34.6704253000]},"properties":{"Name":"横尾小学校","Jusho":"兵庫県神戸市須磨区横尾5-3","洪水":"◎","がけ崩れ、土石流及び地滑り":"◎","高潮":"","地震":"","津波":"◎","大規模な火事":"","内水氾濫":"","火山現象":"","指定避難所との重複":"◎","備考":""}},
{"type":"Feature","geometry":{"type":"Point","coordinates":[135.1157451000,34.6728241000]},"properties":{"Name":"横尾中学校","Jusho":"兵庫県神戸市須磨区横尾2-1-2","洪水":"◎","がけ崩れ、土石流及び地滑り":"◎","高潮":"","地震":"","津波":"◎","大規模な火事":"","内水氾濫":"","火山現象":"","指定避難所との重複":"◎","備考":""}},
{"type":"Feature","geometry":{"type":"Point","coordinates":[135.1172147000,34.6760865000]},"properties":{"Name":"妙法寺小学校","Jusho":"兵庫県神戸市須磨区妙法寺字桜界地106-1","洪水":"◎","がけ崩れ、土石流及び地滑り":"◎","高潮":"","地震":"","津波":"◎","大規模な火事":"","内水氾濫":"","火山現象":"","指定避難所との重複":"◎","備考":""}},
{"type":"Feature","geometry":{"type":"Point","coordinates":[135.1162619000,34.6820128000]},"properties":{"Name":"神戸星城高校","Jusho":"兵庫県神戸市須磨区緑ヶ丘1-12-1","洪水":"◎","がけ崩れ、土石流及び地滑り":"◎","高潮":"","地震":"","津波":"◎","大規模な火事":"","内水氾濫":"","火山現象":"","指定避難所との重複":"◎","備考":""}},
{"type":"Feature","geometry":{"type":"Point","coordinates":[135.1014661000,34.6763078000]},"properties":{"Name":"南落合小学校","Jusho":"兵庫県神戸市須磨区南落合3-11-1","洪水":"◎","がけ崩れ、土石流及び地滑り":"◎","高潮":"","地震":"","津波":"◎","大規模な火事":"","内水氾濫":"","火山現象":"","指定避難所との重複":"◎","備考":""}},
{"type":"Feature","geometry":{"type":"Point","coordinates":[135.0911614000,34.6745411000]},"properties":{"Name":"竜が台小学校","Jusho":"兵庫県神戸市須磨区竜が台6-15-1","洪水":"◎","がけ崩れ、土石流及び地滑り":"◎","高潮":"","地震":"","津波":"◎","大規模な火事":"","内水氾濫":"","火山現象":"","指定避難所との重複":"◎","備考":""}},
{"type":"Feature","geometry":{"type":"Point","coordinates":[135.0882228000,34.6755908000]},"properties":{"Name":"竜が台中学校","Jusho":"兵庫県神戸市須磨区竜が台4-1","洪水":"◎","がけ崩れ、土石流及び地滑り":"◎","高潮":"","地震":"","津波":"◎","大規模な火事":"","内水氾濫":"","火山現象":"","指定避難所との重複":"◎","備考":""}},
{"type":"Feature","geometry":{"type":"Point","coordinates":[135.0836983000,34.6721939000]},"properties":{"Name":"菅の台小学校","Jusho":"兵庫県神戸市須磨区菅の台4-3-2","洪水":"◎","がけ崩れ、土石流及び地滑り":"◎","高潮":"","地震":"","津波":"◎","大規模な火事":"","内水氾濫":"","火山現象":"","指定避難所との重複":"◎","備考":""}},
{"type":"Feature","geometry":{"type":"Point","coordinates":[135.1012968000,34.6800732000]},"properties":{"Name":"花谷小学校","Jusho":"兵庫県神戸市須磨区東落合1-4-1","洪水":"◎","がけ崩れ、土石流及び地滑り":"◎","高潮":"","地震":"","津波":"◎","大規模な火事":"","内水氾濫":"","火山現象":"","指定避難所との重複":"◎","備考":""}},
{"type":"Feature","geometry":{"type":"Point","coordinates":[135.0994494000,34.6823986000]},"properties":{"Name":"東落合中学校","Jusho":"兵庫県神戸市須磨区東落合2-15-1","洪水":"◎","がけ崩れ、土石流及び地滑り":"◎","高潮":"","地震":"","津波":"◎","大規模な火事":"","内水氾濫":"","火山現象":"","指定避難所との重複":"◎","備考":""}},
{"type":"Feature","geometry":{"type":"Point","coordinates":[135.0892339000,34.6819375000]},"properties":{"Name":"西落合小学校","Jusho":"兵庫県神戸市須磨区西落合7-1-3","洪水":"◎","がけ崩れ、土石流及び地滑り":"◎","高潮":"","地震":"","津波":"◎","大規模な火事":"","内水氾濫":"","火山現象":"","指定避難所との重複":"◎","備考":""}},
{"type":"Feature","geometry":{"type":"Point","coordinates":[135.0954409000,34.6839355000]},"properties":{"Name":"北須磨文化センター","Jusho":"兵庫県神戸市須磨区中落合3-1-2","洪水":"◎","がけ崩れ、土石流及び地滑り":"◎","高潮":"","地震":"","津波":"◎","大規模な火事":"","内水氾濫":"","火山現象":"","指定避難所との重複":"◎","備考":""}},
{"type":"Feature","geometry":{"type":"Point","coordinates":[135.0824564000,34.6851425000]},"properties":{"Name":"西落合中学校","Jusho":"兵庫県神戸市須磨区西落合4-1-1","洪水":"◎","がけ崩れ、土石流及び地滑り":"◎","高潮":"","地震":"","津波":"◎","大規模な火事":"","内水氾濫":"","火山現象":"","指定避難所との重複":"◎","備考":""}},
{"type":"Feature","geometry":{"type":"Point","coordinates":[135.0887922000,34.6779933000]},"properties":{"Name":"須磨翔風高校","Jusho":"兵庫県神戸市須磨区西落合1-1-5","洪水":"◎","がけ崩れ、土石流及び地滑り":"◎","高潮":"","地震":"","津波":"◎","大規模な火事":"","内水氾濫":"","火山現象":"","指定避難所との重複":"◎","備考":""}},
{"type":"Feature","geometry":{"type":"Point","coordinates":[135.1148719000,34.6876362000]},"properties":{"Name":"若草小学校","Jusho":"兵庫県神戸市須磨区若草町1-13","洪水":"◎","がけ崩れ、土石流及び地滑り":"◎","高潮":"","地震":"","津波":"◎","大規模な火事":"","内水氾濫":"","火山現象":"","指定避難所との重複":"◎","備考":""}},
{"type":"Feature","geometry":{"type":"Point","coordinates":[135.1102097000,34.6920283000]},"properties":{"Name":"須磨北中学校","Jusho":"兵庫県神戸市須磨区東白川台5-1-1","洪水":"◎","がけ崩れ、土石流及び地滑り":"◎","高潮":"","地震":"","津波":"◎","大規模な火事":"","内水氾濫":"","火山現象":"","指定避難所との重複":"◎","備考":""}},
{"type":"Feature","geometry":{"type":"Point","coordinates":[135.1009689000,34.6852289000]},"properties":{"Name":"東落合小学校","Jusho":"兵庫県神戸市須磨区東落合2-18-1","洪水":"◎","がけ崩れ、土石流及び地滑り":"◎","高潮":"","地震":"","津波":"◎","大規模な火事":"","内水氾濫":"","火山現象":"","指定避難所との重複":"◎","備考":""}},
{"type":"Feature","geometry":{"type":"Point","coordinates":[135.0917225000,34.6866175000]},"properties":{"Name":"松尾小学校","Jusho":"兵庫県神戸市須磨区北落合2-13-1","洪水":"◎","がけ崩れ、土石流及び地滑り":"◎","高潮":"","地震":"","津波":"◎","大規模な火事":"","内水氾濫":"","火山現象":"","指定避難所との重複":"◎","備考":""}},
{"type":"Feature","geometry":{"type":"Point","coordinates":[135.0854611000,34.6885015000]},"properties":{"Name":"神の谷小学校","Jusho":"兵庫県神戸市須磨区神の谷5-1-1","洪水":"◎","がけ崩れ、土石流及び地滑り":"◎","高潮":"","地震":"","津波":"◎","大規模な火事":"","内水氾濫":"","火山現象":"","指定避難所との重複":"◎","備考":""}},
{"type":"Feature","geometry":{"type":"Point","coordinates":[135.1006022000,34.6960794000]},"properties":{"Name":"白川小学校","Jusho":"兵庫県神戸市須磨区白川台7-3-2","洪水":"◎","がけ崩れ、土石流及び地滑り":"◎","高潮":"","地震":"","津波":"◎","大規模な火事":"","内水氾濫":"","火山現象":"","指定避難所との重複":"◎","備考":""}},
{"type":"Feature","geometry":{"type":"Point","coordinates":[135.0964414000,34.6927503000]},"properties":{"Name":"白川台中学校","Jusho":"兵庫県神戸市須磨区白川台1-25-2","洪水":"◎","がけ崩れ、土石流及び地滑り":"◎","高潮":"","地震":"","津波":"◎","大規模な火事":"","内水氾濫":"","火山現象":"","指定避難所との重複":"◎","備考":""}},
{"type":"Feature","geometry":{"type":"Point","coordinates":[135.0813161000,34.6379922000]},"properties":{"Name":"塩屋小学校","Jusho":"兵庫県神戸市垂水区塩屋町3-18-1","洪水":"◎","がけ崩れ、土石流及び地滑り":"◎","高潮":"","地震":"","津波":"◎","大規模な火事":"","内水氾濫":"","火山現象":"","指定避難所との重複":"◎","備考":""}},
{"type":"Feature","geometry":{"type":"Point","coordinates":[135.0771217000,34.6439331000]},"properties":{"Name":"塩屋中学校","Jusho":"兵庫県神戸市垂水区塩屋町字大谷","洪水":"◎","がけ崩れ、土石流及び地滑り":"◎","高潮":"","地震":"","津波":"◎","大規模な火事":"","内水氾濫":"","火山現象":"","指定避難所との重複":"◎","備考":""}},
{"type":"Feature","geometry":{"type":"Point","coordinates":[135.0775510000,34.6331110000]},"properties":{"Name":"兵庫県自治研修所","Jusho":"兵庫県神戸市垂水区塩屋町5-3-1","洪水":"◎","がけ崩れ、土石流及び地滑り":"◎","高潮":"","地震":"","津波":"◎","大規模な火事":"","内水氾濫":"","火山現象":"","指定避難所との重複":"","備考":""}},
{"type":"Feature","geometry":{"type":"Point","coordinates":[135.0906539000,34.6470275000]},"properties":{"Name":"塩屋北小学校","Jusho":"兵庫県神戸市垂水区塩屋北町4-10-1","洪水":"◎","がけ崩れ、土石流及び地滑り":"◎","高潮":"","地震":"","津波":"◎","大規模な火事":"","内水氾濫":"","火山現象":"","指定避難所との重複":"◎","備考":""}},
{"type":"Feature","geometry":{"type":"Point","coordinates":[135.0835281000,34.6418375000]},"properties":{"Name":"塩屋台自治会館","Jusho":"兵庫県神戸市垂水区塩屋台1-21","洪水":"◎","がけ崩れ、土石流及び地滑り":"◎","高潮":"","地震":"","津波":"◎","大規模な火事":"","内水氾濫":"","火山現象":"","指定避難所との重複":"◎","備考":""}},
{"type":"Feature","geometry":{"type":"Point","coordinates":[135.0830569000,34.6560514000]},"properties":{"Name":"下畑台小学校","Jusho":"兵庫県神戸市垂水区桃山台3-20","洪水":"◎","がけ崩れ、土石流及び地滑り":"◎","高潮":"","地震":"","津波":"◎","大規模な火事":"","内水氾濫":"","火山現象":"","指定避難所との重複":"◎","備考":""}},
{"type":"Feature","geometry":{"type":"Point","coordinates":[135.0797656000,34.6579178000]},"properties":{"Name":"桃山台中学校","Jusho":"兵庫県神戸市垂水区桃山台4-8","洪水":"◎","がけ崩れ、土石流及び地滑り":"◎","高潮":"","地震":"","津波":"◎","大規模な火事":"","内水氾濫":"","火山現象":"","指定避難所との重複":"◎","備考":""}},
{"type":"Feature","geometry":{"type":"Point","coordinates":[135.0866140000,34.6527060000]},"properties":{"Name":"下畑公会堂","Jusho":"兵庫県神戸市垂水区下畑町字谷川2120","洪水":"◎","がけ崩れ、土石流及び地滑り":"◎","高潮":"","地震":"","津波":"◎","大規模な火事":"","内水氾濫":"","火山現象":"","指定避難所との重複":"◎","備考":""}},
{"type":"Feature","geometry":{"type":"Point","coordinates":[135.0786778000,34.6574376000]},"properties":{"Name":"つつじが丘小学校","Jusho":"兵庫県神戸市垂水区つつじが丘3-1385-79","洪水":"◎","がけ崩れ、土石流及び地滑り":"◎","高潮":"","地震":"","津波":"◎","大規模な火事":"","内水氾濫":"","火山現象":"","指定避難所との重複":"◎","備考":""}},
{"type":"Feature","geometry":{"type":"Point","coordinates":[135.0665735000,34.6411637000]},"properties":{"Name":"福田小学校","Jusho":"兵庫県神戸市垂水区乙木3-3-1","洪水":"◎","がけ崩れ、土石流及び地滑り":"◎","高潮":"","地震":"","津波":"◎","大規模な火事":"","内水氾濫":"","火山現象":"","指定避難所との重複":"◎","備考":""}},
{"type":"Feature","geometry":{"type":"Point","coordinates":[135.0711864000,34.6348258000]},"properties":{"Name":"東垂水小学校","Jusho":"兵庫県神戸市垂水区王居殿2-5-25","洪水":"◎","がけ崩れ、土石流及び地滑り":"◎","高潮":"","地震":"","津波":"◎","大規模な火事":"","内水氾濫":"","火山現象":"","指定避難所との重複":"◎","備考":""}},
{"type":"Feature","geometry":{"type":"Point","coordinates":[135.0692837000,34.6331960000]},"properties":{"Name":"視覚特別支援学校","Jusho":"兵庫県神戸市垂水区城が山4-2-1","洪水":"◎","がけ崩れ、土石流及び地滑り":"◎","高潮":"","地震":"","津波":"◎","大規模な火事":"","内水氾濫":"","火山現象":"","指定避難所との重複":"","備考":""}},
{"type":"Feature","geometry":{"type":"Point","coordinates":[135.0709614000,34.6403306000]},"properties":{"Name":"乙木小学校","Jusho":"兵庫県神戸市垂水区美山台2-1-1","洪水":"◎","がけ崩れ、土石流及び地滑り":"◎","高潮":"","地震":"","津波":"◎","大規模な火事":"","内水氾濫":"","火山現象":"","指定避難所との重複":"◎","備考":""}},
{"type":"Feature","geometry":{"type":"Point","coordinates":[135.0721917000,34.6409722000]},"properties":{"Name":"垂水東中学校","Jusho":"兵庫県神戸市垂水区青山台3-4-1","洪水":"◎","がけ崩れ、土石流及び地滑り":"◎","高潮":"","地震":"","津波":"◎","大規模な火事":"","内水氾濫":"","火山現象":"","指定避難所との重複":"◎","備考":""}},
{"type":"Feature","geometry":{"type":"Point","coordinates":[135.0684339000,34.6368394000]},"properties":{"Name":"東垂水公民館","Jusho":"兵庫県神戸市垂水区東垂水1-1-1","洪水":"◎","がけ崩れ、土石流及び地滑り":"◎","高潮":"","地震":"","津波":"◎","大規模な火事":"","内水氾濫":"","火山現象":"","指定避難所との重複":"◎","備考":""}},
{"type":"Feature","geometry":{"type":"Point","coordinates":[135.0709858000,34.6633169000]},"properties":{"Name":"名谷小学校","Jusho":"兵庫県神戸市垂水区名谷町1896","洪水":"◎","がけ崩れ、土石流及び地滑り":"◎","高潮":"","地震":"","津波":"◎","大規模な火事":"","内水氾濫":"","火山現象":"","指定避難所との重複":"◎","備考":""}},
{"type":"Feature","geometry":{"type":"Point","coordinates":[135.0605674000,34.6515827000]},"properties":{"Name":"福田中学校","Jusho":"兵庫県神戸市垂水区名谷町字猿倉254","洪水":"◎","がけ崩れ、土石流及び地滑り":"◎","高潮":"","地震":"","津波":"◎","大規模な火事":"","内水氾濫":"","火山現象":"","指定避難所との重複":"◎","備考":""}},
{"type":"Feature","geometry":{"type":"Point","coordinates":[135.0613262000,34.6381384000]},"properties":{"Name":"高丸小学校","Jusho":"兵庫県神戸市垂水区大町2-6-9","洪水":"◎","がけ崩れ、土石流及び地滑り":"◎","高潮":"","地震":"","津波":"◎","大規模な火事":"","内水氾濫":"","火山現象":"","指定避難所との重複":"◎","備考":""}},
{"type":"Feature","geometry":{"type":"Point","coordinates":[135.0581761000,34.6433439000]},"properties":{"Name":"千鳥が丘小学校","Jusho":"兵庫県神戸市垂水区千鳥が丘3-10-37","洪水":"◎","がけ崩れ、土石流及び地滑り":"◎","高潮":"","地震":"","津波":"◎","大規模な火事":"","内水氾濫":"","火山現象":"","指定避難所との重複":"◎","備考":""}},
{"type":"Feature","geometry":{"type":"Point","coordinates":[135.0558767000,34.6315758000]},"properties":{"Name":"垂水小学校","Jusho":"兵庫県神戸市垂水区日向2-4-6","洪水":"◎","がけ崩れ、土石流及び地滑り":"◎","高潮":"","地震":"","津波":"◎","大規模な火事":"","内水氾濫":"","火山現象":"","指定避難所との重複":"◎","備考":""}},
{"type":"Feature","geometry":{"type":"Point","coordinates":[135.0590125000,34.6280792000]},"properties":{"Name":"垂水年金会館","Jusho":"兵庫県神戸市垂水区平磯1-2-5","洪水":"◎","がけ崩れ、土石流及び地滑り":"◎","高潮":"","地震":"","津波":"◎","大規模な火事":"","内水氾濫":"","火山現象":"","指定避難所との重複":"◎","備考":""}},
{"type":"Feature","geometry":{"type":"Point","coordinates":[135.0513052000,34.6329709000]},"properties":{"Name":"垂水体育館","Jusho":"兵庫県神戸市垂水区旭ヶ丘2-1-22","洪水":"◎","がけ崩れ、土石流及び地滑り":"◎","高潮":"","地震":"","津波":"◎","大規模な火事":"","内水氾濫":"","火山現象":"","指定避難所との重複":"◎","備考":""}},
{"type":"Feature","geometry":{"type":"Point","coordinates":[135.0427583000,34.6333700000]},"properties":{"Name":"霞ヶ丘小学校","Jusho":"兵庫県神戸市垂水区霞ヶ丘4-6-16","洪水":"◎","がけ崩れ、土石流及び地滑り":"◎","高潮":"","地震":"","津波":"◎","大規模な火事":"","内水氾濫":"","火山現象":"","指定避難所との重複":"◎","備考":""}},
{"type":"Feature","geometry":{"type":"Point","coordinates":[135.0412611000,34.6363944000]},"properties":{"Name":"歌敷山中学校","Jusho":"兵庫県神戸市垂水区歌敷山2-4-1","洪水":"◎","がけ崩れ、土石流及び地滑り":"◎","高潮":"","地震":"","津波":"◎","大規模な火事":"","内水氾濫":"","火山現象":"","指定避難所との重複":"◎","備考":""}},
{"type":"Feature","geometry":{"type":"Point","coordinates":[135.0364975000,34.6393497000]},"properties":{"Name":"東舞子小学校","Jusho":"兵庫県神戸市垂水区舞子台4-10-1","洪水":"◎","がけ崩れ、土石流及び地滑り":"◎","高潮":"","地震":"","津波":"◎","大規模な火事":"","内水氾濫":"","火山現象":"","指定避難所との重複":"◎","備考":""}},
{"type":"Feature","geometry":{"type":"Point","coordinates":[135.0303701000,34.6437937000]},"properties":{"Name":"舞子小学校","Jusho":"兵庫県神戸市垂水区西舞子4-7-43","洪水":"◎","がけ崩れ、土石流及び地滑り":"◎","高潮":"","地震":"","津波":"◎","大規模な火事":"","内水氾濫":"","火山現象":"","指定避難所との重複":"◎","備考":""}},
{"type":"Feature","geometry":{"type":"Point","coordinates":[135.0307367000,34.6497317000]},"properties":{"Name":"西舞子小学校","Jusho":"兵庫県神戸市垂水区狩口台3-1-2","洪水":"◎","がけ崩れ、土石流及び地滑り":"◎","高潮":"","地震":"","津波":"◎","大規模な火事":"","内水氾濫":"","火山現象":"","指定避難所との重複":"◎","備考":""}},
{"type":"Feature","geometry":{"type":"Point","coordinates":[135.0298064000,34.6496650000]},"properties":{"Name":"舞子中学校","Jusho":"兵庫県神戸市垂水区狩口台3-1-1","洪水":"◎","がけ崩れ、土石流及び地滑り":"◎","高潮":"","地震":"","津波":"◎","大規模な火事":"","内水氾濫":"","火山現象":"","指定避難所との重複":"◎","備考":""}},
{"type":"Feature","geometry":{"type":"Point","coordinates":[135.0340639000,34.6598917000]},"properties":{"Name":"神陵台小学校","Jusho":"兵庫県神戸市垂水区神陵台3-1-1","洪水":"◎","がけ崩れ、土石流及び地滑り":"◎","高潮":"","地震":"","津波":"◎","大規模な火事":"","内水氾濫":"","火山現象":"","指定避難所との重複":"◎","備考":""}},
{"type":"Feature","geometry":{"type":"Point","coordinates":[135.0332281000,34.6601417000]},"properties":{"Name":"神陵台中学校","Jusho":"兵庫県神戸市垂水区神陵台3-1-2","洪水":"◎","がけ崩れ、土石流及び地滑り":"◎","高潮":"","地震":"","津波":"◎","大規模な火事":"","内水氾濫":"","火山現象":"","指定避難所との重複":"◎","備考":""}},
{"type":"Feature","geometry":{"type":"Point","coordinates":[135.0404050000,34.6621528000]},"properties":{"Name":"多聞台小学校","Jusho":"兵庫県神戸市垂水区多聞台3-9-29","洪水":"◎","がけ崩れ、土石流及び地滑り":"◎","高潮":"","地震":"","津波":"◎","大規模な火事":"","内水氾濫":"","火山現象":"","指定避難所との重複":"◎","備考":""}},
{"type":"Feature","geometry":{"type":"Point","coordinates":[135.0387581000,34.6560033000]},"properties":{"Name":"西脇小学校","Jusho":"兵庫県神戸市垂水区西脇1-8-6","洪水":"◎","がけ崩れ、土石流及び地滑り":"◎","高潮":"","地震":"","津波":"◎","大規模な火事":"","内水氾濫":"","火山現象":"","指定避難所との重複":"◎","備考":""}},
{"type":"Feature","geometry":{"type":"Point","coordinates":[135.0517939000,34.6410918000]},"properties":{"Name":"千代が丘小学校","Jusho":"兵庫県神戸市垂水区上高丸1-4-2","洪水":"◎","がけ崩れ、土石流及び地滑り":"◎","高潮":"","地震":"","津波":"◎","大規模な火事":"","内水氾濫":"","火山現象":"","指定避難所との重複":"◎","備考":""}},
{"type":"Feature","geometry":{"type":"Point","coordinates":[135.0516019000,34.6408164000]},"properties":{"Name":"垂水中学校","Jusho":"兵庫県神戸市垂水区上高丸1-4-1","洪水":"◎","がけ崩れ、土石流及び地滑り":"◎","高潮":"","地震":"","津波":"◎","大規模な火事":"","内水氾濫":"","火山現象":"","指定避難所との重複":"◎","備考":""}},
{"type":"Feature","geometry":{"type":"Point","coordinates":[135.0480711000,34.6580783000]},"properties":{"Name":"本多聞小学校","Jusho":"兵庫県神戸市垂水区本多聞4-4-1","洪水":"◎","がけ崩れ、土石流及び地滑り":"◎","高潮":"","地震":"","津波":"◎","大規模な火事":"","内水氾濫":"","火山現象":"","指定避難所との重複":"◎","備考":""}},
{"type":"Feature","geometry":{"type":"Point","coordinates":[135.0460825000,34.6565978000]},"properties":{"Name":"本多聞中学校","Jusho":"兵庫県神戸市垂水区本多聞2-16-1","洪水":"◎","がけ崩れ、土石流及び地滑り":"◎","高潮":"","地震":"","津波":"◎","大規模な火事":"","内水氾濫":"","火山現象":"","指定避難所との重複":"◎","備考":""}},
{"type":"Feature","geometry":{"type":"Point","coordinates":[135.0492080000,34.6668700000]},"properties":{"Name":"舞多聞小学校","Jusho":"兵庫県神戸市垂水区舞多聞西5-11-12","洪水":"◎","がけ崩れ、土石流及び地滑り":"◎","高潮":"","地震":"","津波":"◎","大規模な火事":"","内水氾濫":"","火山現象":"","指定避難所との重複":"◎","備考":""}},
{"type":"Feature","geometry":{"type":"Point","coordinates":[135.0466269000,34.6528678000]},"properties":{"Name":"多聞南小学校","Jusho":"兵庫県神戸市垂水区本多聞5-2-1","洪水":"◎","がけ崩れ、土石流及び地滑り":"◎","高潮":"","地震":"","津波":"◎","大規模な火事":"","内水氾濫":"","火山現象":"","指定避難所との重複":"◎","備考":""}},
{"type":"Feature","geometry":{"type":"Point","coordinates":[135.0612669000,34.6664886000]},"properties":{"Name":"小束山小学校","Jusho":"兵庫県神戸市垂水区小束山7-868-362","洪水":"◎","がけ崩れ、土石流及び地滑り":"◎","高潮":"","地震":"","津波":"◎","大規模な火事":"","内水氾濫":"","火山現象":"","指定避難所との重複":"◎","備考":""}},
{"type":"Feature","geometry":{"type":"Point","coordinates":[135.0478936000,34.6465297000]},"properties":{"Name":"星陵台中学校","Jusho":"兵庫県神戸市垂水区星陵台4-3-3","洪水":"◎","がけ崩れ、土石流及び地滑り":"◎","高潮":"","地震":"","津波":"◎","大規模な火事":"","内水氾濫":"","火山現象":"","指定避難所との重複":"◎","備考":""}},
{"type":"Feature","geometry":{"type":"Point","coordinates":[135.0495769000,34.6449103000]},"properties":{"Name":"星陵高校","Jusho":"兵庫県神戸市垂水区星陵台4-3-2","洪水":"◎","がけ崩れ、土石流及び地滑り":"◎","高潮":"","地震":"","津波":"◎","大規模な火事":"","内水氾濫":"","火山現象":"","指定避難所との重複":"◎","備考":""}},
{"type":"Feature","geometry":{"type":"Point","coordinates":[135.0477467000,34.6438522000]},"properties":{"Name":"神戸商業高校","Jusho":"兵庫県神戸市垂水区星陵台4-3-1","洪水":"◎","がけ崩れ、土石流及び地滑り":"◎","高潮":"","地震":"","津波":"◎","大規模な火事":"","内水氾濫":"","火山現象":"","指定避難所との重複":"◎","備考":""}},
{"type":"Feature","geometry":{"type":"Point","coordinates":[135.0552622000,34.6586283000]},"properties":{"Name":"多聞東小学校","Jusho":"兵庫県神戸市垂水区学が丘4-1-1","洪水":"◎","がけ崩れ、土石流及び地滑り":"◎","高潮":"","地震":"","津波":"◎","大規模な火事":"","内水氾濫":"","火山現象":"","指定避難所との重複":"◎","備考":""}},
{"type":"Feature","geometry":{"type":"Point","coordinates":[135.0542236000,34.6546706000]},"properties":{"Name":"多聞東中学校","Jusho":"兵庫県神戸市垂水区学が丘3-1-1","洪水":"◎","がけ崩れ、土石流及び地滑り":"◎","高潮":"","地震":"","津波":"◎","大規模な火事":"","内水氾濫":"","火山現象":"","指定避難所との重複":"◎","備考":""}},
{"type":"Feature","geometry":{"type":"Point","coordinates":[135.0551067000,34.6559647000]},"properties":{"Name":"舞子高校","Jusho":"兵庫県神戸市垂水区学が丘3-2","洪水":"◎","がけ崩れ、土石流及び地滑り":"◎","高潮":"","地震":"","津波":"◎","大規模な火事":"","内水氾濫":"","火山現象":"","指定避難所との重複":"◎","備考":""}},
{"type":"Feature","geometry":{"type":"Point","coordinates":[135.0553447000,34.6962522000]},"properties":{"Name":"太山寺小学校","Jusho":"兵庫県神戸市西区伊川谷町前開860","洪水":"◎","がけ崩れ、土石流及び地滑り":"◎","高潮":"","地震":"","津波":"","大規模な火事":"","内水氾濫":"","火山現象":"","指定避難所との重複":"◎","備考":""}},
{"type":"Feature","geometry":{"type":"Point","coordinates":[135.0123878000,34.6719400000]},"properties":{"Name":"伊川谷小学校","Jusho":"兵庫県神戸市西区北別府3-3-1","洪水":"◎","がけ崩れ、土石流及び地滑り":"◎","高潮":"","地震":"","津波":"","大規模な火事":"","内水氾濫":"","火山現象":"","指定避難所との重複":"◎","備考":""}},
{"type":"Feature","geometry":{"type":"Point","coordinates":[135.0375386000,34.6690519000]},"properties":{"Name":"長坂小学校","Jusho":"兵庫県神戸市西区伊川谷町長坂910-1","洪水":"◎","がけ崩れ、土石流及び地滑り":"◎","高潮":"","地震":"","津波":"","大規模な火事":"","内水氾濫":"","火山現象":"","指定避難所との重複":"◎","備考":""}},
{"type":"Feature","geometry":{"type":"Point","coordinates":[135.0374164000,34.6707128000]},"properties":{"Name":"長坂中学校","Jusho":"兵庫県神戸市西区伊川谷町長坂841-1","洪水":"◎","がけ崩れ、土石流及び地滑り":"◎","高潮":"","地震":"","津波":"","大規模な火事":"","内水氾濫":"","火山現象":"","指定避難所との重複":"◎","備考":""}},
{"type":"Feature","geometry":{"type":"Point","coordinates":[135.0356914000,34.6709433000]},"properties":{"Name":"伊川谷高校","Jusho":"兵庫県神戸市西区伊川谷町長坂910-5","洪水":"◎","がけ崩れ、土石流及び地滑り":"◎","高潮":"","地震":"","津波":"","大規模な火事":"","内水氾濫":"","火山現象":"","指定避難所との重複":"◎","備考":""}},
{"type":"Feature","geometry":{"type":"Point","coordinates":[135.0186403000,34.6641328000]},"properties":{"Name":"有瀬小学校","Jusho":"兵庫県神戸市西区伊川谷町有瀬1137-1","洪水":"◎","がけ崩れ、土石流及び地滑り":"◎","高潮":"","地震":"","津波":"","大規模な火事":"","内水氾濫":"","火山現象":"","指定避難所との重複":"◎","備考":""}},
{"type":"Feature","geometry":{"type":"Point","coordinates":[135.0193008000,34.6779617000]},"properties":{"Name":"伊川谷中学校","Jusho":"兵庫県神戸市西区伊川谷町上脇1005-2","洪水":"◎","がけ崩れ、土石流及び地滑り":"","高潮":"","地震":"","津波":"","大規模な火事":"","内水氾濫":"","火山現象":"","指定避難所との重複":"◎","備考":""}},
{"type":"Feature","geometry":{"type":"Point","coordinates":[135.0545452000,34.6837347000]},"properties":{"Name":"小寺小学校","Jusho":"兵庫県神戸市西区学園西町5-5","洪水":"◎","がけ崩れ、土石流及び地滑り":"◎","高潮":"","地震":"","津波":"","大規模な火事":"","内水氾濫":"","火山現象":"","指定避難所との重複":"◎","備考":""}},
{"type":"Feature","geometry":{"type":"Point","coordinates":[135.0648386000,34.6844064000]},"properties":{"Name":"東町小学校","Jusho":"兵庫県神戸市西区学園東町5-5","洪水":"◎","がけ崩れ、土石流及び地滑り":"◎","高潮":"","地震":"","津波":"","大規模な火事":"","内水氾濫":"","火山現象":"","指定避難所との重複":"◎","備考":""}},
{"type":"Feature","geometry":{"type":"Point","coordinates":[135.0605806000,34.6846672000]},"properties":{"Name":"太山寺中学校","Jusho":"兵庫県神戸市西区学園東町2-2","洪水":"◎","がけ崩れ、土石流及び地滑り":"◎","高潮":"","地震":"","津波":"","大規模な火事":"","内水氾濫":"","火山現象":"","指定避難所との重複":"◎","備考":""}},
{"type":"Feature","geometry":{"type":"Point","coordinates":[135.0604031000,34.6798088000]},"properties":{"Name":"神戸市外国語大学","Jusho":"兵庫県神戸市西区学園東町9-1","洪水":"◎","がけ崩れ、土石流及び地滑り":"","高潮":"","地震":"","津波":"","大規模な火事":"","内水氾濫":"","火山現象":"","指定避難所との重複":"◎","備考":""}},
{"type":"Feature","geometry":{"type":"Point","coordinates":[135.0675356000,34.6793236000]},"properties":{"Name":"工業高等専門学校","Jusho":"兵庫県神戸市西区学園東町8-3","洪水":"◎","がけ崩れ、土石流及び地滑り":"","高潮":"","地震":"","津波":"","大規模な火事":"","内水氾濫":"","火山現象":"","指定避難所との重複":"◎","備考":""}},
{"type":"Feature","geometry":{"type":"Point","coordinates":[135.0380156000,34.7040231000]},"properties":{"Name":"井吹東小学校","Jusho":"兵庫県神戸市西区井吹台東町5-32","洪水":"◎","がけ崩れ、土石流及び地滑り":"◎","高潮":"","地震":"","津波":"","大規模な火事":"","内水氾濫":"","火山現象":"","指定避難所との重複":"◎","備考":""}},
{"type":"Feature","geometry":{"type":"Point","coordinates":[135.0303164000,34.6968239000]},"properties":{"Name":"井吹台中学校","Jusho":"兵庫県神戸市西区井吹台西町2-3","洪水":"◎","がけ崩れ、土石流及び地滑り":"◎","高潮":"","地震":"","津波":"","大規模な火事":"","内水氾濫":"","火山現象":"","指定避難所との重複":"◎","備考":""}},
{"type":"Feature","geometry":{"type":"Point","coordinates":[135.0228586000,34.6934683000]},"properties":{"Name":"井吹西小学校","Jusho":"兵庫県神戸市西区井吹台西町4-3","洪水":"◎","がけ崩れ、土石流及び地滑り":"◎","高潮":"","地震":"","津波":"","大規模な火事":"","内水氾濫":"","火山現象":"","指定避難所との重複":"◎","備考":""}},
{"type":"Feature","geometry":{"type":"Point","coordinates":[135.0309160000,34.7055290000]},"properties":{"Name":"井吹の丘小学校","Jusho":"兵庫県神戸市西区井吹台北町2-18","洪水":"◎","がけ崩れ、土石流及び地滑り":"◎","高潮":"","地震":"","津波":"","大規模な火事":"","内水氾濫":"","火山現象":"","指定避難所との重複":"◎","備考":""}},
{"type":"Feature","geometry":{"type":"Point","coordinates":[134.9957164000,34.7088081000]},"properties":{"Name":"春日台小学校","Jusho":"兵庫県神戸市西区春日台4-1","洪水":"◎","がけ崩れ、土石流及び地滑り":"◎","高潮":"","地震":"","津波":"","大規模な火事":"","内水氾濫":"","火山現象":"","指定避難所との重複":"◎","備考":""}},
{"type":"Feature","geometry":{"type":"Point","coordinates":[134.9982078000,34.7096692000]},"properties":{"Name":"平野中学校","Jusho":"兵庫県神戸市西区春日台2-20","洪水":"◎","がけ崩れ、土石流及び地滑り":"◎","高潮":"","地震":"","津波":"","大規模な火事":"","内水氾濫":"","火山現象":"","指定避難所との重複":"◎","備考":""}},
{"type":"Feature","geometry":{"type":"Point","coordinates":[134.9890086000,34.7029142000]},"properties":{"Name":"西体育館","Jusho":"兵庫県神戸市西区春日台5-436","洪水":"◎","がけ崩れ、土石流及び地滑り":"◎","高潮":"","地震":"","津波":"","大規模な火事":"","内水氾濫":"","火山現象":"","指定避難所との重複":"◎","備考":""}},
{"type":"Feature","geometry":{"type":"Point","coordinates":[135.0056153000,34.7199569000]},"properties":{"Name":"美賀多台小学校","Jusho":"兵庫県神戸市西区美賀多台6-1","洪水":"◎","がけ崩れ、土石流及び地滑り":"◎","高潮":"","地震":"","津波":"","大規模な火事":"","内水氾濫":"","火山現象":"","指定避難所との重複":"◎","備考":""}},
{"type":"Feature","geometry":{"type":"Point","coordinates":[134.9820253000,34.7062146000]},"properties":{"Name":"平野小学校","Jusho":"兵庫県神戸市西区平野町宮前301","洪水":"◎","がけ崩れ、土石流及び地滑り":"◎","高潮":"","地震":"","津波":"","大規模な火事":"","内水氾濫":"","火山現象":"","指定避難所との重複":"◎","備考":""}},
{"type":"Feature","geometry":{"type":"Point","coordinates":[135.0256053000,34.7100417000]},"properties":{"Name":"櫨谷小学校","Jusho":"兵庫県神戸市西区櫨谷町池谷203-2","洪水":"◎","がけ崩れ、土石流及び地滑り":"◎","高潮":"","地震":"","津波":"","大規模な火事":"","内水氾濫":"","火山現象":"","指定避難所との重複":"◎","備考":""}},
{"type":"Feature","geometry":{"type":"Point","coordinates":[135.0234694000,34.7197461000]},"properties":{"Name":"糀台小学校","Jusho":"兵庫県神戸市西区糀台3-32-1","洪水":"◎","がけ崩れ、土石流及び地滑り":"◎","高潮":"","地震":"","津波":"","大規模な火事":"","内水氾濫":"","火山現象":"","指定避難所との重複":"◎","備考":""}},
{"type":"Feature","geometry":{"type":"Point","coordinates":[135.0286272000,34.7179436000]},"properties":{"Name":"櫨谷中学校","Jusho":"兵庫県神戸市西区糀台1-2","洪水":"◎","がけ崩れ、土石流及び地滑り":"◎","高潮":"","地震":"","津波":"","大規模な火事":"","内水氾濫":"","火山現象":"","指定避難所との重複":"◎","備考":""}},
{"type":"Feature","geometry":{"type":"Point","coordinates":[135.0323936200,34.7227904100]},"properties":{"Name":"狩場台小学校","Jusho":"兵庫県神戸市西区狩場台3-6-1","洪水":"◎","がけ崩れ、土石流及び地滑り":"◎","高潮":"","地震":"","津波":"","大規模な火事":"","内水氾濫":"","火山現象":"","指定避難所との重複":"◎","備考":""}},
{"type":"Feature","geometry":{"type":"Point","coordinates":[135.0127814000,34.7126633000]},"properties":{"Name":"竹の台小学校","Jusho":"兵庫県神戸市西区竹の台2-10-2","洪水":"◎","がけ崩れ、土石流及び地滑り":"◎","高潮":"","地震":"","津波":"","大規模な火事":"","内水氾濫":"","火山現象":"","指定避難所との重複":"◎","備考":""}},
{"type":"Feature","geometry":{"type":"Point","coordinates":[135.0096733000,34.7142075000]},"properties":{"Name":"西神中学校","Jusho":"兵庫県神戸市西区竹の台5-21","洪水":"◎","がけ崩れ、土石流及び地滑り":"◎","高潮":"","地震":"","津波":"","大規模な火事":"","内水氾濫":"","火山現象":"","指定避難所との重複":"◎","備考":""}},
{"type":"Feature","geometry":{"type":"Point","coordinates":[135.0016297000,34.7065139000]},"properties":{"Name":"樫野台小学校","Jusho":"兵庫県神戸市西区樫野台3-3-1","洪水":"◎","がけ崩れ、土石流及び地滑り":"◎","高潮":"","地震":"","津波":"","大規模な火事":"","内水氾濫":"","火山現象":"","指定避難所との重複":"◎","備考":""}},
{"type":"Feature","geometry":{"type":"Point","coordinates":[135.0654018000,34.7432542000]},"properties":{"Name":"木津小学校","Jusho":"兵庫県神戸市西区桜が丘東町5-149-31","洪水":"◎","がけ崩れ、土石流及び地滑り":"◎","高潮":"","地震":"","津波":"","大規模な火事":"","内水氾濫":"","火山現象":"","指定避難所との重複":"◎","備考":""}},
{"type":"Feature","geometry":{"type":"Point","coordinates":[135.0583913000,34.7451914000]},"properties":{"Name":"桜が丘小学校","Jusho":"兵庫県神戸市西区桜が丘中町3-3-2","洪水":"◎","がけ崩れ、土石流及び地滑り":"◎","高潮":"","地震":"","津波":"","大規模な火事":"","内水氾濫":"","火山現象":"","指定避難所との重複":"◎","備考":""}},
{"type":"Feature","geometry":{"type":"Point","coordinates":[135.0608211000,34.7487378000]},"properties":{"Name":"桜が丘中学校","Jusho":"兵庫県神戸市西区桜が丘東町2-11-1","洪水":"◎","がけ崩れ、土石流及び地滑り":"◎","高潮":"","地震":"","津波":"","大規模な火事":"","内水氾濫":"","火山現象":"","指定避難所との重複":"◎","備考":""}},
{"type":"Feature","geometry":{"type":"Point","coordinates":[135.0376092000,34.7556728000]},"properties":{"Name":"押部谷小学校","Jusho":"兵庫県神戸市西区押部谷町福住552-3","洪水":"◎","がけ崩れ、土石流及び地滑り":"◎","高潮":"","地震":"","津波":"","大規模な火事":"","内水氾濫":"","火山現象":"","指定避難所との重複":"◎","備考":""}},
{"type":"Feature","geometry":{"type":"Point","coordinates":[135.0313931000,34.7627022000]},"properties":{"Name":"北山小学校","Jusho":"兵庫県神戸市西区北山台3-26-1","洪水":"◎","がけ崩れ、土石流及び地滑り":"◎","高潮":"","地震":"","津波":"","大規模な火事":"","内水氾濫":"","火山現象":"","指定避難所との重複":"◎","備考":""}},
{"type":"Feature","geometry":{"type":"Point","coordinates":[135.0443642000,34.7573756000]},"properties":{"Name":"押部谷中学校","Jusho":"兵庫県神戸市西区押部谷町押部722","洪水":"◎","がけ崩れ、土石流及び地滑り":"◎","高潮":"","地震":"","津波":"","大規模な火事":"","内水氾濫":"","火山現象":"","指定避難所との重複":"◎","備考":""}},
{"type":"Feature","geometry":{"type":"Point","coordinates":[135.0491254000,34.7595488000]},"properties":{"Name":"月が丘小学校","Jusho":"兵庫県神戸市西区月が丘7-2","洪水":"◎","がけ崩れ、土石流及び地滑り":"◎","高潮":"","地震":"","津波":"","大規模な火事":"","内水氾濫":"","火山現象":"","指定避難所との重複":"◎","備考":""}},
{"type":"Feature","geometry":{"type":"Point","coordinates":[135.0128176000,34.7411234000]},"properties":{"Name":"高和小学校","Jusho":"兵庫県神戸市西区押部谷町高和565","洪水":"◎","がけ崩れ、土石流及び地滑り":"◎","高潮":"","地震":"","津波":"","大規模な火事":"","内水氾濫":"","火山現象":"","指定避難所との重複":"◎","備考":""}},
{"type":"Feature","geometry":{"type":"Point","coordinates":[134.9877978000,34.6847800000]},"properties":{"Name":"玉津第一小学校","Jusho":"兵庫県神戸市西区小山1-4-1","洪水":"◎","がけ崩れ、土石流及び地滑り":"◎","高潮":"","地震":"","津波":"","大規模な火事":"","内水氾濫":"","火山現象":"","指定避難所との重複":"◎","備考":""}},
{"type":"Feature","geometry":{"type":"Point","coordinates":[134.9726714000,34.6774028000]},"properties":{"Name":"出合小学校","Jusho":"兵庫県神戸市西区中野1-22-1","洪水":"◎","がけ崩れ、土石流及び地滑り":"◎","高潮":"","地震":"","津波":"","大規模な火事":"","内水氾濫":"","火山現象":"","指定避難所との重複":"◎","備考":""}},
{"type":"Feature","geometry":{"type":"Point","coordinates":[134.9735437800,34.6741032600]},"properties":{"Name":"王塚台中学校","Jusho":"兵庫県神戸市西区王塚台4-58","洪水":"◎","がけ崩れ、土石流及び地滑り":"◎","高潮":"","地震":"","津波":"","大規模な火事":"","内水氾濫":"","火山現象":"","指定避難所との重複":"◎","備考":""}},
{"type":"Feature","geometry":{"type":"Point","coordinates":[134.9778628000,34.6647678000]},"properties":{"Name":"枝吉小学校","Jusho":"兵庫県神戸市西区技吉2-95","洪水":"◎","がけ崩れ、土石流及び地滑り":"◎","高潮":"","地震":"","津波":"","大規模な火事":"","内水氾濫":"","火山現象":"","指定避難所との重複":"◎","備考":""}},
{"type":"Feature","geometry":{"type":"Point","coordinates":[134.9949753000,34.6702592000]},"properties":{"Name":"高津橋小学校","Jusho":"兵庫県神戸市西区玉津町高津橋640-1","洪水":"◎","がけ崩れ、土石流及び地滑り":"◎","高潮":"","地震":"","津波":"","大規模な火事":"","内水氾濫":"","火山現象":"","指定避難所との重複":"◎","備考":""}},
{"type":"Feature","geometry":{"type":"Point","coordinates":[134.9908175300,34.6602492400]},"properties":{"Name":"玉津南公民館","Jusho":"兵庫県神戸市西区玉津町上池314","洪水":"◎","がけ崩れ、土石流及び地滑り":"◎","高潮":"","地震":"","津波":"","大規模な火事":"","内水氾濫":"","火山現象":"","指定避難所との重複":"◎","備考":""}},
{"type":"Feature","geometry":{"type":"Point","coordinates":[134.9924864000,34.6783472000]},"properties":{"Name":"玉津中学校","Jusho":"兵庫県神戸市西区玉津町今津364","洪水":"◎","がけ崩れ、土石流及び地滑り":"◎","高潮":"","地震":"","津波":"","大規模な火事":"","内水氾濫":"","火山現象":"","指定避難所との重複":"◎","備考":""}},
{"type":"Feature","geometry":{"type":"Point","coordinates":[134.9877333000,34.7473706000]},"properties":{"Name":"神出小学校","Jusho":"兵庫県神戸市西区神出町田井444","洪水":"◎","がけ崩れ、土石流及び地滑り":"◎","高潮":"","地震":"","津波":"","大規模な火事":"","内水氾濫":"","火山現象":"","指定避難所との重複":"◎","備考":""}},
{"type":"Feature","geometry":{"type":"Point","coordinates":[134.9964433000,34.7548142000]},"properties":{"Name":"神出中学校","Jusho":"兵庫県神戸市西区神出町東1167","洪水":"◎","がけ崩れ、土石流及び地滑り":"◎","高潮":"","地震":"","津波":"","大規模な火事":"","内水氾濫":"","火山現象":"","指定避難所との重複":"◎","備考":""}},
{"type":"Feature","geometry":{"type":"Point","coordinates":[134.9442931000,34.7182292000]},"properties":{"Name":"岩岡小学校","Jusho":"兵庫県神戸市西区岩岡町古郷267","洪水":"◎","がけ崩れ、土石流及び地滑り":"◎","高潮":"","地震":"","津波":"","大規模な火事":"","内水氾濫":"","火山現象":"","指定避難所との重複":"◎","備考":""}},
{"type":"Feature","geometry":{"type":"Point","coordinates":[134.9433792000,34.7162822000]},"properties":{"Name":"岩岡中学校","Jusho":"兵庫県神戸市西区岩岡町古郷249-1","洪水":"◎","がけ崩れ、土石流及び地滑り":"◎","高潮":"","地震":"","津波":"","大規模な火事":"","内水氾濫":"","火山現象":"","指定避難所との重複":"◎","備考":""}},
{"type":"Feature","geometry":{"type":"Point","coordinates":[135.2884418000,34.7210557000]},"properties":{"Name":"本庄小学校グラウンド","Jusho":"兵庫県神戸市東灘区青木4-4-1","洪水":"","がけ崩れ、土石流及び地滑り":"","高潮":"","地震":"◎","津波":"","大規模な火事":"◎","内水氾濫":"","火山現象":"","指定避難所との重複":"","備考":""}},
{"type":"Feature","geometry":{"type":"Point","coordinates":[135.2874503000,34.7205058000]},"properties":{"Name":"本庄中学校グラウンド","Jusho":"兵庫県神戸市東灘区青木4-4-2","洪水":"","がけ崩れ、土石流及び地滑り":"","高潮":"","地震":"◎","津波":"","大規模な火事":"◎","内水氾濫":"","火山現象":"","指定避難所との重複":"","備考":""}},
{"type":"Feature","geometry":{"type":"Point","coordinates":[135.2850366000,34.7195558000]},"properties":{"Name":"本庄中央公園","Jusho":"兵庫県神戸市東灘区青木5-18","洪水":"","がけ崩れ、土石流及び地滑り":"","高潮":"","地震":"◎","津波":"","大規模な火事":"◎","内水氾濫":"","火山現象":"","指定避難所との重複":"","備考":""}},
{"type":"Feature","geometry":{"type":"Point","coordinates":[135.2694823000,34.7252522000]},"properties":{"Name":"本山第二小学校グラウンド","Jusho":"兵庫県神戸市東灘区西岡本1-3-1","洪水":"","がけ崩れ、土石流及び地滑り":"","高潮":"","地震":"◎","津波":"◎","大規模な火事":"◎","内水氾濫":"","火山現象":"","指定避難所との重複":"","備考":""}},
{"type":"Feature","geometry":{"type":"Point","coordinates":[135.2708488000,34.7255411000]},"properties":{"Name":"本山中学校グラウンド","Jusho":"兵庫県神戸市東灘区岡本3-3-1","洪水":"","がけ崩れ、土石流及び地滑り":"","高潮":"","地震":"◎","津波":"◎","大規模な火事":"◎","内水氾濫":"","火山現象":"","指定避難所との重複":"","備考":""}},
{"type":"Feature","geometry":{"type":"Point","coordinates":[135.2643941000,34.7172585000]},"properties":{"Name":"住吉小学校グラウンド","Jusho":"兵庫県神戸市東灘区住吉東町4-1-31","洪水":"","がけ崩れ、土石流及び地滑り":"","高潮":"","地震":"◎","津波":"◎","大規模な火事":"◎","内水氾濫":"","火山現象":"","指定避難所との重複":"","備考":""}},
{"type":"Feature","geometry":{"type":"Point","coordinates":[135.2633581000,34.7167336000]},"properties":{"Name":"住吉宮町公園","Jusho":"兵庫県神戸市東灘区住吉宮町3-2","洪水":"","がけ崩れ、土石流及び地滑り":"","高潮":"","地震":"◎","津波":"◎","大規模な火事":"◎","内水氾濫":"","火山現象":"","指定避難所との重複":"","備考":""}},
{"type":"Feature","geometry":{"type":"Point","coordinates":[135.2624276000,34.7162364000]},"properties":{"Name":"住吉公園","Jusho":"兵庫県神戸市東灘区住吉宮町3-3","洪水":"","がけ崩れ、土石流及び地滑り":"","高潮":"","地震":"◎","津波":"◎","大規模な火事":"◎","内水氾濫":"","火山現象":"","指定避難所との重複":"","備考":""}},
{"type":"Feature","geometry":{"type":"Point","coordinates":[135.2515313000,34.7151892000]},"properties":{"Name":"御影小学校グラウンド","Jusho":"兵庫県神戸市東灘区御影石町3-1-1","洪水":"","がけ崩れ、土石流及び地滑り":"","高潮":"","地震":"◎","津波":"◎","大規模な火事":"◎","内水氾濫":"","火山現象":"","指定避難所との重複":"","備考":""}},
{"type":"Feature","geometry":{"type":"Point","coordinates":[135.2512924000,34.7155892000]},"properties":{"Name":"御影幼稚園グラウンド","Jusho":"兵庫県神戸市東灘区御影石町3-13-1","洪水":"","がけ崩れ、土石流及び地滑り":"","高潮":"","地震":"◎","津波":"◎","大規模な火事":"◎","内水氾濫":"","火山現象":"","指定避難所との重複":"","備考":""}},
{"type":"Feature","geometry":{"type":"Point","coordinates":[135.2506612000,34.7388364000]},"properties":{"Name":"渦が森小学校グラウンド","Jusho":"兵庫県神戸市東灘区渦森台1-12-1","洪水":"","がけ崩れ、土石流及び地滑り":"","高潮":"","地震":"◎","津波":"◎","大規模な火事":"◎","内水氾濫":"","火山現象":"","指定避難所との重複":"","備考":""}},
{"type":"Feature","geometry":{"type":"Point","coordinates":[135.2788038000,34.7212528000]},"properties":{"Name":"福池小学校グラウンド","Jusho":"兵庫県神戸市東灘区本山南町4-4-28","洪水":"","がけ崩れ、土石流及び地滑り":"","高潮":"","地震":"◎","津波":"◎","大規模な火事":"◎","内水氾濫":"","火山現象":"","指定避難所との重複":"","備考":""}},
{"type":"Feature","geometry":{"type":"Point","coordinates":[135.2802880000,34.7217030000]},"properties":{"Name":"小寄公園","Jusho":"兵庫県神戸市東灘区本山南町4-4","洪水":"","がけ崩れ、土石流及び地滑り":"","高潮":"","地震":"◎","津波":"◎","大規模な火事":"◎","内水氾濫":"","火山現象":"","指定避難所との重複":"","備考":""}},
{"type":"Feature","geometry":{"type":"Point","coordinates":[135.2542306000,34.7320511000]},"properties":{"Name":"神大附属中等教育学校グラウンド","Jusho":"兵庫県神戸市東灘区住吉山手5-11-1","洪水":"","がけ崩れ、土石流及び地滑り":"","高潮":"","地震":"◎","津波":"◎","大規模な火事":"◎","内水氾濫":"","火山現象":"","指定避難所との重複":"","備考":""}},
{"type":"Feature","geometry":{"type":"Point","coordinates":[135.2704850000,34.7229969000]},"properties":{"Name":"本山南中学校グラウンド","Jusho":"兵庫県神戸市東灘区田中町4-12-1","洪水":"","がけ崩れ、土石流及び地滑り":"","高潮":"","地震":"◎","津波":"◎","大規模な火事":"◎","内水氾濫":"","火山現象":"","指定避難所との重複":"","備考":""}},
{"type":"Feature","geometry":{"type":"Point","coordinates":[135.2711016000,34.7238496000]},"properties":{"Name":"手水公園","Jusho":"兵庫県神戸市東灘区田中町3-16","洪水":"","がけ崩れ、土石流及び地滑り":"","高潮":"","地震":"◎","津波":"◎","大規模な火事":"◎","内水氾濫":"","火山現象":"","指定避難所との重複":"","備考":""}},
{"type":"Feature","geometry":{"type":"Point","coordinates":[135.2535562000,34.7156447000]},"properties":{"Name":"御影中学校グラウンド","Jusho":"兵庫県神戸市東灘区御影中町5-1-1","洪水":"","がけ崩れ、土石流及び地滑り":"","高潮":"","地震":"◎","津波":"◎","大規模な火事":"◎","内水氾濫":"","火山現象":"","指定避難所との重複":"","備考":""}},
{"type":"Feature","geometry":{"type":"Point","coordinates":[135.2541768551,34.7149920727]},"properties":{"Name":"御影公園","Jusho":"兵庫県神戸市東灘区御影中町5-1","洪水":"","がけ崩れ、土石流及び地滑り":"","高潮":"","地震":"◎","津波":"◎","大規模な火事":"◎","内水氾濫":"","火山現象":"","指定避難所との重複":"","備考":""}},
{"type":"Feature","geometry":{"type":"Point","coordinates":[135.2793429000,34.7129508000]},"properties":{"Name":"魚崎中学校グラウンド","Jusho":"兵庫県神戸市東灘区魚崎南町1-2-1","洪水":"","がけ崩れ、土石流及び地滑り":"","高潮":"","地震":"◎","津波":"","大規模な火事":"◎","内水氾濫":"","火山現象":"","指定避難所との重複":"","備考":""}},
{"type":"Feature","geometry":{"type":"Point","coordinates":[135.2801512000,34.7127397000]},"properties":{"Name":"瀬戸公園","Jusho":"兵庫県神戸市東灘区魚崎南町1-2","洪水":"","がけ崩れ、土石流及び地滑り":"","高潮":"","地震":"◎","津波":"","大規模な火事":"◎","内水氾濫":"","火山現象":"","指定避難所との重複":"","備考":""}},
{"type":"Feature","geometry":{"type":"Point","coordinates":[135.2908640000,34.7298510000]},"properties":{"Name":"森公園","Jusho":"兵庫県神戸市東灘区森南町2-10","洪水":"","がけ崩れ、土石流及び地滑り":"","高潮":"","地震":"◎","津波":"◎","大規模な火事":"◎","内水氾濫":"","火山現象":"","指定避難所との重複":"","備考":""}},
{"type":"Feature","geometry":{"type":"Point","coordinates":[135.2418541000,34.7155114000]},"properties":{"Name":"成徳小学校グラウンド","Jusho":"兵庫県神戸市灘区備後町1-3-1","洪水":"","がけ崩れ、土石流及び地滑り":"","高潮":"","地震":"◎","津波":"◎","大規模な火事":"◎","内水氾濫":"","火山現象":"","指定避難所との重複":"","備考":""}},
{"type":"Feature","geometry":{"type":"Point","coordinates":[135.2421361528,34.7147488430]},"properties":{"Name":"成徳公園","Jusho":"兵庫県神戸市灘区備後町1-3","洪水":"","がけ崩れ、土石流及び地滑り":"","高潮":"","地震":"◎","津波":"◎","大規模な火事":"◎","内水氾濫":"","火山現象":"","指定避難所との重複":"","備考":""}},
{"type":"Feature","geometry":{"type":"Point","coordinates":[135.2435651000,34.7154781000]},"properties":{"Name":"大和公園","Jusho":"兵庫県神戸市灘区中郷町5-1　他","洪水":"","がけ崩れ、土石流及び地滑り":"","高潮":"","地震":"◎","津波":"◎","大規模な火事":"◎","内水氾濫":"","火山現象":"","指定避難所との重複":"","備考":""}},
{"type":"Feature","geometry":{"type":"Point","coordinates":[135.2351680000,34.7155260000]},"properties":{"Name":"六甲風の郷公園","Jusho":"兵庫県神戸市灘区六甲町2-4-25","洪水":"","がけ崩れ、土石流及び地滑り":"","高潮":"","地震":"◎","津波":"◎","大規模な火事":"◎","内水氾濫":"","火山現象":"","指定避難所との重複":"","備考":""}},
{"type":"Feature","geometry":{"type":"Point","coordinates":[135.2389370000,34.7127870000]},"properties":{"Name":"六甲道南公園","Jusho":"兵庫県神戸市灘区桜口4　他","洪水":"","がけ崩れ、土石流及び地滑り":"","高潮":"","地震":"◎","津波":"◎","大規模な火事":"◎","内水氾濫":"","火山現象":"","指定避難所との重複":"","備考":""}},
{"type":"Feature","geometry":{"type":"Point","coordinates":[135.2169476000,34.7100258000]},"properties":{"Name":"王子公園","Jusho":"兵庫県神戸市灘区王子町2-1　他","洪水":"","がけ崩れ、土石流及び地滑り":"","高潮":"","地震":"◎","津波":"◎","大規模な火事":"◎","内水氾濫":"","火山現象":"","指定避難所との重複":"","備考":""}},
{"type":"Feature","geometry":{"type":"Point","coordinates":[135.2248194000,34.7021519000]},"properties":{"Name":"西郷川河口公園","Jusho":"兵庫県神戸市灘区摩耶海岸通2-1","洪水":"","がけ崩れ、土石流及び地滑り":"","高潮":"","地震":"◎","津波":"◎","大規模な火事":"◎","内水氾濫":"","火山現象":"","指定避難所との重複":"","備考":""}},
{"type":"Feature","geometry":{"type":"Point","coordinates":[135.2215447000,34.7000798000]},"properties":{"Name":"摩耶海岸通公園","Jusho":"兵庫県神戸市灘区摩耶海岸通1-2","洪水":"","がけ崩れ、土石流及び地滑り":"","高潮":"","地震":"◎","津波":"","大規模な火事":"◎","内水氾濫":"","火山現象":"","指定避難所との重複":"","備考":""}},
{"type":"Feature","geometry":{"type":"Point","coordinates":[135.2113454000,34.7106200000]},"properties":{"Name":"上筒井小学校グラウンド","Jusho":"兵庫県神戸市中央区野崎通1-1-2","洪水":"","がけ崩れ、土石流及び地滑り":"","高潮":"","地震":"◎","津波":"◎","大規模な火事":"◎","内水氾濫":"","火山現象":"","指定避難所との重複":"","備考":""}},
{"type":"Feature","geometry":{"type":"Point","coordinates":[135.2100705000,34.7093146000]},"properties":{"Name":"筒井台中学校グラウンド","Jusho":"兵庫県神戸市中央区野崎通1-1-3","洪水":"","がけ崩れ、土石流及び地滑り":"","高潮":"","地震":"◎","津波":"◎","大規模な火事":"◎","内水氾濫":"","火山現象":"","指定避難所との重複":"","備考":""}},
{"type":"Feature","geometry":{"type":"Point","coordinates":[135.2105038000,34.7110866000]},"properties":{"Name":"葺合高校グラウンド","Jusho":"兵庫県神戸市中央区野崎通1-1-1","洪水":"","がけ崩れ、土石流及び地滑り":"","高潮":"","地震":"◎","津波":"◎","大規模な火事":"◎","内水氾濫":"","火山現象":"","指定避難所との重複":"","備考":""}},
{"type":"Feature","geometry":{"type":"Point","coordinates":[135.2146065000,34.6969216000]},"properties":{"Name":"なぎさ公園","Jusho":"兵庫県神戸市中央区脇浜海岸通1-2","洪水":"","がけ崩れ、土石流及び地滑り":"","高潮":"","地震":"◎","津波":"","大規模な火事":"◎","内水氾濫":"","火山現象":"","指定避難所との重複":"","備考":""}},
{"type":"Feature","geometry":{"type":"Point","coordinates":[135.2091960000,34.6950050000]},"properties":{"Name":"脇浜海岸通公園","Jusho":"兵庫県神戸市中央区脇浜海岸通4-2","洪水":"","がけ崩れ、土石流及び地滑り":"","高潮":"","地震":"◎","津波":"","大規模な火事":"◎","内水氾濫":"","火山現象":"","指定避難所との重複":"","備考":""}},
{"type":"Feature","geometry":{"type":"Point","coordinates":[135.2110179000,34.6977437000]},"properties":{"Name":"なぎさ小学校グラウンド","Jusho":"兵庫県神戸市中央区脇浜海岸通2-4-1","洪水":"","がけ崩れ、土石流及び地滑り":"","高潮":"","地震":"◎","津波":"◎","大規模な火事":"◎","内水氾濫":"","火山現象":"","指定避難所との重複":"","備考":""}},
{"type":"Feature","geometry":{"type":"Point","coordinates":[135.2167451000,34.7003935000]},"properties":{"Name":"渚中学校グラウンド","Jusho":"兵庫県神戸市中央区脇浜海岸通2-1-1","洪水":"","がけ崩れ、土石流及び地滑り":"","高潮":"","地震":"◎","津波":"◎","大規模な火事":"◎","内水氾濫":"","火山現象":"","指定避難所との重複":"","備考":""}},
{"type":"Feature","geometry":{"type":"Point","coordinates":[135.1960640000,34.6887998000]},"properties":{"Name":"東遊園地","Jusho":"兵庫県神戸市中央区加納町6-4","洪水":"","がけ崩れ、土石流及び地滑り":"","高潮":"","地震":"◎","津波":"◎","大規模な火事":"◎","内水氾濫":"","火山現象":"","指定避難所との重複":"","備考":""}},
{"type":"Feature","geometry":{"type":"Point","coordinates":[135.1991810000,34.6914860000]},"properties":{"Name":"磯上公園","Jusho":"兵庫県神戸市中央区八幡通2-1","洪水":"","がけ崩れ、土石流及び地滑り":"","高潮":"","地震":"◎","津波":"◎","大規模な火事":"◎","内水氾濫":"","火山現象":"","指定避難所との重複":"","備考":""}},
{"type":"Feature","geometry":{"type":"Point","coordinates":[135.1890287000,34.6838003000]},"properties":{"Name":"メリケンパーク","Jusho":"兵庫県神戸市中央区波止場町2","洪水":"","がけ崩れ、土石流及び地滑り":"","高潮":"","地震":"◎","津波":"","大規模な火事":"◎","内水氾濫":"","火山現象":"","指定避難所との重複":"","備考":""}},
{"type":"Feature","geometry":{"type":"Point","coordinates":[135.1729242000,34.6863970000]},"properties":{"Name":"大倉山公園","Jusho":"兵庫県神戸市中央区楠町7-4","洪水":"","がけ崩れ、土石流及び地滑り":"","高潮":"","地震":"◎","津波":"◎","大規模な火事":"◎","内水氾濫":"","火山現象":"","指定避難所との重複":"","備考":""}},
{"type":"Feature","geometry":{"type":"Point","coordinates":[135.1716466000,34.6839972000]},"properties":{"Name":"湊翔楠中学校グラウンド","Jusho":"兵庫県神戸市中央区楠町4-2-5","洪水":"","がけ崩れ、土石流及び地滑り":"","高潮":"","地震":"◎","津波":"◎","大規模な火事":"◎","内水氾濫":"","火山現象":"","指定避難所との重複":"","備考":""}},
{"type":"Feature","geometry":{"type":"Point","coordinates":[135.2047218492,34.6934542334]},"properties":{"Name":"生田川公園（ＨＡＴゆめ公園）","Jusho":"兵庫県神戸市中央区脇浜海岸通3","洪水":"","がけ崩れ、土石流及び地滑り":"","高潮":"","地震":"◎","津波":"","大規模な火事":"◎","内水氾濫":"","火山現象":"","指定避難所との重複":"","備考":""}},
{"type":"Feature","geometry":{"type":"Point","coordinates":[135.2062631000,34.6877112000]},"properties":{"Name":"神戸震災復興記念公園（みなとのもり公園）","Jusho":"兵庫県神戸市中央区小野浜町","洪水":"","がけ崩れ、土石流及び地滑り":"","高潮":"","地震":"◎","津波":"","大規模な火事":"◎","内水氾濫":"","火山現象":"","指定避難所との重複":"","備考":""}},
{"type":"Feature","geometry":{"type":"Point","coordinates":[135.1662804000,34.6799670000]},"properties":{"Name":"湊川公園","Jusho":"兵庫県神戸市兵庫区荒田町1-20","洪水":"","がけ崩れ、土石流及び地滑り":"","高潮":"","地震":"◎","津波":"◎","大規模な火事":"◎","内水氾濫":"","火山現象":"","指定避難所との重複":"","備考":""}},
{"type":"Feature","geometry":{"type":"Point","coordinates":[135.1668247000,34.6823501000]},"properties":{"Name":"荒田公園","Jusho":"兵庫県神戸市兵庫区荒田町2-19","洪水":"","がけ崩れ、土石流及び地滑り":"","高潮":"","地震":"◎","津波":"◎","大規模な火事":"◎","内水氾濫":"","火山現象":"","指定避難所との重複":"","備考":""}},
{"type":"Feature","geometry":{"type":"Point","coordinates":[135.1533091000,34.6823332000]},"properties":{"Name":"夢野中学校第２グラウンド","Jusho":"兵庫県神戸市兵庫区鵯越町10-1","洪水":"","がけ崩れ、土石流及び地滑り":"","高潮":"","地震":"◎","津波":"◎","大規模な火事":"◎","内水氾濫":"","火山現象":"","指定避難所との重複":"","備考":""}},
{"type":"Feature","geometry":{"type":"Point","coordinates":[135.1513439872,34.6828279199]},