var iwate = {"type":"FeatureCollection","name":"iwate","features":[
{"type":"Feature","geometry":{"type":"Point","coordinates":[141.1567546000,39.7087227900]},"properties":{"Name":"下小路中学校体育館（大規模火災時は屋外運動場）","Jusho":"岩手県盛岡市愛宕町１-１","Kouzui":"◎","がけ崩れ、土石流及び地滑り":"◎","Takashio":"","地震":"◎","津波":"","大規模な火事":"◎","内水氾濫":"","火山現象":"","指定避難所との重複":"◎","備考":""}},
{"type":"Feature","geometry":{"type":"Point","coordinates":[141.1605690000,39.7132100000]},"properties":{"Name":"愛宕山老人福祉センター","Jusho":"岩手県盛岡市愛宕下14","Kouzui":"◎","がけ崩れ、土石流及び地滑り":"◎","Takashio":"","地震":"","津波":"","大規模な火事":"","内水氾濫":"","火山現象":"","指定避難所との重複":"◎","備考":""}},
{"type":"Feature","geometry":{"type":"Point","coordinates":[141.1482623000,39.7094440900]},"properties":{"Name":"仁王小学校体育館（大規模火災時は屋外運動場）","Jusho":"岩手県盛岡市本町通2-18-1","Kouzui":"◎","がけ崩れ、土石流及び地滑り":"","Takashio":"","地震":"◎","津波":"","大規模な火事":"◎","内水氾濫":"","火山現象":"","指定避難所との重複":"◎","備考":""}},
{"type":"Feature","geometry":{"type":"Point","coordinates":[141.1512455000,39.7004924300]},"properties":{"Name":"盛岡城跡公園(岩手公園）","Jusho":"岩手県盛岡市内丸1-37","Kouzui":"◎","がけ崩れ、土石流及び地滑り":"","Takashio":"","地震":"","津波":"","大規模な火事":"◎","内水氾濫":"","火山現象":"","指定避難所との重複":"","備考":""}},
{"type":"Feature","geometry":{"type":"Point","coordinates":[141.1416212000,39.7041058900]},"properties":{"Name":"桜城小学校体育館（大規模火災時は屋外運動場）","Jusho":"岩手県盛岡市大通3-8-1","Kouzui":"","がけ崩れ、土石流及び地滑り":"","Takashio":"","地震":"◎","津波":"","大規模な火事":"◎","内水氾濫":"","火山現象":"","指定避難所との重複":"◎","備考":""}},
{"type":"Feature","geometry":{"type":"Point","coordinates":[141.1460428000,39.6992499600]},"properties":{"Name":"岩手女子高等学校屋外運動場","Jusho":"岩手県盛岡市大沢川原1-5-34","Kouzui":"","がけ崩れ、土石流及び地滑り":"","Takashio":"","地震":"","津波":"","大規模な火事":"◎","内水氾濫":"","火山現象":"","指定避難所との重複":"","備考":""}},
{"type":"Feature","geometry":{"type":"Point","coordinates":[141.1684968000,39.7142467300]},"properties":{"Name":"山岸小学校体育館（大規模火災時は屋外運動場）","Jusho":"岩手県盛岡市山岸2-13-1","Kouzui":"◎","がけ崩れ、土石流及び地滑り":"◎","Takashio":"","地震":"◎","津波":"","大規模な火事":"◎","内水氾濫":"","火山現象":"","指定避難所との重複":"◎","備考":""}},
{"type":"Feature","geometry":{"type":"Point","coordinates":[141.1655830000,39.7235694200]},"properties":{"Name":"盛岡白百合学園屋外運動場","Jusho":"岩手県盛岡市山岸4-29-16","Kouzui":"","がけ崩れ、土石流及び地滑り":"","Takashio":"","地震":"","津波":"","大規模な火事":"◎","内水氾濫":"","火山現象":"","指定避難所との重複":"","備考":""}},
{"type":"Feature","geometry":{"type":"Point","coordinates":[141.1712620000,39.7205350000]},"properties":{"Name":"山岸地区活動センター","Jusho":"岩手県盛岡市山岸4-11-13","Kouzui":"◎","がけ崩れ、土石流及び地滑り":"◎","Takashio":"","地震":"◎","津波":"","大規模な火事":"","内水氾濫":"","火山現象":"","指定避難所との重複":"◎","備考":""}},
{"type":"Feature","geometry":{"type":"Point","coordinates":[141.2006575000,39.7550040500]},"properties":{"Name":"米内小学校体育館（大規模火災時は屋外運動場）","Jusho":"岩手県盛岡市上米内字米内沢50","Kouzui":"","がけ崩れ、土石流及び地滑り":"","Takashio":"","地震":"◎","津波":"","大規模な火事":"◎","内水氾濫":"","火山現象":"","指定避難所との重複":"◎","備考":""}},
{"type":"Feature","geometry":{"type":"Point","coordinates":[141.1971076000,39.7488127800]},"properties":{"Name":"米内中学校体育館（大規模火災時は屋外運動場）","Jusho":"岩手県盛岡市桜台2-19-1","Kouzui":"","がけ崩れ、土石流及び地滑り":"◎","Takashio":"","地震":"◎","津波":"","大規模な火事":"◎","内水氾濫":"","火山現象":"","指定避難所との重複":"◎","備考":""}},
{"type":"Feature","geometry":{"type":"Point","coordinates":[141.1387462000,39.7100930100]},"properties":{"Name":"河北小学校体育館（Kouzui時は校舎２・３階教室、大規模火災時は屋外運動場）","Jusho":"岩手県盛岡市長田町16-1","Kouzui":"◎","がけ崩れ、土石流及び地滑り":"","Takashio":"","地震":"◎","津波":"","大規模な火事":"◎","内水氾濫":"","火山現象":"","指定避難所との重複":"◎","備考":""}},
{"type":"Feature","geometry":{"type":"Point","coordinates":[141.1380008000,39.7190648000]},"properties":{"Name":"上田小学校体育館（大規模火災時は屋外運動場）","Jusho":"岩手県盛岡市上田3-16-45","Kouzui":"◎","がけ崩れ、土石流及び地滑り":"◎","Takashio":"","地震":"◎","津波":"","大規模な火事":"◎","内水氾濫":"","火山現象":"","指定避難所との重複":"◎","備考":""}},
{"type":"Feature","geometry":{"type":"Point","coordinates":[141.1323125000,39.7196952800]},"properties":{"Name":"岩手大学理工学部グラウンド","Jusho":"岩手県盛岡市上田4-3-5","Kouzui":"◎","がけ崩れ、土石流及び地滑り":"","Takashio":"","地震":"","津波":"","大規模な火事":"◎","内水氾濫":"","火山現象":"","指定避難所との重複":"","備考":""}},
{"type":"Feature","geometry":{"type":"Point","coordinates":[141.1474404000,39.7150999100]},"properties":{"Name":"上田中学校体育館（大規模火災時は屋外運動場）","Jusho":"岩手県盛岡市上田2-1-1","Kouzui":"◎","がけ崩れ、土石流及び地滑り":"◎","Takashio":"","地震":"◎","津波":"","大規模な火事":"◎","内水氾濫":"","火山現象":"","指定避難所との重複":"◎","備考":""}},
{"type":"Feature","geometry":{"type":"Point","coordinates":[141.1476676000,39.7392849400]},"properties":{"Name":"緑が丘小学校体育館（大規模火災時は屋外運動場）","Jusho":"岩手県盛岡市黒石野1-6-1","Kouzui":"","がけ崩れ、土石流及び地滑り":"◎","Takashio":"","地震":"◎","津波":"","大規模な火事":"◎","内水氾濫":"","火山現象":"","指定避難所との重複":"◎","備考":""}},
{"type":"Feature","geometry":{"type":"Point","coordinates":[141.1458220000,39.7424340000]},"properties":{"Name":"緑が丘地区活動センター","Jusho":"岩手県盛岡市黒石野2-14-1","Kouzui":"◎","がけ崩れ、土石流及び地滑り":"◎","Takashio":"","地震":"◎","津波":"","大規模な火事":"","内水氾濫":"","火山現象":"","指定避難所との重複":"◎","備考":""}},
{"type":"Feature","geometry":{"type":"Point","coordinates":[141.1450967000,39.7146128700]},"properties":{"Name":"杜陵高等学校体育館等（大規模火災時は屋外運動場）","Jusho":"岩手県盛岡市上田2-3-1","Kouzui":"◎","がけ崩れ、土石流及び地滑り":"","Takashio":"","地震":"","津波":"","大規模な火事":"◎","内水氾濫":"","火山現象":"","指定避難所との重複":"","備考":""}},
{"type":"Feature","geometry":{"type":"Point","coordinates":[141.1409583000,39.7415896300]},"properties":{"Name":"黒石野中学校体育館（大規模火災時は屋外運動場）","Jusho":"岩手県盛岡市黒石野3-15-1","Kouzui":"◎","がけ崩れ、土石流及び地滑り":"","Takashio":"","地震":"◎","津波":"","大規模な火事":"◎","内水氾濫":"","火山現象":"","指定避難所との重複":"◎","備考":""}},
{"type":"Feature","geometry":{"type":"Point","coordinates":[141.1455550000,39.7215985400]},"properties":{"Name":"高松公園","Jusho":"岩手県盛岡市高松１-26-1","Kouzui":"","がけ崩れ、土石流及び地滑り":"","Takashio":"","地震":"","津波":"","大規模な火事":"◎","内水氾濫":"","火山現象":"","指定避難所との重複":"","備考":""}},
{"type":"Feature","geometry":{"type":"Point","coordinates":[141.1386587000,39.7301868200]},"properties":{"Name":"盛岡第三高等学校屋外運動場","Jusho":"岩手県盛岡市高松4-17-16","Kouzui":"","がけ崩れ、土石流及び地滑り":"","Takashio":"","地震":"","津波":"","大規模な火事":"◎","内水氾濫":"","火山現象":"","指定避難所との重複":"","備考":""}},
{"type":"Feature","geometry":{"type":"Point","coordinates":[141.1385959000,39.7325611900]},"properties":{"Name":"岩手医大緑が丘グラウンド","Jusho":"岩手県盛岡市箱清水1-1","Kouzui":"","がけ崩れ、土石流及び地滑り":"","Takashio":"","地震":"","津波":"","大規模な火事":"◎","内水氾濫":"","火山現象":"","指定避難所との重複":"","備考":""}},
{"type":"Feature","geometry":{"type":"Point","coordinates":[141.1604073000,39.7477919600]},"properties":{"Name":"東黒石野公園","Jusho":"岩手県盛岡市松園1-34-1","Kouzui":"","がけ崩れ、土石流及び地滑り":"","Takashio":"","地震":"","津波":"","大規模な火事":"◎","内水氾濫":"","火山現象":"","指定避難所との重複":"","備考":""}},
{"type":"Feature","geometry":{"type":"Point","coordinates":[141.1618648000,39.7514113400]},"properties":{"Name":"松園小学校体育館（大規模火災時は屋外運動場）","Jusho":"岩手県盛岡市松園3-12-1","Kouzui":"","がけ崩れ、土石流及び地滑り":"◎","Takashio":"","地震":"◎","津波":"","大規模な火事":"◎","内水氾濫":"","火山現象":"","指定避難所との重複":"◎","備考":""}},
{"type":"Feature","geometry":{"type":"Point","coordinates":[141.1682741000,39.7559604300]},"properties":{"Name":"松園中学校体育館（大規模火災時は屋外運動場）","Jusho":"岩手県盛岡市東松園2-14-1","Kouzui":"","がけ崩れ、土石流及び地滑り":"◎","Takashio":"","地震":"◎","津波":"","大規模な火事":"◎","内水氾濫":"","火山現象":"","指定避難所との重複":"◎","備考":""}},
{"type":"Feature","geometry":{"type":"Point","coordinates":[141.1551614000,39.7304110000]},"properties":{"Name":"高松小学校体育館（大規模火災時は屋外運動場）","Jusho":"岩手県盛岡市上田堤2-31-12","Kouzui":"","がけ崩れ、土石流及び地滑り":"◎","Takashio":"","地震":"◎","津波":"","大規模な火事":"◎","内水氾濫":"","火山現象":"","指定避難所との重複":"◎","備考":""}},
{"type":"Feature","geometry":{"type":"Point","coordinates":[141.1624361000,39.7308999200]},"properties":{"Name":"県営野球場第１駐車場","Jusho":"岩手県盛岡市三ツ割4-9","Kouzui":"","がけ崩れ、土石流及び地滑り":"","Takashio":"","地震":"","津波":"","大規模な火事":"◎","内水氾濫":"","火山現象":"","指定避難所との重複":"","備考":""}},
{"type":"Feature","geometry":{"type":"Point","coordinates":[141.1557300000,39.7308380000]},"properties":{"Name":"高松児童センター","Jusho":"岩手県盛岡市上田字宇登坂長根41-3","Kouzui":"","がけ崩れ、土石流及び地滑り":"◎","Takashio":"","地震":"◎","津波":"","大規模な火事":"","内水氾濫":"","火山現象":"","指定避難所との重複":"◎","備考":""}},
{"type":"Feature","geometry":{"type":"Point","coordinates":[141.1640407000,39.7570806200]},"properties":{"Name":"東松園小学校体育館（大規模火災時は屋外運動場）","Jusho":"岩手県盛岡市東松園2-5-1","Kouzui":"","がけ崩れ、土石流及び地滑り":"◎","Takashio":"","地震":"◎","津波":"","大規模な火事":"◎","内水氾濫":"","火山現象":"","指定避難所との重複":"◎","備考":""}},
{"type":"Feature","geometry":{"type":"Point","coordinates":[141.1646995000,39.7550413800]},"properties":{"Name":"松園中央公園","Jusho":"岩手県盛岡市東松園2-4-1","Kouzui":"","がけ崩れ、土石流及び地滑り":"","Takashio":"","地震":"","津波":"","大規模な火事":"◎","内水氾濫":"","火山現象":"","指定避難所との重複":"","備考":""}},
{"type":"Feature","geometry":{"type":"Point","coordinates":[141.1623695000,39.7541381700]},"properties":{"Name":"松園地区活動センター","Jusho":"岩手県盛岡市西松園2-18-1","Kouzui":"","がけ崩れ、土石流及び地滑り":"◎","Takashio":"","地震":"◎","津波":"","大規模な火事":"","内水氾濫":"","火山現象":"","指定避難所との重複":"◎","備考":""}},
{"type":"Feature","geometry":{"type":"Point","coordinates":[141.1720085000,39.7599917300]},"properties":{"Name":"北松園小学校体育館（大規模火災時は屋外運動場）","Jusho":"岩手県盛岡市北松園2-12-1","Kouzui":"","がけ崩れ、土石流及び地滑り":"◎","Takashio":"","地震":"◎","津波":"","大規模な火事":"◎","内水氾濫":"","火山現象":"","指定避難所との重複":"◎","備考":""}},
{"type":"Feature","geometry":{"type":"Point","coordinates":[141.1764291000,39.7601314800]},"properties":{"Name":"北松園中学校体育館（大規模火災時は屋外運動場）","Jusho":"岩手県盛岡市北松園4-34-1","Kouzui":"","がけ崩れ、土石流及び地滑り":"◎","Takashio":"","地震":"◎","津波":"","大規模な火事":"◎","内水氾濫":"","火山現象":"","指定避難所との重複":"◎","備考":""}},
{"type":"Feature","geometry":{"type":"Point","coordinates":[141.1719229000,39.7547863600]},"properties":{"Name":"緑の里近隣公園","Jusho":"岩手県盛岡市北松園１-23-1","Kouzui":"","がけ崩れ、土石流及び地滑り":"","Takashio":"","地震":"","津波":"","大規模な火事":"◎","内水氾濫":"","火山現象":"","指定避難所との重複":"","備考":""}},
{"type":"Feature","geometry":{"type":"Point","coordinates":[141.1496662000,39.7102144900]},"properties":{"Name":"仁王児童・老人福祉センター","Jusho":"岩手県盛岡市名須川町21-1","Kouzui":"◎","がけ崩れ、土石流及び地滑り":"","Takashio":"","地震":"◎","津波":"","大規模な火事":"","内水氾濫":"","火山現象":"","指定避難所との重複":"◎","備考":""}},
{"type":"Feature","geometry":{"type":"Point","coordinates":[141.1743256000,39.7157451000]},"properties":{"Name":"山岸児童・老人福祉センター","Jusho":"岩手県盛岡市下米内1-3-18","Kouzui":"","がけ崩れ、土石流及び地滑り":"◎","Takashio":"","地震":"◎","津波":"","大規模な火事":"","内水氾濫":"","火山現象":"","指定避難所との重複":"◎","備考":""}},
{"type":"Feature","geometry":{"type":"Point","coordinates":[141.1620208000,39.7542742700]},"properties":{"Name":"松園児童・老人福祉センター","Jusho":"岩手県盛岡市西松園2-18-1","Kouzui":"","がけ崩れ、土石流及び地滑り":"◎","Takashio":"","地震":"","津波":"","大規模な火事":"","内水氾濫":"","火山現象":"","指定避難所との重複":"◎","備考":""}},
{"type":"Feature","geometry":{"type":"Point","coordinates":[141.1404267000,39.7038249000]},"properties":{"Name":"桜城児童・老人福祉センター","Jusho":"岩手県盛岡市大通3-8-18","Kouzui":"","がけ崩れ、土石流及び地滑り":"","Takashio":"","地震":"◎","津波":"","大規模な火事":"","内水氾濫":"","火山現象":"","指定避難所との重複":"◎","備考":""}},
{"type":"Feature","geometry":{"type":"Point","coordinates":[141.1747220000,39.7601170000]},"properties":{"Name":"北松園児童・老人福祉センター","Jusho":"岩手県盛岡市北松園4-1-4","Kouzui":"","がけ崩れ、土石流及び地滑り":"◎","Takashio":"","地震":"◎","津波":"","大規模な火事":"","内水氾濫":"","火山現象":"","指定避難所との重複":"◎","備考":""}},
{"type":"Feature","geometry":{"type":"Point","coordinates":[141.1348910000,39.7212670000]},"properties":{"Name":"上田児童・老人福祉センター","Jusho":"岩手県盛岡市上田4-5-18","Kouzui":"◎","がけ崩れ、土石流及び地滑り":"◎","Takashio":"","地震":"◎","津波":"","大規模な火事":"","内水氾濫":"","火山現象":"","指定避難所との重複":"◎","備考":""}},
{"type":"Feature","geometry":{"type":"Point","coordinates":[141.1350660000,39.7130493500]},"properties":{"Name":"河北児童センター","Jusho":"岩手県盛岡市西下台町10-46","Kouzui":"","がけ崩れ、土石流及び地滑り":"","Takashio":"","地震":"◎","津波":"","大規模な火事":"","内水氾濫":"","火山現象":"","指定避難所との重複":"◎","備考":""}},
{"type":"Feature","geometry":{"type":"Point","coordinates":[141.1447878000,39.7374733100]},"properties":{"Name":"緑が丘児童・老人福祉センター","Jusho":"岩手県盛岡市緑が丘3-19-18","Kouzui":"◎","がけ崩れ、土石流及び地滑り":"◎","Takashio":"","地震":"◎","津波":"","大規模な火事":"","内水氾濫":"","火山現象":"","指定避難所との重複":"◎","備考":""}},
{"type":"Feature","geometry":{"type":"Point","coordinates":[141.1419942000,39.7283240500]},"properties":{"Name":"高松老人憩いの家","Jusho":"岩手県盛岡市高松3-8-53","Kouzui":"◎","がけ崩れ、土石流及び地滑り":"◎","Takashio":"","地震":"◎","津波":"","大規模な火事":"","内水氾濫":"","火山現象":"","指定避難所との重複":"◎","備考":""}},
{"type":"Feature","geometry":{"type":"Point","coordinates":[141.1717290000,39.7280750000]},"properties":{"Name":"山岸老人憩いの家","Jusho":"岩手県盛岡市山岸6-13-13","Kouzui":"","がけ崩れ、土石流及び地滑り":"◎","Takashio":"","地震":"◎","津波":"","大規模な火事":"","内水氾濫":"","火山現象":"","指定避難所との重複":"◎","備考":""}},
{"type":"Feature","geometry":{"type":"Point","coordinates":[141.1967140000,39.7491570300]},"properties":{"Name":"上米内児童・老人福祉センター","Jusho":"岩手県盛岡市桜台2-18-15","Kouzui":"","がけ崩れ、土石流及び地滑り":"◎","Takashio":"","地震":"◎","津波":"","大規模な火事":"","内水氾濫":"","火山現象":"","指定避難所との重複":"◎","備考":""}},
{"type":"Feature","geometry":{"type":"Point","coordinates":[141.1454880000,39.7297570000]},"properties":{"Name":"軽費老人ホームケアガーデン高松公園","Jusho":"岩手県盛岡市上田字毛無森2-7","Kouzui":"","がけ崩れ、土石流及び地滑り":"◎","Takashio":"","地震":"","津波":"","大規模な火事":"","内水氾濫":"","火山現象":"","指定避難所との重複":"◎","備考":""}},
{"type":"Feature","geometry":{"type":"Point","coordinates":[141.1411436000,39.7134125200]},"properties":{"Name":"盛岡第一高等学校体育館等（大規模火災時は屋外運動場）","Jusho":"岩手県盛岡市上田3-2-1","Kouzui":"◎","がけ崩れ、土石流及び地滑り":"","Takashio":"","地震":"","津波":"","大規模な火事":"◎","内水氾濫":"","火山現象":"","指定避難所との重複":"","備考":""}},
{"type":"Feature","geometry":{"type":"Point","coordinates":[141.1381165000,39.7204245200]},"properties":{"Name":"上田公民館","Jusho":"岩手県盛岡市上田4-1-1","Kouzui":"","がけ崩れ、土石流及び地滑り":"◎","Takashio":"","地震":"◎","津波":"","大規模な火事":"","内水氾濫":"","火山現象":"","指定避難所との重複":"◎","備考":""}},
{"type":"Feature","geometry":{"type":"Point","coordinates":[141.1577881000,39.7271137800]},"properties":{"Name":"仁王地区活動センター","Jusho":"岩手県盛岡市三ツ割字下更ノ沢26-４","Kouzui":"","がけ崩れ、土石流及び地滑り":"◎","Takashio":"","地震":"◎","津波":"","大規模な火事":"","内水氾濫":"","火山現象":"","指定避難所との重複":"◎","備考":""}},
{"type":"Feature","geometry":{"type":"Point","coordinates":[141.1285622000,39.7132151100]},"properties":{"Name":"厨川小学校体育館（Kouzui時は校舎２階・３階、大規模火災時は屋外運動場）","Jusho":"岩手県盛岡市前九年1-2-1","Kouzui":"◎","がけ崩れ、土石流及び地滑り":"◎","Takashio":"","地震":"◎","津波":"","大規模な火事":"◎","内水氾濫":"","火山現象":"","指定避難所との重複":"◎","備考":""}},
{"type":"Feature","geometry":{"type":"Point","coordinates":[141.1276993000,39.7041415700]},"properties":{"Name":"城西中学校体育館（Kouzui時は校舎２・３階教室、大規模火災時は屋外運動場）","Jusho":"岩手県盛岡市城西町4-1","Kouzui":"◎","がけ崩れ、土石流及び地滑り":"","Takashio":"","地震":"◎","津波":"","大規模な火事":"◎","内水氾濫":"","火山現象":"","指定避難所との重複":"◎","備考":""}},
{"type":"Feature","geometry":{"type":"Point","coordinates":[141.1210769000,39.7171558000]},"properties":{"Name":"厨川地区活動センター","Jusho":"岩手県盛岡市前九年3-7-1","Kouzui":"◎","がけ崩れ、土石流及び地滑り":"◎","Takashio":"","地震":"◎","津波":"","大規模な火事":"","内水氾濫":"","火山現象":"","指定避難所との重複":"◎","備考":""}},
{"type":"Feature","geometry":{"type":"Point","coordinates":[141.1140793000,39.7245169300]},"properties":{"Name":"青山小学校体育館（大規模火災時は屋外運動場）","Jusho":"岩手県盛岡市青山2-7-2","Kouzui":"◎","がけ崩れ、土石流及び地滑り":"","Takashio":"","地震":"◎","津波":"","大規模な火事":"◎","内水氾濫":"","火山現象":"◎","指定避難所との重複":"◎","備考":""}},
{"type":"Feature","geometry":{"type":"Point","coordinates":[141.1167491000,39.7232730100]},"properties":{"Name":"厨川中学校体育館（大規模火災時は屋外運動場）","Jusho":"岩手県盛岡市青山2-7-1","Kouzui":"◎","がけ崩れ、土石流及び地滑り":"","Takashio":"","地震":"◎","津波":"","大規模な火事":"◎","内水氾濫":"","火山現象":"◎","指定避難所との重複":"◎","備考":""}},
{"type":"Feature","geometry":{"type":"Point","coordinates":[141.1107067000,39.7279741600]},"properties":{"Name":"青山地区活動センター","Jusho":"岩手県盛岡市青山3-37-7","Kouzui":"◎","がけ崩れ、土石流及び地滑り":"","Takashio":"","地震":"◎","津波":"","大規模な火事":"","内水氾濫":"","火山現象":"","指定避難所との重複":"◎","備考":""}},
{"type":"Feature","geometry":{"type":"Point","coordinates":[141.1138494000,39.7255498900]},"properties":{"Name":"青山児童センター","Jusho":"岩手県盛岡市青山2-6-11","Kouzui":"◎","がけ崩れ、土石流及び地滑り":"","Takashio":"","地震":"","津波":"","大規模な火事":"","内水氾濫":"","火山現象":"","指定避難所との重複":"◎","備考":""}},
{"type":"Feature","geometry":{"type":"Point","coordinates":[141.1030091000,39.7293381700]},"properties":{"Name":"中央自動車学校自動車練習場","Jusho":"岩手県盛岡市西青山2-31-11","Kouzui":"","がけ崩れ、土石流及び地滑り":"","Takashio":"","地震":"","津波":"","大規模な火事":"◎","内水氾濫":"","火山現象":"","指定避難所との重複":"","備考":""}},
{"type":"Feature","geometry":{"type":"Point","coordinates":[141.1221041000,39.7172320800]},"properties":{"Name":"前九年公園","Jusho":"岩手県盛岡市前九年3-7-1","Kouzui":"","がけ崩れ、土石流及び地滑り":"","Takashio":"","地震":"","津波":"","大規模な火事":"◎","内水氾濫":"","火山現象":"","指定避難所との重複":"","備考":""}},
{"type":"Feature","geometry":{"type":"Point","coordinates":[141.1346715000,39.7507083400]},"properties":{"Name":"北厨川小学校体育館（大規模火災時は屋外運動場）","Jusho":"岩手県盛岡市厨川3-5-1","Kouzui":"◎","がけ崩れ、土石流及び地滑り":"","Takashio":"","地震":"◎","津波":"","大規模な火事":"◎","内水氾濫":"","火山現象":"","指定避難所との重複":"◎","備考":""}},
{"type":"Feature","geometry":{"type":"Point","coordinates":[141.1370013000,39.7423844100]},"properties":{"Name":"杜陵学園体育館（大規模火災時は屋外運動場）","Jusho":"岩手県盛岡市厨川2-3-1","Kouzui":"◎","がけ崩れ、土石流及び地滑り":"◎","Takashio":"","地震":"","津波":"","大規模な火事":"◎","内水氾濫":"","火山現象":"","指定避難所との重複":"","備考":""}},
{"type":"Feature","geometry":{"type":"Point","coordinates":[141.1180020000,39.7334655900]},"properties":{"Name":"県営運動公園","Jusho":"岩手県盛岡市みたけ1-10-1","Kouzui":"","がけ崩れ、土石流及び地滑り":"","Takashio":"","地震":"","津波":"","大規模な火事":"◎","内水氾濫":"","火山現象":"","指定避難所との重複":"","備考":""}},
{"type":"Feature","geometry":{"type":"Point","coordinates":[141.1134417000,39.7393503900]},"properties":{"Name":"城北小学校体育館（大規模火災時は屋外運動場）","Jusho":"岩手県盛岡市みたけ3-12-1","Kouzui":"◎","がけ崩れ、土石流及び地滑り":"","Takashio":"","地震":"◎","津波":"","大規模な火事":"◎","内水氾濫":"","火山現象":"◎","指定避難所との重複":"◎","備考":""}},
{"type":"Feature","geometry":{"type":"Point","coordinates":[141.1163501000,39.7494944900]},"properties":{"Name":"北陵中学校体育館（大規模火災時は屋外運動場）","Jusho":"岩手県滝沢市穴口419","Kouzui":"◎","がけ崩れ、土石流及び地滑り":"","Takashio":"","地震":"◎","津波":"","大規模な火事":"◎","内水氾濫":"","火山現象":"","指定避難所との重複":"◎","備考":""}},
{"type":"Feature","geometry":{"type":"Point","coordinates":[141.1210377000,39.7428207800]},"properties":{"Name":"みたけ地区活動センター","Jusho":"岩手県盛岡市みたけ4-10-52","Kouzui":"◎","がけ崩れ、土石流及び地滑り":"","Takashio":"","地震":"◎","津波":"","大規模な火事":"","内水氾濫":"","火山現象":"","指定避難所との重複":"◎","備考":""}},
{"type":"Feature","geometry":{"type":"Point","coordinates":[141.1187871000,39.7452392700]},"properties":{"Name":"みたけ児童センター","Jusho":"岩手県盛岡市みたけ4-14-36","Kouzui":"◎","がけ崩れ、土石流及び地滑り":"","Takashio":"","地震":"◎","津波":"","大規模な火事":"","内水氾濫":"","火山現象":"","指定避難所との重複":"◎","備考":""}},
{"type":"Feature","geometry":{"type":"Point","coordinates":[141.1148384000,39.7177812900]},"properties":{"Name":"大新小学校体育館（大規模火災時は屋外運動場）","Jusho":"岩手県盛岡市南青山町6-10","Kouzui":"◎","がけ崩れ、土石流及び地滑り":"","Takashio":"","地震":"◎","津波":"","大規模な火事":"◎","内水氾濫":"","火山現象":"◎","指定避難所との重複":"◎","備考":""}},
{"type":"Feature","geometry":{"type":"Point","coordinates":[141.1124362000,39.7095065300]},"properties":{"Name":"盛岡自動車学校自動車練習場","Jusho":"岩手県盛岡市稲荷町3-9","Kouzui":"","がけ崩れ、土石流及び地滑り":"","Takashio":"","地震":"","津波":"","大規模な火事":"◎","内水氾濫":"","火山現象":"","指定避難所との重複":"","備考":""}},
{"type":"Feature","geometry":{"type":"Point","coordinates":[141.1085700000,39.7319841300]},"properties":{"Name":"月が丘児童公園","Jusho":"岩手県盛岡市月が丘2-4-1","Kouzui":"","がけ崩れ、土石流及び地滑り":"","Takashio":"","地震":"","津波":"","大規模な火事":"◎","内水氾濫":"","火山現象":"","指定避難所との重複":"","備考":""}},
{"type":"Feature","geometry":{"type":"Point","coordinates":[141.1139919000,39.7191547700]},"properties":{"Name":"大新児童館","Jusho":"岩手県盛岡市南青山町13-3","Kouzui":"◎","がけ崩れ、土石流及び地滑り":"","Takashio":"","地震":"","津波":"","大規模な火事":"","内水氾濫":"","火山現象":"","指定避難所との重複":"◎","備考":""}},
{"type":"Feature","geometry":{"type":"Point","coordinates":[141.1224840000,39.7059510000]},"properties":{"Name":"城西児童センター（Kouzui時は２階）","Jusho":"岩手県盛岡市中屋敷町1-57","Kouzui":"◎","がけ崩れ、土石流及び地滑り":"","Takashio":"","地震":"◎","津波":"","大規模な火事":"","内水氾濫":"","火山現象":"","指定避難所との重複":"◎","備考":""}},
{"type":"Feature","geometry":{"type":"Point","coordinates":[141.1083170000,39.7313650000]},"properties":{"Name":"月が丘児童センター","Jusho":"岩手県盛岡市月が丘2-2-65","Kouzui":"","がけ崩れ、土石流及び地滑り":"","Takashio":"","地震":"◎","津波":"","大規模な火事":"","内水氾濫":"","火山現象":"","指定避難所との重複":"◎","備考":""}},
{"type":"Feature","geometry":{"type":"Point","coordinates":[141.1033303000,39.7340117400]},"properties":{"Name":"月が丘小学校体育館（大規模火災時は屋外運動場）","Jusho":"岩手県滝沢市穴口328","Kouzui":"","がけ崩れ、土石流及び地滑り":"","Takashio":"","地震":"◎","津波":"","大規模な火事":"◎","内水氾濫":"","火山現象":"","指定避難所との重複":"◎","備考":""}},
{"type":"Feature","geometry":{"type":"Point","coordinates":[141.0913190000,39.7129400300]},"properties":{"Name":"土淵小・中学校体育館（大規模火災時は屋外運動場）","Jusho":"岩手県盛岡市土淵字幅2-3","Kouzui":"◎","がけ崩れ、土石流及び地滑り":"","Takashio":"","地震":"◎","津波":"","大規模な火事":"◎","内水氾濫":"","火山現象":"◎","指定避難所との重複":"◎","備考":""}},
{"type":"Feature","geometry":{"type":"Point","coordinates":[141.0968680000,39.7102842300]},"properties":{"Name":"土淵地区活動センター","Jusho":"岩手県盛岡市前潟4-4-30","Kouzui":"◎","がけ崩れ、土石流及び地滑り":"","Takashio":"","地震":"◎","津波":"","大規模な火事":"","内水氾濫":"","火山現象":"","指定避難所との重複":"◎","備考":""}},
{"type":"Feature","geometry":{"type":"Point","coordinates":[141.1335597000,39.7011342300]},"properties":{"Name":"マリオス（Kouzui時は、３、４、20階、地震時は市民文化ホール）","Jusho":"岩手県盛岡市盛岡駅西通2-9-1","Kouzui":"◎","がけ崩れ、土石流及び地滑り":"","Takashio":"","地震":"◎","津波":"","大規模な火事":"","内水氾濫":"","火山現象":"","指定避難所との重複":"","備考":""}},
{"type":"Feature","geometry":{"type":"Point","coordinates":[141.1107180000,39.7280740000]},"properties":{"Name":"青山老人福祉センター","Jusho":"岩手県盛岡市青山3-37-7","Kouzui":"◎","がけ崩れ、土石流及び地滑り":"","Takashio":"","地震":"◎","津波":"","大規模な火事":"","内水氾濫":"","火山現象":"","指定避難所との重複":"◎","備考":""}},
{"type":"Feature","geometry":{"type":"Point","coordinates":[141.1312990000,39.7454950000]},"properties":{"Name":"北厨川児童・老人福祉センター","Jusho":"岩手県盛岡市厨川1-14-1","Kouzui":"◎","がけ崩れ、土石流及び地滑り":"◎","Takashio":"","地震":"◎","津波":"","大規模な火事":"","内水氾濫":"","火山現象":"","指定避難所との重複":"◎","備考":""}},
{"type":"Feature","geometry":{"type":"Point","coordinates":[141.1271790000,39.7286190000]},"properties":{"Name":"上堂児童・老人福祉センター","Jusho":"岩手県盛岡市上堂3-17-10","Kouzui":"◎","がけ崩れ、土石流及び地滑り":"◎","Takashio":"","地震":"◎","津波":"","大規模な火事":"","内水氾濫":"","火山現象":"","指定避難所との重複":"◎","備考":""}},
{"type":"Feature","geometry":{"type":"Point","coordinates":[141.1211063000,39.7168277000]},"properties":{"Name":"厨川児童・老人福祉センター","Jusho":"岩手県盛岡市前九年3-7-1","Kouzui":"◎","がけ崩れ、土石流及び地滑り":"◎","Takashio":"","地震":"","津波":"","大規模な火事":"","内水氾濫":"","火山現象":"","指定避難所との重複":"◎","備考":""}},
{"type":"Feature","geometry":{"type":"Point","coordinates":[141.1022320000,39.7223410000]},"properties":{"Name":"西青山老人憩いの家","Jusho":"岩手県盛岡市西青山3-6-30","Kouzui":"","がけ崩れ、土石流及び地滑り":"","Takashio":"","地震":"◎","津波":"","大規模な火事":"","内水氾濫":"","火山現象":"","指定避難所との重複":"◎","備考":""}},
{"type":"Feature","geometry":{"type":"Point","coordinates":[141.1159596000,39.7184291200]},"properties":{"Name":"西部公民館","Jusho":"岩手県盛岡市南青山町6-1","Kouzui":"◎","がけ崩れ、土石流及び地滑り":"","Takashio":"","地震":"◎","津波":"","大規模な火事":"","内水氾濫":"","火山現象":"","指定避難所との重複":"◎","備考":""}},
{"type":"Feature","geometry":{"type":"Point","coordinates":[141.1174840000,39.7123840000]},"properties":{"Name":"西厨川老人福祉センター","Jusho":"岩手県盛岡市北天昌寺町7-27","Kouzui":"◎","がけ崩れ、土石流及び地滑り":"","Takashio":"","地震":"◎","津波":"","大規模な火事":"","内水氾濫":"","火山現象":"","指定避難所との重複":"◎","備考":""}},
{"type":"Feature","geometry":{"type":"Point","coordinates":[141.1327623000,39.7018516100]},"properties":{"Name":"アイーナ（３～５階共有部分、岩手県国際交流センター等）","Jusho":"岩手県盛岡市盛岡駅西通1-7-1","Kouzui":"◎","がけ崩れ、土石流及び地滑り":"","Takashio":"","地震":"","津波":"","大規模な火事":"","内水氾濫":"","火山現象":"","指定避難所との重複":"◎","備考":""}},
{"type":"Feature","geometry":{"type":"Point","coordinates":[141.1526122000,39.6863396000]},"properties":{"Name":"仙北小学校体育館（Kouzui時は校舎３階、大規模火災時は屋外運動場）","Jusho":"岩手県盛岡市仙北2-19-1","Kouzui":"◎","がけ崩れ、土石流及び地滑り":"","Takashio":"","地震":"◎","津波":"","大規模な火事":"◎","内水氾濫":"","火山現象":"","指定避難所との重複":"◎","備考":""}},
{"type":"Feature","geometry":{"type":"Point","coordinates":[141.1529453000,39.6835808000]},"properties":{"Name":"仙北中学校体育館（Kouzui時は校舎３・４階教室も含む。大規模火災時は屋外運動場）","Jusho":"岩手県盛岡市仙北3-18-1","Kouzui":"◎","がけ崩れ、土石流及び地滑り":"","Takashio":"","地震":"◎","津波":"","大規模な火事":"◎","内水氾濫":"","火山現象":"","指定避難所との重複":"◎","備考":""}},
{"type":"Feature","geometry":{"type":"Point","coordinates":[141.1495320000,39.6859600000]},"properties":{"Name":"仙北地区活動センター","Jusho":"岩手県盛岡市仙北2-4-13","Kouzui":"","がけ崩れ、土石流及び地滑り":"","Takashio":"","地震":"◎","津波":"","大規模な火事":"","内水氾濫":"","火山現象":"","指定避難所との重複":"◎","備考":""}},
{"type":"Feature","geometry":{"type":"Point","coordinates":[141.1422020000,39.6886522700]},"properties":{"Name":"盛南公園","Jusho":"岩手県盛岡市本宮1-19","Kouzui":"","がけ崩れ、土石流及び地滑り":"","Takashio":"","地震":"","津波":"","大規模な火事":"◎","内水氾濫":"","火山現象":"","指定避難所との重複":"","備考":""}},
{"type":"Feature","geometry":{"type":"Point","coordinates":[141.1393007000,39.6878639100]},"properties":{"Name":"本宮小学校体育館（Kouzui時は校舎２・３階、大規模火災時は屋外運動場）","Jusho":"岩手県盛岡市本宮2-25-1","Kouzui":"◎","がけ崩れ、土石流及び地滑り":"","Takashio":"","地震":"◎","津波":"","大規模な火事":"◎","内水氾濫":"","火山現象":"","指定避難所との重複":"◎","備考":""}},
{"type":"Feature","geometry":{"type":"Point","coordinates":[141.1126541000,39.6842834000]},"properties":{"Name":"大宮中学校体育館（大規模火災時は屋外運動場）","Jusho":"岩手県盛岡市本宮字大宮5-1","Kouzui":"◎","がけ崩れ、土石流及び地滑り":"","Takashio":"","地震":"◎","津波":"","大規模な火事":"◎","内水氾濫":"","火山現象":"","指定避難所との重複":"◎","備考":""}},
{"type":"Feature","geometry":{"type":"Point","coordinates":[141.1297991000,39.6876560900]},"properties":{"Name":"本宮地区活動センター","Jusho":"岩手県盛岡市本宮4-38-26","Kouzui":"◎","がけ崩れ、土石流及び地滑り":"","Takashio":"","地震":"◎","津波":"","大規模な火事":"","内水氾濫":"","火山現象":"","指定避難所との重複":"◎","備考":""}},
{"type":"Feature","geometry":{"type":"Point","coordinates":[141.1417427000,39.6813113400]},"properties":{"Name":"向中野小学校体育館（Kouzui時は、校舎２・３階教室、大規模火災時は屋外運動場）","Jusho":"岩手県盛岡市向中野2-39-27","Kouzui":"◎","がけ崩れ、土石流及び地滑り":"","Takashio":"","地震":"◎","津波":"","大規模な火事":"◎","内水氾濫":"","火山現象":"","指定避難所との重複":"◎","備考":""}},
{"type":"Feature","geometry":{"type":"Point","coordinates":[141.1382726000,39.6861388400]},"properties":{"Name":"盛岡商業高等学校屋外運動場","Jusho":"岩手県盛岡市本宮2-35-1","Kouzui":"","がけ崩れ、土石流及び地滑り":"","Takashio":"","地震":"","津波":"","大規模な火事":"◎","内水氾濫":"","火山現象":"","指定避難所との重複":"","備考":""}},
{"type":"Feature","geometry":{"type":"Point","coordinates":[141.1265654000,39.6936381400]},"properties":{"Name":"中央公園","Jusho":"岩手県盛岡市本宮字蛇屋敷7-1","Kouzui":"","がけ崩れ、土石流及び地滑り":"","Takashio":"","地震":"","津波":"","大規模な火事":"◎","内水氾濫":"","火山現象":"","指定避難所との重複":"","備考":""}},
{"type":"Feature","geometry":{"type":"Point","coordinates":[141.0804461000,39.6883841100]},"properties":{"Name":"太田小学校体育館（大規模火災時は屋外運動場）","Jusho":"岩手県盛岡市上太田上吉本1-1","Kouzui":"","がけ崩れ、土石流及び地滑り":"◎","Takashio":"","地震":"◎","津波":"","大規模な火事":"◎","内水氾濫":"","火山現象":"","指定避難所との重複":"◎","備考":""}},
{"type":"Feature","geometry":{"type":"Point","coordinates":[141.0969032000,39.6939271000]},"properties":{"Name":"太田東小学校体育館（大規模火災時は屋外運動場）","Jusho":"岩手県盛岡市上太田上野屋敷8-1","Kouzui":"◎","がけ崩れ、土石流及び地滑り":"","Takashio":"","地震":"◎","津波":"","大規模な火事":"◎","内水氾濫":"","火山現象":"","指定避難所との重複":"◎","備考":""}},
{"type":"Feature","geometry":{"type":"Point","coordinates":[141.0866524000,39.6999044400]},"properties":{"Name":"市立高等学校屋外運動場","Jusho":"岩手県盛岡市上太田上川原96","Kouzui":"","がけ崩れ、土石流及び地滑り":"","Takashio":"","地震":"","津波":"","大規模な火事":"◎","内水氾濫":"","火山現象":"","指定避難所との重複":"◎","備考":""}},
{"type":"Feature","geometry":{"type":"Point","coordinates":[141.1007106000,39.6931826000]},"properties":{"Name":"太田地区活動センター","Jusho":"岩手県盛岡市中太田深持9","Kouzui":"◎","がけ崩れ、土石流及び地滑り":"","Takashio":"","地震":"◎","津波":"","大規模な火事":"","内水氾濫":"","火山現象":"","指定避難所との重複":"◎","備考":""}},
{"type":"Feature","geometry":{"type":"Point","coordinates":[141.0190767000,39.6744542800]},"properties":{"Name":"繋小・中学校体育館（大規模火災時は屋外運動場）","Jusho":"岩手県盛岡市繋字舘市114-1","Kouzui":"","がけ崩れ、土石流及び地滑り":"◎","Takashio":"","地震":"◎","津波":"","大規模な火事":"◎","内水氾濫":"","火山現象":"","指定避難所との重複":"◎","備考":""}},
{"type":"Feature","geometry":{"type":"Point","coordinates":[141.0150120000,39.6836577100]},"properties":{"Name":"つなぎ地区活動センター","Jusho":"岩手県盛岡市繋字堂ヶ沢36-1","Kouzui":"","がけ崩れ、土石流及び地滑り":"◎","Takashio":"","地震":"◎","津波":"","大規模な火事":"","内水氾濫":"","火山現象":"","指定避難所との重複":"◎","備考":""}},
{"type":"Feature","geometry":{"type":"Point","coordinates":[141.0201973000,39.6745197700]},"properties":{"Name":"つなぎ老人憩いの家","Jusho":"岩手県盛岡市繋字舘市100-10","Kouzui":"","がけ崩れ、土石流及び地滑り":"","Takashio":"","地震":"◎","津波":"","大規模な火事":"","内水氾濫":"","火山現象":"","指定避難所との重複":"◎","備考":""}},
{"type":"Feature","geometry":{"type":"Point","coordinates":[141.0248579000,39.6946220000]},"properties":{"Name":"盛岡地域地場産業振興センター駐車場","Jusho":"岩手県盛岡市繋字尾入野64-102","Kouzui":"","がけ崩れ、土石流及び地滑り":"","Takashio":"","地震":"","津波":"","大規模な火事":"◎","内水氾濫":"","火山現象":"","指定避難所との重複":"","備考":""}},
{"type":"Feature","geometry":{"type":"Point","coordinates":[141.0004450000,39.6673519100]},"properties":{"Name":"つなぎ多目的運動場","Jusho":"岩手県盛岡市繋字除キ32-1","Kouzui":"","がけ崩れ、土石流及び地滑り":"","Takashio":"","地震":"","津波":"","大規模な火事":"◎","内水氾濫":"","火山現象":"","指定避難所との重複":"","備考":""}},
{"type":"Feature","geometry":{"type":"Point","coordinates":[141.1548628000,39.6642842700]},"properties":{"Name":"津志田小学校体育館（大規模火災時は津志田近隣公園）","Jusho":"岩手県盛岡市津志田中央1-8-40","Kouzui":"◎","がけ崩れ、土石流及び地滑り":"","Takashio":"","地震":"◎","津波":"","大規模な火事":"◎","内水氾濫":"","火山現象":"","指定避難所との重複":"◎","備考":""}},
{"type":"Feature","geometry":{"type":"Point","coordinates":[141.1567620000,39.6610520000]},"properties":{"Name":"津志田児童センター","Jusho":"岩手県盛岡市津志田中央2-11-1","Kouzui":"","がけ崩れ、土石流及び地滑り":"","Takashio":"","地震":"◎","津波":"","大規模な火事":"","内水氾濫":"","火山現象":"","指定避難所との重複":"◎","備考":""}},
{"type":"Feature","geometry":{"type":"Point","coordinates":[141.1587368000,39.6550609200]},"properties":{"Name":"見前中学校体育館（大規模火災時は屋外運動場）","Jusho":"岩手県盛岡市津志田14-34","Kouzui":"◎","がけ崩れ、土石流及び地滑り":"","Takashio":"","地震":"◎","津波":"","大規模な火事":"◎","内水氾濫":"","火山現象":"","指定避難所との重複":"◎","備考":""}},
{"type":"Feature","geometry":{"type":"Point","coordinates":[141.1578401000,39.6716722800]},"properties":{"Name":"盛岡第四高等学校体育館等（大規模火災時は屋外運動場）","Jusho":"岩手県盛岡市津志田26-17-1","Kouzui":"◎","がけ崩れ、土石流及び地滑り":"","Takashio":"","地震":"","津波":"","大規模な火事":"◎","内水氾濫":"","火山現象":"","指定避難所との重複":"","備考":""}},
{"type":"Feature","geometry":{"type":"Point","coordinates":[141.1620071000,39.6485161600]},"properties":{"Name":"見前小学校体育館（大規模火災時は屋外運動場）","Jusho":"岩手県盛岡市西見前18-17-2","Kouzui":"◎","がけ崩れ、土石流及び地滑り":"","Takashio":"","地震":"◎","津波":"","大規模な火事":"◎","内水氾濫":"","火山現象":"","指定避難所との重複":"◎","備考":""}},
{"type":"Feature","geometry":{"type":"Point","coordinates":[141.1638631000,39.6392447900]},"properties":{"Name":"見前南小学校体育館（大規模火災時は屋外運動場）","Jusho":"岩手県盛岡市西見前13-167","Kouzui":"◎","がけ崩れ、土石流及び地滑り":"","Takashio":"","地震":"◎","津波":"","大規模な火事":"◎","内水氾濫":"","火山現象":"","指定避難所との重複":"◎","備考":""}},
{"type":"Feature","geometry":{"type":"Point","coordinates":[141.1669984000,39.6562607900]},"properties":{"Name":"ふれあいランド岩手（Kouzui時は２階、大規模火災時は駐車場等）","Jusho":"岩手県盛岡市三本柳8-1-3","Kouzui":"◎","がけ崩れ、土石流及び地滑り":"◎","Takashio":"","地震":"","津波":"","大規模な火事":"◎","内水氾濫":"","火山現象":"","指定避難所との重複":"","備考":""}},
{"type":"Feature","geometry":{"type":"Point","coordinates":[141.1603348000,39.6426067200]},"properties":{"Name":"見前南中学校体育館（大規模火災時は屋外運動場）","Jusho":"岩手県盛岡市西見前16-73","Kouzui":"◎","がけ崩れ、土石流及び地滑り":"","Takashio":"","地震":"◎","津波":"","大規模な火事":"◎","内水氾濫":"","火山現象":"","指定避難所との重複":"◎","備考":""}},
{"type":"Feature","geometry":{"type":"Point","coordinates":[141.1563008000,39.6414210400]},"properties":{"Name":"盛岡南高等学校屋外運動場","Jusho":"岩手県盛岡市西見前20-113-1","Kouzui":"","がけ崩れ、土石流及び地滑り":"","Takashio":"","地震":"","津波":"","大規模な火事":"◎","内水氾濫":"","火山現象":"","指定避難所との重複":"","備考":""}},
{"type":"Feature","geometry":{"type":"Point","coordinates":[141.1410010000,39.6531680100]},"properties":{"Name":"永井小学校体育館（大規模火災時は屋外運動場）","Jusho":"岩手県盛岡市永井10-16","Kouzui":"","がけ崩れ、土石流及び地滑り":"","Takashio":"","地震":"◎","津波":"","大規模な火事":"◎","内水氾濫":"","火山現象":"","指定避難所との重複":"◎","備考":""}},
{"type":"Feature","geometry":{"type":"Point","coordinates":[141.1551113000,39.6518051500]},"properties":{"Name":"都南中央公園","Jusho":"岩手県盛岡市永井24-3-2","Kouzui":"","がけ崩れ、土石流及び地滑り":"","Takashio":"","地震":"","津波":"","大規模な火事":"◎","内水氾濫":"","火山現象":"","指定避難所との重複":"","備考":""}},
{"type":"Feature","geometry":{"type":"Point","coordinates":[141.1444431000,39.6527059900]},"properties":{"Name":"永井児童センター","Jusho":"岩手県盛岡市永井18-28-1","Kouzui":"","がけ崩れ、土石流及び地滑り":"","Takashio":"","地震":"◎","津波":"","大規模な火事":"","内水氾濫":"","火山現象":"","指定避難所との重複":"◎","備考":""}},
{"type":"Feature","geometry":{"type":"Point","coordinates":[141.1246245000,39.6671797800]},"properties":{"Name":"飯岡小学校体育館（大規模火災時は屋外運動場）","Jusho":"岩手県盛岡市下飯岡8-48","Kouzui":"◎","がけ崩れ、土石流及び地滑り":"","Takashio":"","地震":"◎","津波":"","大規模な火事":"◎","内水氾濫":"","火山現象":"","指定避難所との重複":"◎","備考":""}},
{"type":"Feature","geometry":{"type":"Point","coordinates":[141.1185235000,39.6652247100]},"properties":{"Name":"飯岡中学校体育館（大規模火災時は屋外運動場）","Jusho":"岩手県盛岡市下飯岡6-51-1","Kouzui":"◎","がけ崩れ、土石流及び地滑り":"","Takashio":"","地震":"◎","津波":"","大規模な火事":"◎","内水氾濫":"","火山現象":"","指定避難所との重複":"◎","備考":""}},
{"type":"Feature","geometry":{"type":"Point","coordinates":[141.1007644000,39.6717999700]},"properties":{"Name":"上飯岡児童センター","Jusho":"岩手県盛岡市上飯岡16-26","Kouzui":"","がけ崩れ、土石流及び地滑り":"◎","Takashio":"","地震":"◎","津波":"","大規模な火事":"","内水氾濫":"","火山現象":"","指定避難所との重複":"◎","備考":""}},
{"type":"Feature","geometry":{"type":"Point","coordinates":[141.1113857000,39.6545521800]},"properties":{"Name":"羽場小学校体育館（大規模火災時は屋外運動場）","Jusho":"岩手県盛岡市羽場17-55-2","Kouzui":"","がけ崩れ、土石流及び地滑り":"◎","Takashio":"","地震":"◎","津波":"","大規模な火事":"◎","内水氾濫":"","火山現象":"","指定避難所との重複":"◎","備考":""}},
{"type":"Feature","geometry":{"type":"Point","coordinates":[141.1063967000,39.6482142700]},"properties":{"Name":"湯沢児童センター","Jusho":"岩手県盛岡市湯沢6-54-1","Kouzui":"","がけ崩れ、土石流及び地滑り":"◎","Takashio":"","地震":"◎","津波":"","大規模な火事":"","内水氾濫":"","火山現象":"","指定避難所との重複":"◎","備考":""}},
{"type":"Feature","geometry":{"type":"Point","coordinates":[141.1171337000,39.6961336600]},"properties":{"Name":"下太田児童・老人福祉センター","Jusho":"岩手県盛岡市下太田榊14-22","Kouzui":"◎","がけ崩れ、土石流及び地滑り":"","Takashio":"","地震":"◎","津波":"","大規模な火事":"","内水氾濫":"","火山現象":"","指定避難所との重複":"◎","備考":""}},
{"type":"Feature","geometry":{"type":"Point","coordinates":[141.1298000000,39.6877150000]},"properties":{"Name":"本宮児童・老人福祉センター","Jusho":"岩手県盛岡市本宮4-38-26","Kouzui":"◎","がけ崩れ、土石流及び地滑り":"","Takashio":"","地震":"◎","津波":"","大規模な火事":"","内水氾濫":"","火山現象":"","指定避難所との重複":"◎","備考":""}},
{"type":"Feature","geometry":{"type":"Point","coordinates":[141.0785060000,39.6931574200]},"properties":{"Name":"太田老人福祉センター","Jusho":"岩手県盛岡市上太田細工4","Kouzui":"","がけ崩れ、土石流及び地滑り":"◎","Takashio":"","地震":"","津波":"","大規模な火事":"","内水氾濫":"","火山現象":"","指定避難所との重複":"◎","備考":""}},
{"type":"Feature","geometry":{"type":"Point","coordinates":[141.1559449000,39.6860791000]},"properties":{"Name":"仙北児童・老人福祉センター","Jusho":"岩手県盛岡市東仙北1-6-27","Kouzui":"","がけ崩れ、土石流及び地滑り":"","Takashio":"","地震":"◎","津波":"","大規模な火事":"","内水氾濫":"","火山現象":"","指定避難所との重複":"◎","備考":""}},
{"type":"Feature","geometry":{"type":"Point","coordinates":[141.1565232000,39.6617699800]},"properties":{"Name":"見前地区公民館","Jusho":"岩手県盛岡市津志田中央2-9-1","Kouzui":"◎","がけ崩れ、土石流及び地滑り":"","Takashio":"","地震":"◎","津波":"","大規模な火事":"","内水氾濫":"","火山現象":"","指定避難所との重複":"◎","備考":""}},
{"type":"Feature","geometry":{"type":"Point","coordinates":[141.1548190000,39.6524390000]},"properties":{"Name":"都南公民館","Jusho":"岩手県盛岡市永井24-10-1","Kouzui":"◎","がけ崩れ、土石流及び地滑り":"","Takashio":"","地震":"◎","津波":"","大規模な火事":"","内水氾濫":"","火山現象":"","指定避難所との重複":"◎","備考":""}},
{"type":"Feature","geometry":{"type":"Point","coordinates":[141.1630360000,39.6418820000]},"properties":{"Name":"世代交流センター・見前児童センター","Jusho":"岩手県盛岡市西見前13-25-3","Kouzui":"","がけ崩れ、土石流及び地滑り":"","Takashio":"","地震":"◎","津波":"","大規模な火事":"","内水氾濫":"","火山現象":"","指定避難所との重複":"◎","備考":""}},
{"type":"Feature","geometry":{"type":"Point","coordinates":[141.1236863000,39.6666693700]},"properties":{"Name":"飯岡地区公民館","Jusho":"岩手県盛岡市下飯岡8-100","Kouzui":"","がけ崩れ、土石流及び地滑り":"","Takashio":"","地震":"◎","津波":"","大規模な火事":"","内水氾濫":"","火山現象":"","指定避難所との重複":"◎","備考":""}},
{"type":"Feature","geometry":{"type":"Point","coordinates":[141.1204451000,39.6909561600]},"properties":{"Name":"盛岡タカヤアリーナ（盛岡市アイスアリーナ）・総合プール","Jusho":"岩手県盛岡市本宮5-4-1","Kouzui":"◎","がけ崩れ、土石流及び地滑り":"","Takashio":"","地震":"◎","津波":"","大規模な火事":"◎","内水氾濫":"","火山現象":"","指定避難所との重複":"◎","備考":""}},
{"type":"Feature","geometry":{"type":"Point","coordinates":[141.1308794000,39.6812328200]},"properties":{"Name":"下鹿妻北近隣公園","Jusho":"岩手県盛岡市向中野3-34-1","Kouzui":"◎","がけ崩れ、土石流及び地滑り":"","Takashio":"","地震":"","津波":"","大規模な火事":"◎","内水氾濫":"","火山現象":"","指定避難所との重複":"","備考":""}},
{"type":"Feature","geometry":{"type":"Point","coordinates":[141.1399725000,39.6797693400]},"properties":{"Name":"盛岡スコーレ高等学校校舎２階（大規模火災時は屋外運動場）","Jusho":"岩手県盛岡市向中野5-5-1","Kouzui":"◎","がけ崩れ、土石流及び地滑り":"","Takashio":"","地震":"","津波":"","大規模な火事":"◎","内水氾濫":"","火山現象":"","指定避難所との重複":"","備考":""}},
{"type":"Feature","geometry":{"type":"Point","coordinates":[141.1300213000,39.6759710400]},"properties":{"Name":"岩手県工業技術センター（大規模火災時は駐車場）","Jusho":"岩手県盛岡市北飯岡2-4-25","Kouzui":"◎","がけ崩れ、土石流及び地滑り":"","Takashio":"","地震":"","津波":"","大規模な火事":"◎","内水氾濫":"","火山現象":"","指定避難所との重複":"","備考":""}},
{"type":"Feature","geometry":{"type":"Point","coordinates":[141.1330979000,39.6730956100]},"properties":{"Name":"ぽちかち飯岡公園","Jusho":"岩手県盛岡市北飯岡2-16-50","Kouzui":"◎","がけ崩れ、土石流及び地滑り":"","Takashio":"","地震":"","津波":"","大規模な火事":"◎","内水氾濫":"","火山現象":"","指定避難所との重複":"","備考":""}},
{"type":"Feature","geometry":{"type":"Point","coordinates":[141.1288946000,39.6717679000]},"properties":{"Name":"盛岡峰南高等支援学校体育館（大規模火災時は屋外運動場）","Jusho":"岩手県盛岡市下飯岡11-152","Kouzui":"◎","がけ崩れ、土石流及び地滑り":"","Takashio":"","地震":"","津波":"","大規模な火事":"◎","内水氾濫":"","火山現象":"","指定避難所との重複":"","備考":""}},
{"type":"Feature","geometry":{"type":"Point","coordinates":[141.1032574000,39.6532180100]},"properties":{"Name":"盛岡工業高等学校屋外運動場","Jusho":"岩手県盛岡市羽場18-11-1","Kouzui":"","がけ崩れ、土石流及び地滑り":"","Takashio":"","地震":"","津波":"","大規模な火事":"◎","内水氾濫":"","火山現象":"","指定避難所との重複":"","備考":""}},
{"type":"Feature","geometry":{"type":"Point","coordinates":[141.0976829000,39.6439598300]},"properties":{"Name":"湯沢中央公園","Jusho":"岩手県盛岡市湯沢東1-1","Kouzui":"","がけ崩れ、土石流及び地滑り":"","Takashio":"","地震":"","津波":"","大規模な火事":"◎","内水氾濫":"","火山現象":"","指定避難所との重複":"","備考":""}},
{"type":"Feature","geometry":{"type":"Point","coordinates":[141.0950472000,39.6395488500]},"properties":{"Name":"湯沢地域交流活性化センター","Jusho":"岩手県盛岡市湯沢西三丁目４-14","Kouzui":"","がけ崩れ、土石流及び地滑り":"◎","Takashio":"","地震":"◎","津波":"","大規模な火事":"","内水氾濫":"","火山現象":"","指定避難所との重複":"◎","備考":""}},
{"type":"Feature","geometry":{"type":"Point","coordinates":[141.1561572000,39.7016510900]},"properties":{"Name":"勤労福祉会館","Jusho":"岩手県盛岡市紺屋町2-9","Kouzui":"◎","がけ崩れ、土石流及び地滑り":"","Takashio":"","地震":"◎","津波":"","大規模な火事":"","内水氾濫":"","火山現象":"","指定避難所との重複":"◎","備考":""}},
{"type":"Feature","geometry":{"type":"Point","coordinates":[141.1606229000,39.7037164100]},"properties":{"Name":"城南小学校体育館（大規模火災時は屋外運動場）","Jusho":"岩手県盛岡市若園町9-20","Kouzui":"◎","がけ崩れ、土石流及び地滑り":"","Takashio":"","地震":"◎","津波":"","大規模な火事":"◎","内水氾濫":"","火山現象":"","指定避難所との重複":"◎","備考":""}},
{"type":"Feature","geometry":{"type":"Point","coordinates":[141.1696924000,39.7094501400]},"properties":{"Name":"加賀野地区活動センター","Jusho":"岩手県盛岡市加賀野４-18-55","Kouzui":"◎","がけ崩れ、土石流及び地滑り":"◎","Takashio":"","地震":"","津波":"","大規模な火事":"","内水氾濫":"","火山現象":"","指定避難所との重複":"◎","備考":""}},
{"type":"Feature","geometry":{"type":"Point","coordinates":[141.1527534000,39.6989346900]},"properties":{"Name":"杜陵小学校体育館（大規模火災時は屋外運動場）","Jusho":"岩手県盛岡市肴町1-6","Kouzui":"","がけ崩れ、土石流及び地滑り":"","Takashio":"","地震":"◎","津波":"","大規模な火事":"◎","内水氾濫":"","火山現象":"","指定避難所との重複":"◎","備考":""}},
{"type":"Feature","geometry":{"type":"Point","coordinates":[141.1656116000,39.7053596900]},"properties":{"Name":"岩手大学附属小学校屋外運動場","Jusho":"岩手県盛岡市加賀野2-6-1","Kouzui":"","がけ崩れ、土石流及び地滑り":"","Takashio":"","地震":"","津波":"","大規模な火事":"◎","内水氾濫":"","火山現象":"","指定避難所との重複":"","備考":""}},
{"type":"Feature","geometry":{"type":"Point","coordinates":[141.1689951000,39.7064194900]},"properties":{"Name":"岩手大学附属中学校体育館等（大規模火災時は屋外運動場）","Jusho":"岩手県盛岡市加賀野3-9-1","Kouzui":"◎","がけ崩れ、土石流及び地滑り":"◎","Takashio":"","地震":"","津波":"","大規模な火事":"◎","内水氾濫":"","火山現象":"","指定避難所との重複":"","備考":""}},
{"type":"Feature","geometry":{"type":"Point","coordinates":[141.1623840000,39.7018605500]},"properties":{"Name":"盛岡短期大学跡","Jusho":"岩手県盛岡市住吉町1-48","Kouzui":"","がけ崩れ、土石流及び地滑り":"","Takashio":"","地震":"","津波":"","大規模な火事":"◎","内水氾濫":"","火山現象":"","指定避難所との重複":"","備考":""}},
{"type":"Feature","geometry":{"type":"Point","coordinates":[141.1457571000,39.6981324100]},"properties":{"Name":"下橋中学校体育館（大規模火災時は屋外運動場）","Jusho":"岩手県盛岡市馬場町1-1","Kouzui":"","がけ崩れ、土石流及び地滑り":"","Takashio":"","地震":"◎","津波":"","大規模な火事":"◎","内水氾濫":"","火山現象":"","指定避難所との重複":"◎","備考":""}},
{"type":"Feature","geometry":{"type":"Point","coordinates":[141.1583776000,39.6925695600]},"properties":{"Name":"大慈寺小学校体育館（大規模火災時は屋外運動場）","Jusho":"岩手県盛岡市大慈寺町6-47","Kouzui":"","がけ崩れ、土石流及び地滑り":"","Takashio":"","地震":"◎","津波":"","大規模な火事":"◎","内水氾濫":"","火山現象":"","指定避難所との重複":"◎","備考":""}},
{"type":"Feature","geometry":{"type":"Point","coordinates":[141.1623582000,39.6906696900]},"properties":{"Name":"河南中学校体育館（大規模火災時は屋外運動場）","Jusho":"岩手県盛岡市茶畑2-17-1","Kouzui":"◎","がけ崩れ、土石流及び地滑り":"","Takashio":"","地震":"◎","津波":"","大規模な火事":"◎","内水氾濫":"","火山現象":"","指定避難所との重複":"◎","備考":""}},
{"type":"Feature","geometry":{"type":"Point","coordinates":[141.1666581000,39.6912033200]},"properties":{"Name":"中野小学校体育館（Kouzui時は校舎２～４階教室、大規模火災時は屋外運動場）","Jusho":"岩手県盛岡市中野2-12-1","Kouzui":"◎","がけ崩れ、土石流及び地滑り":"◎","Takashio":"","地震":"◎","津波":"","大規模な火事":"◎","内水氾濫":"","火山現象":"","指定避難所との重複":"◎","備考":""}},
{"type":"Feature","geometry":{"type":"Point","coordinates":[141.1630882000,39.6851747000]},"properties":{"Name":"岩手自動車学校自動車練習場","Jusho":"岩手県盛岡市高崩2-5","Kouzui":"","がけ崩れ、土石流及び地滑り":"","Takashio":"","地震":"","津波":"","大規模な火事":"◎","内水氾濫":"","火山現象":"","指定避難所との重複":"","備考":""}},
{"type":"Feature","geometry":{"type":"Point","coordinates":[141.1701152000,39.6963136400]},"properties":{"Name":"山王小学校体育館（大規模火災時は屋外運動場）","Jusho":"岩手県盛岡市小杉山3-1","Kouzui":"◎","がけ崩れ、土石流及び地滑り":"","Takashio":"","地震":"◎","津波":"","大規模な火事":"◎","内水氾濫":"","火山現象":"","指定避難所との重複":"◎","備考":""}},
{"type":"Feature","geometry":{"type":"Point","coordinates":[141.1726374000,39.7014885900]},"properties":{"Name":"城東中学校体育館（大規模火災時は屋外運動場）","Jusho":"岩手県盛岡市東新庄1-30-1","Kouzui":"","がけ崩れ、土石流及び地滑り":"◎","Takashio":"","地震":"◎","津波":"","大規模な火事":"◎","内水氾濫":"","火山現象":"","指定避難所との重複":"◎","備考":""}},
{"type":"Feature","geometry":{"type":"Point","coordinates":[141.1635383000,39.6951096600]},"properties":{"Name":"盛岡八幡宮社務所桐の間（大規模火災時は境内）","Jusho":"岩手県盛岡市八幡町13-1","Kouzui":"◎","がけ崩れ、土石流及び地滑り":"◎","Takashio":"","地震":"◎","津波":"","大規模な火事":"◎","内水氾濫":"","火山現象":"","指定避難所との重複":"","備考":""}},
{"type":"Feature","geometry":{"type":"Point","coordinates":[141.1979478000,39.6720272100]},"properties":{"Name":"簗川老人福祉センター","Jusho":"岩手県盛岡市川目10-78-1","Kouzui":"◎","がけ崩れ、土石流及び地滑り":"◎","Takashio":"","地震":"◎","津波":"","大規模な火事":"","内水氾濫":"","火山現象":"","指定避難所との重複":"◎","備考":""}},
{"type":"Feature","geometry":{"type":"Point","coordinates":[141.2310458000,39.7110688100]},"properties":{"Name":"浅岸小学校跡（屋外運動場）","Jusho":"岩手県盛岡市浅岸字上大葛１","Kouzui":"","がけ崩れ、土石流及び地滑り":"","Takashio":"","地震":"","津波":"","大規模な火事":"◎","内水氾濫":"","火山現象":"","指定避難所との重複":"","備考":""}},
{"type":"Feature","geometry":{"type":"Point","coordinates":[141.2190146000,39.6941093300]},"properties":{"Name":"盛岡競馬場駐車場","Jusho":"岩手県盛岡市新庄字上八木田10","Kouzui":"","がけ崩れ、土石流及び地滑り":"","Takashio":"","地震":"","津波":"","大規模な火事":"◎","内水氾濫":"","火山現象":"","指定避難所との重複":"","備考":""}},
{"type":"Feature","geometry":{"type":"Point","coordinates":[141.1696257000,39.7091565400]},"properties":{"Name":"加賀野児童・老人福祉センター","Jusho":"岩手県盛岡市加賀野4-18-56","Kouzui":"◎","がけ崩れ、土石流及び地滑り":"◎","Takashio":"","地震":"◎","津波":"","大規模な火事":"","内水氾濫":"","火山現象":"","指定避難所との重複":"◎","備考":""}},
{"type":"Feature","geometry":{"type":"Point","coordinates":[141.1627038000,39.7031845000]},"properties":{"Name":"市立武道館","Jusho":"岩手県盛岡市住吉町3-12","Kouzui":"◎","がけ崩れ、土石流及び地滑り":"","Takashio":"","地震":"◎","津波":"","大規模な火事":"","内水氾濫":"","火山現象":"","指定避難所との重複":"◎","備考":""}},
{"type":"Feature","geometry":{"type":"Point","coordinates":[141.1605189000,39.6912431300]},"properties":{"Name":"大慈寺児童・老人福祉センター","Jusho":"岩手県盛岡市茶畑2-16-20","Kouzui":"","がけ崩れ、土石流及び地滑り":"","Takashio":"","地震":"◎","津波":"","大規模な火事":"","内水氾濫":"","火山現象":"","指定避難所との重複":"◎","備考":""}},
{"type":"Feature","geometry":{"type":"Point","coordinates":[141.1556297000,39.6982517500]},"properties":{"Name":"杜陵老人福祉センター","Jusho":"岩手県盛岡市南大通１-7-5","Kouzui":"◎","がけ崩れ、土石流及び地滑り":"","Takashio":"","地震":"◎","津波":"","大規模な火事":"","内水氾濫":"","火山現象":"","指定避難所との重複":"◎","備考":""}},
{"type":"Feature","geometry":{"type":"Point","coordinates":[141.1474740000,39.6950724700]},"properties":{"Name":"杜陵児童センター","Jusho":"岩手県盛岡市清水町13-34","Kouzui":"","がけ崩れ、土石流及び地滑り":"","Takashio":"","地震":"◎","津波":"","大規模な火事":"","内水氾濫":"","火山現象":"","指定避難所との重複":"◎","備考":""}},
{"type":"Feature","geometry":{"type":"Point","coordinates":[141.1763460000,39.6920940000]},"properties":{"Name":"川目児童・老人福祉センター","Jusho":"岩手県盛岡市東山1-15-1","Kouzui":"◎","がけ崩れ、土石流及び地滑り":"","Takashio":"","地震":"◎","津波":"","大規模な火事":"","内水氾濫":"","火山現象":"","指定避難所との重複":"◎","備考":""}},
{"type":"Feature","geometry":{"type":"Point","coordinates":[141.1650390000,39.7001551300]},"properties":{"Name":"山王児童・老人福祉センター","Jusho":"岩手県盛岡市山王町10-25","Kouzui":"","がけ崩れ、土石流及び地滑り":"","Takashio":"","地震":"◎","津波":"","大規模な火事":"","内水氾濫":"","火山現象":"","指定避難所との重複":"◎","備考":""}},
{"type":"Feature","geometry":{"type":"Point","coordinates":[141.1584787000,39.6962105200]},"properties":{"Name":"河南公民館","Jusho":"岩手県盛岡市松尾町3-1","Kouzui":"◎","がけ崩れ、土石流及び地滑り":"◎","Takashio":"","地震":"◎","津波":"","大規模な火事":"","内水氾濫":"","火山現象":"","指定避難所との重複":"◎","備考":""}},
{"type":"Feature","geometry":{"type":"Point","coordinates":[141.1881361000,39.6771764400]},"properties":{"Name":"宇津野公民館","Jusho":"岩手県盛岡市川目9","Kouzui":"◎","がけ崩れ、土石流及び地滑り":"◎","Takashio":"","地震":"","津波":"","大規模な火事":"","内水氾濫":"","火山現象":"","指定避難所との重複":"◎","備考":""}},
{"type":"Feature","geometry":{"type":"Point","coordinates":[141.1770712000,39.6841595100]},"properties":{"Name":"沢田浄水場","Jusho":"岩手県盛岡市東中野字沢田7","Kouzui":"◎","がけ崩れ、土石流及び地滑り":"◎","Takashio":"","地震":"◎","津波":"","大規模な火事":"","内水氾濫":"","火山現象":"","指定避難所との重複":"","備考":""}},
{"type":"Feature","geometry":{"type":"Point","coordinates":[141.1687566000,39.6809107400]},"properties":{"Name":"中野地区活動センター","Jusho":"岩手県盛岡市東安庭字小森57-1","Kouzui":"◎","がけ崩れ、土石流及び地滑り":"◎","Takashio":"","地震":"◎","津波":"","大規模な火事":"","内水氾濫":"","火山現象":"","指定避難所との重複":"◎","備考":""}},
{"type":"Feature","geometry":{"type":"Point","coordinates":[141.1871049000,39.6402112200]},"properties":{"Name":"手代森小学校体育館（大規模火災時は屋外運動場）","Jusho":"岩手県盛岡市手代森22-47","Kouzui":"◎","がけ崩れ、土石流及び地滑り":"◎","Takashio":"","地震":"◎","津波":"","大規模な火事":"◎","内水氾濫":"","火山現象":"","指定避難所との重複":"◎","備考":""}},
{"type":"Feature","geometry":{"type":"Point","coordinates":[141.1674701000,39.6787066000]},"properties":{"Name":"岩手大学附属特別支援学校校舎２階（大規模火災時は屋外運動場）","Jusho":"岩手県盛岡市東安庭3-4-20","Kouzui":"◎","がけ崩れ、土石流及び地滑り":"◎","Takashio":"","地震":"","津波":"","大規模な火事":"◎","内水氾濫":"","火山現象":"","指定避難所との重複":"","備考":""}},
{"type":"Feature","geometry":{"type":"Point","coordinates":[141.1889320000,39.6387760000]},"properties":{"Name":"手代森児童センター","Jusho":"岩手県盛岡市黒川6-12-1","Kouzui":"◎","がけ崩れ、土石流及び地滑り":"◎","Takashio":"","地震":"◎","津波":"","大規模な火事":"","内水氾濫":"","火山現象":"","指定避難所との重複":"◎","備考":""}},
{"type":"Feature","geometry":{"type":"Point","coordinates":[141.2005757000,39.6148242000]},"properties":{"Name":"乙部児童センター","Jusho":"岩手県盛岡市乙部8-3-4","Kouzui":"◎","がけ崩れ、土石流及び地滑り":"◎","Takashio":"","地震":"◎","津波":"","大規模な火事":"","内水氾濫":"","火山現象":"","指定避難所との重複":"◎","備考":""}},
{"type":"Feature","geometry":{"type":"Point","coordinates":[141.2929067000,39.6351704500]},"properties":{"Name":"根田茂小学校跡（屋外運動場）","Jusho":"岩手県盛岡市根田茂5-35-2","Kouzui":"","がけ崩れ、土石流及び地滑り":"","Takashio":"","地震":"","津波":"","大規模な火事":"◎","内水氾濫":"","火山現象":"","指定避難所との重複":"","備考":""}},
{"type":"Feature","geometry":{"type":"Point","coordinates":[141.3201009000,39.6021198500]},"properties":{"Name":"砂子沢小学校跡（屋外運動場）","Jusho":"岩手県盛岡市砂子沢10-65-1","Kouzui":"","がけ崩れ、土石流及び地滑り":"","Takashio":"","地震":"","津波":"","大規模な火事":"◎","内水氾濫":"","火山現象":"","指定避難所との重複":"","備考":""}},
{"type":"Feature","geometry":{"type":"Point","coordinates":[141.2014806000,39.6144453500]},"properties":{"Name":"都南東小学校体育館（大規模火災時は屋外運動場）","Jusho":"岩手県盛岡市乙部12-16-1","Kouzui":"◎","がけ崩れ、土石流及び地滑り":"◎","Takashio":"","地震":"◎","津波":"","大規模な火事":"◎","内水氾濫":"","火山現象":"","指定避難所との重複":"◎","備考":""}},
{"type":"Feature","geometry":{"type":"Point","coordinates":[141.1999766000,39.6066854300]},"properties":{"Name":"乙部運動広場","Jusho":"岩手県盛岡市乙部28-34-2","Kouzui":"","がけ崩れ、土石流及び地滑り":"","Takashio":"","地震":"","津波":"","大規模な火事":"◎","内水氾濫":"","火山現象":"","指定避難所との重複":"","備考":""}},
{"type":"Feature","geometry":{"type":"Point","coordinates":[141.1851160000,39.6527080000]},"properties":{"Name":"地域福祉センター","Jusho":"岩手県盛岡市手代森14-16-89","Kouzui":"◎","がけ崩れ、土石流及び地滑り":"◎","Takashio":"","地震":"◎","津波":"","大規模な火事":"","内水氾濫":"","火山現象":"","指定避難所との重複":"◎","備考":""}},
{"type":"Feature","geometry":{"type":"Point","coordinates":[141.1931282000,39.6160488100]},"properties":{"Name":"乙部体育館","Jusho":"岩手県盛岡市乙部6-79-1","Kouzui":"","がけ崩れ、土石流及び地滑り":"◎","Takashio":"","地震":"","津波":"","大規模な火事":"","内水氾濫":"","火山現象":"","指定避難所との重複":"◎","備考":""}},
{"type":"Feature","geometry":{"type":"Point","coordinates":[141.1934662000,39.6160736100]},"properties":{"Name":"乙部地区公民館","Jusho":"岩手県盛岡市乙部6-79-1","Kouzui":"","がけ崩れ、土石流及び地滑り":"◎","Takashio":"","地震":"◎","津波":"","大規模な火事":"","内水氾濫":"","火山現象":"","指定避難所との重複":"◎","備考":""}},
{"type":"Feature","geometry":{"type":"Point","coordinates":[141.1999605000,39.6069747400]},"properties":{"Name":"乙部老人福祉センター","Jusho":"岩手県盛岡市乙部28-34-5","Kouzui":"◎","がけ崩れ、土石流及び地滑り":"◎","Takashio":"","地震":"◎","津波":"","大規模な火事":"","内水氾濫":"","火山現象":"","指定避難所との重複":"◎","備考":""}},
{"type":"Feature","geometry":{"type":"Point","coordinates":[141.1694371000,39.6794861100]},"properties":{"Name":"東安庭公民館","Jusho":"岩手県盛岡市東安庭3-10-12","Kouzui":"◎","がけ崩れ、土石流及び地滑り":"◎","Takashio":"","地震":"","津波":"","大規模な火事":"","内水氾濫":"","火山現象":"","指定避難所との重複":"◎","備考":""}},
{"type":"Feature","geometry":{"type":"Point","coordinates":[141.1721280000,39.6701710000]},"properties":{"Name":"門公民館","Jusho":"岩手県盛岡市門1-14-14","Kouzui":"◎","がけ崩れ、土石流及び地滑り":"◎","Takashio":"","地震":"","津波":"","大規模な火事":"","内水氾濫":"","火山現象":"","指定避難所との重複":"◎","備考":""}},
{"type":"Feature","geometry":{"type":"Point","coordinates":[141.1868191000,39.6215804900]},"properties":{"Name":"乙部中学校体育館（Kouzui時は体育館２階、大規模火災時は屋外運動場）","Jusho":"岩手県盛岡市黒川21-51-1","Kouzui":"◎","がけ崩れ、土石流及び地滑り":"◎","Takashio":"","地震":"◎","津波":"","大規模な火事":"◎","内水氾濫":"","火山現象":"","指定避難所との重複":"◎","備考":""}},
{"type":"Feature","geometry":{"type":"Point","coordinates":[141.1248480000,39.8595220000]},"properties":{"Name":"生出小学校体育館（大規模火災時は屋外運動場）","Jusho":"岩手県盛岡市下田字仲平59-36","Kouzui":"","がけ崩れ、土石流及び地滑り":"","Takashio":"","地震":"◎","津波":"","大規模な火事":"◎","内水氾濫":"","火山現象":"","指定避難所との重複":"◎","備考":""}},
{"type":"Feature","geometry":{"type":"Point","coordinates":[141.1242156000,39.8580332400]},"properties":{"Name":"生出児童館","Jusho":"岩手県盛岡市下田字仲平66-2","Kouzui":"","がけ崩れ、土石流及び地滑り":"","Takashio":"","地震":"◎","津波":"","大規模な火事":"","内水氾濫":"","火山現象":"","指定避難所との重複":"◎","備考":""}},
{"type":"Feature","geometry":{"type":"Point","coordinates":[141.1678379000,39.8477269500]},"properties":{"Name":"渋民小学校体育館（大規模火災時は屋外運動場）","Jusho":"岩手県盛岡市渋民字鶴塚114","Kouzui":"◎","がけ崩れ、土石流及び地滑り":"◎","Takashio":"","地震":"◎","津波":"","大規模な火事":"◎","内水氾濫":"","火山現象":"◎","指定避難所との重複":"◎","備考":""}},
{"type":"Feature","geometry":{"type":"Point","coordinates":[141.1633851000,39.8504532400]},"properties":{"Name":"渋民中学校体育館（大規模火災時は屋外運動場）","Jusho":"岩手県盛岡市下田字下田106","Kouzui":"","がけ崩れ、土石流及び地滑り":"","Takashio":"","地震":"◎","津波":"","大規模な火事":"◎","内水氾濫":"","火山現象":"","指定避難所との重複":"◎","備考":""}},
{"type":"Feature","geometry":{"type":"Point","coordinates":[141.1706631000,39.8466488000]},"properties":{"Name":"渋民勤労者研修センター","Jusho":"岩手県盛岡市渋民字渋民13","Kouzui":"◎","がけ崩れ、土石流及び地滑り":"◎","Takashio":"","地震":"◎","津波":"","大規模な火事":"","内水氾濫":"","火山現象":"","指定避難所との重複":"◎","備考":""}},
{"type":"Feature","geometry":{"type":"Point","coordinates":[141.1724349000,39.8448851600]},"properties":{"Name":"渋民保育園","Jusho":"岩手県盛岡市渋民字渋民1-1","Kouzui":"◎","がけ崩れ、土石流及び地滑り":"◎","Takashio":"","地震":"","津波":"","大規模な火事":"","内水氾濫":"","火山現象":"","指定避難所との重複":"","備考":""}},
{"type":"Feature","geometry":{"type":"Point","coordinates":[141.1533100000,39.8364660000]},"properties":{"Name":"柳青保育園","Jusho":"岩手県盛岡市下田字陣場42-63","Kouzui":"◎","がけ崩れ、土石流及び地滑り":"","Takashio":"","地震":"","津波":"","大規模な火事":"","内水氾濫":"","火山現象":"","指定避難所との重複":"","備考":""}},
{"type":"Feature","geometry":{"type":"Point","coordinates":[141.1663911000,39.8511779600]},"properties":{"Name":"渋民運動公園","Jusho":"岩手県盛岡市川崎字川崎1-1","Kouzui":"","がけ崩れ、土石流及び地滑り":"","Takashio":"","地震":"","津波":"","大規模な火事":"◎","内水氾濫":"","火山現象":"","指定避難所との重複":"◎","備考":""}},
{"type":"Feature","geometry":{"type":"Point","coordinates":[141.1670134000,39.8468041600]},"properties":{"Name":"玉山総合福祉センター","Jusho":"岩手県盛岡市渋民字泉田360","Kouzui":"◎","がけ崩れ、土石流及び地滑り":"◎","Takashio":"","地震":"◎","津波":"","大規模な火事":"","内水氾濫":"","火山現象":"◎","指定避難所との重複":"◎","備考":""}},
{"type":"Feature","geometry":{"type":"Point","coordinates":[141.1657620000,39.8430570000]},"properties":{"Name":"渋民地区コミュニティセンター","Jusho":"岩手県盛岡市渋民字小前田321","Kouzui":"◎","がけ崩れ、土石流及び地滑り":"◎","Takashio":"","地震":"◎","津波":"","大規模な火事":"","内水氾濫":"","火山現象":"","指定避難所との重複":"◎","備考":""}},
{"type":"Feature","geometry":{"type":"Point","coordinates":[141.1695706000,39.8492524200]},"properties":{"Name":"渋民公民館（姫神ホール）","Jusho":"岩手県盛岡市渋民字鶴塚55","Kouzui":"◎","がけ崩れ、土石流及び地滑り":"◎","Takashio":"","地震":"◎","津波":"","大規模な火事":"","内水氾濫":"","火山現象":"◎","指定避難所との重複":"◎","備考":""}},
{"type":"Feature","geometry":{"type":"Point","coordinates":[141.1692695000,39.8486333100]},"properties":{"Name":"渋民児童館","Jusho":"岩手県盛岡市渋民字鶴塚103","Kouzui":"◎","がけ崩れ、土石流及び地滑り":"◎","Takashio":"","地震":"◎","津波":"","大規模な火事":"","内水氾濫":"","火山現象":"","指定避難所との重複":"◎","備考":""}},
{"type":"Feature","geometry":{"type":"Point","coordinates":[141.1138170000,39.8689757100]},"properties":{"Name":"生出３地区コミュニティセンター","Jusho":"岩手県盛岡市下田字生出1038-10","Kouzui":"","がけ崩れ、土石流及び地滑り":"","Takashio":"","地震":"◎","津波":"","大規模な火事":"","内水氾濫":"","火山現象":"◎","指定避難所との重複":"◎","備考":""}},
{"type":"Feature","geometry":{"type":"Point","coordinates":[141.1593441000,39.8526243600]},"properties":{"Name":"下田川崎地区コミュニティセンター","Jusho":"岩手県盛岡市下田字上下田89-3","Kouzui":"","がけ崩れ、土石流及び地滑り":"◎","Takashio":"","地震":"◎","津波":"","大規模な火事":"","内水氾濫":"","火山現象":"","指定避難所との重複":"◎","備考":""}},
{"type":"Feature","geometry":{"type":"Point","coordinates":[141.1600906000,39.8372967700]},"properties":{"Name":"舟田地区介護予防センター","Jusho":"岩手県盛岡市下田字牡丹野59-14","Kouzui":"◎","がけ崩れ、土石流及び地滑り":"◎","Takashio":"","地震":"◎","津波":"","大規模な火事":"","内水氾濫":"","火山現象":"","指定避難所との重複":"◎","備考":""}},
{"type":"Feature","geometry":{"type":"Point","coordinates":[141.1497536000,39.8490324400]},"properties":{"Name":"山田地区コミュニティセンター","Jusho":"岩手県盛岡市下田字頭無15-12","Kouzui":"◎","がけ崩れ、土石流及び地滑り":"","Takashio":"","地震":"◎","津波":"","大規模な火事":"","内水氾濫":"","火山現象":"","指定避難所との重複":"◎","備考":""}},
{"type":"Feature","geometry":{"type":"Point","coordinates":[141.1568816000,39.8869611400]},"properties":{"Name":"松内地区コミュニティセンター","Jusho":"岩手県盛岡市松内字松内36-33","Kouzui":"◎","がけ崩れ、土石流及び地滑り":"◎","Takashio":"","地震":"◎","津波":"","大規模な火事":"","内水氾濫":"","火山現象":"◎","指定避難所との重複":"◎","備考":""}},
{"type":"Feature","geometry":{"type":"Point","coordinates":[141.1692205000,39.8739508700]},"properties":{"Name":"好摩小学校体育館（大規模火災時は屋外運動場）","Jusho":"岩手県盛岡市好摩字夏間木70-60","Kouzui":"◎","がけ崩れ、土石流及び地滑り":"","Takashio":"","地震":"◎","津波":"","大規模な火事":"◎","内水氾濫":"","火山現象":"","指定避難所との重複":"◎","備考":""}},
{"type":"Feature","geometry":{"type":"Point","coordinates":[141.1686115000,39.8754535600]},"properties":{"Name":"巻堀中学校体育館（大規模火災時は屋外運動場）","Jusho":"岩手県盛岡市好摩字夏間木70-1","Kouzui":"◎","がけ崩れ、土石流及び地滑り":"◎","Takashio":"","地震":"◎","津波":"","大規模な火事":"◎","内水氾濫":"","火山現象":"","指定避難所との重複":"◎","備考":""}},
{"type":"Feature","geometry":{"type":"Point","coordinates":[141.1666654000,39.8775890900]},"properties":{"Name":"好摩児童館","Jusho":"岩手県盛岡市好摩字野中69-85","Kouzui":"◎","がけ崩れ、土石流及び地滑り":"◎","Takashio":"","地震":"◎","津波":"","大規模な火事":"","内水氾濫":"","火山現象":"","指定避難所との重複":"◎","備考":""}},
{"type":"Feature","geometry":{"type":"Point","coordinates":[141.1656720000,39.8911120000]},"properties":{"Name":"大台地区コミュニティセンター","Jusho":"岩手県盛岡市好摩字新田155-19","Kouzui":"◎","がけ崩れ、土石流及び地滑り":"◎","Takashio":"","地震":"◎","津波":"","大規模な火事":"","内水氾濫":"","火山現象":"◎","指定避難所との重複":"◎","備考":""}},
{"type":"Feature","geometry":{"type":"Point","coordinates":[141.1668397000,39.8779172400]},"properties":{"Name":"好摩保育所","Jusho":"岩手県盛岡市好摩字野中69-112","Kouzui":"◎","がけ崩れ、土石流及び地滑り":"◎","Takashio":"","地震":"","津波":"","大規模な火事":"","内水氾濫":"","火山現象":"","指定避難所との重複":"","備考":""}},
{"type":"Feature","geometry":{"type":"Point","coordinates":[141.1759084000,39.8737410800]},"properties":{"Name":"好摩幼稚園","Jusho":"岩手県盛岡市好摩字上山13-1","Kouzui":"◎","がけ崩れ、土石流及び地滑り":"◎","Takashio":"","地震":"","津波":"","大規模な火事":"","内水氾濫":"","火山現象":"","指定避難所との重複":"◎","備考":""}},
{"type":"Feature","geometry":{"type":"Point","coordinates":[141.1682238000,39.8759443300]},"properties":{"Name":"好摩地区コミュニティセンター","Jusho":"岩手県盛岡市好摩字野中67-10","Kouzui":"◎","がけ崩れ、土石流及び地滑り":"◎","Takashio":"","地震":"◎","津波":"","大規模な火事":"","内水氾濫":"","火山現象":"","指定避難所との重複":"◎","備考":""}},
{"type":"Feature","geometry":{"type":"Point","coordinates":[141.1670717000,39.8771074800]},"properties":{"Name":"就業改善センター（好摩地区公民館）","Jusho":"岩手県盛岡市好摩字野中69-48","Kouzui":"◎","がけ崩れ、土石流及び地滑り":"◎","Takashio":"","地震":"","津波":"","大規模な火事":"","内水氾濫":"","火山現象":"","指定避難所との重複":"◎","備考":""}},
{"type":"Feature","geometry":{"type":"Point","coordinates":[141.1672219000,39.8772515600]},"properties":{"Name":"好摩体育館","Jusho":"岩手県盛岡市好摩字野中69-48","Kouzui":"◎","がけ崩れ、土石流及び地滑り":"◎","Takashio":"","地震":"◎","津波":"","大規模な火事":"","内水氾濫":"","火山現象":"","指定避難所との重複":"◎","備考":""}},
{"type":"Feature","geometry":{"type":"Point","coordinates":[141.1759626000,39.8755516000]},"properties":{"Name":"好摩東地区コミュニティセンター","Jusho":"岩手県盛岡市好摩字上山3-38","Kouzui":"◎","がけ崩れ、土石流及び地滑り":"◎","Takashio":"","地震":"◎","津波":"","大規模な火事":"","内水氾濫":"","火山現象":"","指定避難所との重複":"◎","備考":""}},
{"type":"Feature","geometry":{"type":"Point","coordinates":[141.1696523000,39.8678867900]},"properties":{"Name":"芋田向地区介護予防センター","Jusho":"岩手県盛岡市好摩字上山1-46","Kouzui":"◎","がけ崩れ、土石流及び地滑り":"◎","Takashio":"","地震":"◎","津波":"","大規模な火事":"","内水氾濫":"","火山現象":"","指定避難所との重複":"◎","備考":""}},
{"type":"Feature","geometry":{"type":"Point","coordinates":[141.1672821000,39.8646518000]},"properties":{"Name":"盛岡商工会議所玉山支所","Jusho":"岩手県盛岡市好摩字芋田向85-29","Kouzui":"◎","がけ崩れ、土石流及び地滑り":"◎","Takashio":"","地震":"","津波":"","大規模な火事":"","内水氾濫":"","火山現象":"","指定避難所との重複":"","備考":""}},
{"type":"Feature","geometry":{"type":"Point","coordinates":[141.1951228000,39.8942994700]},"properties":{"Name":"巻堀小学校体育館（大規模火災時は屋外運動場）","Jusho":"岩手県盛岡市巻堀字巻堀12-1","Kouzui":"◎","がけ崩れ、土石流及び地滑り":"◎","Takashio":"","地震":"◎","津波":"","大規模な火事":"◎","内水氾濫":"","火山現象":"","指定避難所との重複":"◎","備考":""}},
{"type":"Feature","geometry":{"type":"Point","coordinates":[141.1954983000,39.8923230300]},"properties":{"Name":"巻堀児童館","Jusho":"岩手県盛岡市巻堀字巻堀101-1","Kouzui":"◎","がけ崩れ、土石流及び地滑り":"◎","Takashio":"","地震":"◎","津波":"","大規模な火事":"","内水氾濫":"","火山現象":"","指定避難所との重複":"◎","備考":""}},
{"type":"Feature","geometry":{"type":"Point","coordinates":[141.1949755000,39.8931012700]},"properties":{"Name":"巻堀地区コミュニティセンター","Jusho":"岩手県盛岡市巻堀字巻堀33-2","Kouzui":"◎","がけ崩れ、土石流及び地滑り":"◎","Takashio":"","地震":"","津波":"","大規模な火事":"","内水氾濫":"","火山現象":"","指定避難所との重複":"◎","備考":""}},
{"type":"Feature","geometry":{"type":"Point","coordinates":[141.2559950000,39.8929160000]},"properties":{"Name":"姫神地区振興センター","Jusho":"岩手県盛岡市馬場字葛巻104-1","Kouzui":"","がけ崩れ、土石流及び地滑り":"◎","Takashio":"","地震":"","津波":"","大規模な火事":"","内水氾濫":"","火山現象":"","指定避難所との重複":"◎","備考":""}},
{"type":"Feature","geometry":{"type":"Point","coordinates":[141.1971636000,39.7989465200]},"properties":{"Name":"玉山小学校体育館（大規模火災時は屋外運動場）","Jusho":"岩手県盛岡市日戸字市の坪53","Kouzui":"","がけ崩れ、土石流及び地滑り":"◎","Takashio":"","地震":"◎","津波":"","大規模な火事":"◎","内水氾濫":"","火山現象":"","指定避難所との重複":"◎","備考":""}},
{"type":"Feature","geometry":{"type":"Point","coordinates":[141.1893466000,39.7953359700]},"properties":{"Name":"玉山中学校体育館（大規模火災時は屋外運動場）","Jusho":"岩手県盛岡市玉山字鷹高39-2","Kouzui":"","がけ崩れ、土石流及び地滑り":"","Takashio":"","地震":"◎","津波":"","大規模な火事":"◎","内水氾濫":"","火山現象":"","指定避難所との重複":"◎","備考":""}},
{"type":"Feature","geometry":{"type":"Point","coordinates":[141.2040991000,39.8166161500]},"properties":{"Name":"旧城内小学校体育館（大規模火災時は屋外運動場）","Jusho":"岩手県盛岡市玉山字田畑19-1","Kouzui":"","がけ崩れ、土石流及び地滑り":"◎","Takashio":"","地震":"◎","津波":"","大規模な火事":"◎","内水氾濫":"","火山現象":"","指定避難所との重複":"◎","備考":""}},
{"type":"Feature","geometry":{"type":"Point","coordinates":[141.1929787000,39.7972287900]},"properties":{"Name":"玉山保育園","Jusho":"岩手県盛岡市日戸字市の坪59","Kouzui":"","がけ崩れ、土石流及び地滑り":"◎","Takashio":"","地震":"","津波":"","大規模な火事":"","内水氾濫":"","火山現象":"","指定避難所との重複":"","備考":""}},
{"type":"Feature","geometry":{"type":"Point","coordinates":[141.1934755000,39.7943383600]},"properties":{"Name":"玉山地区公民館","Jusho":"岩手県盛岡市日戸字鷹高50-16","Kouzui":"","がけ崩れ、土石流及び地滑り":"◎","Takashio":"","地震":"◎","津波":"","大規模な火事":"","内水氾濫":"","火山現象":"","指定避難所との重複":"◎","備考":""}},
{"type":"Feature","geometry":{"type":"Point","coordinates":[141.1922053000,39.7946502100]},"properties":{"Name":"玉山健康増進センター","Jusho":"岩手県盛岡市日戸字鷹高50-4","Kouzui":"","がけ崩れ、土石流及び地滑り":"◎","Takashio":"","地震":"◎","津波":"","大規模な火事":"","内水氾濫":"","火山現象":"","指定避難所との重複":"◎","備考":""}},
{"type":"Feature","geometry":{"type":"Point","coordinates":[141.2158316000,39.7985476400]},"properties":{"Name":"日戸地区コミュニティセンター","Jusho":"岩手県盛岡市日戸字古屋敷68-2","Kouzui":"","がけ崩れ、土石流及び地滑り":"◎","Takashio":"","地震":"◎","津波":"","大規模な火事":"","内水氾濫":"","火山現象":"","指定避難所との重複":"◎","備考":""}},
{"type":"Feature","geometry":{"type":"Point","coordinates":[141.1922222000,39.7898337400]},"properties":{"Name":"川又地区コミュニティセンター","Jusho":"岩手県盛岡市川又字赤坂12-173","Kouzui":"","がけ崩れ、土石流及び地滑り":"","Takashio":"","地震":"◎","津波":"","大規模な火事":"","内水氾濫":"","火山現象":"","指定避難所との重複":"◎","備考":""}},
{"type":"Feature","geometry":{"type":"Point","coordinates":[141.2161837000,39.8097697800]},"properties":{"Name":"山谷川目地区コミュニティセンター","Jusho":"岩手県盛岡市玉山字糠森73","Kouzui":"","がけ崩れ、土石流及び地滑り":"","Takashio":"","地震":"◎","津波":"","大規模な火事":"","内水氾濫":"","火山現象":"","指定避難所との重複":"◎","備考":""}},
{"type":"Feature","geometry":{"type":"Point","coordinates":[141.2048316000,39.8166913900]},"properties":{"Name":"城内地区コミュニティセンター","Jusho":"岩手県盛岡市玉山字城内37","Kouzui":"","がけ崩れ、土石流及び地滑り":"◎","Takashio":"","地震":"◎","津波":"","大規模な火事":"","内水氾濫":"","火山現象":"","指定避難所との重複":"◎","備考":""}},
{"type":"Feature","geometry":{"type":"Point","coordinates":[141.3206030000,39.7799105000]},"properties":{"Name":"外山小学校跡（屋外運動場）","Jusho":"岩手県盛岡市薮川字外山27-7","Kouzui":"","がけ崩れ、土石流及び地滑り":"","Takashio":"","地震":"","津波":"","大規模な火事":"◎","内水氾濫":"","火山現象":"","指定避難所との重複":"","備考":""}},
{"type":"Feature","geometry":{"type":"Point","coordinates":[141.3190574000,39.7785125200]},"properties":{"Name":"薮川中学校跡（屋外運動場）","Jusho":"岩手県盛岡市薮川字外山28-6","Kouzui":"","がけ崩れ、土石流及び地滑り":"","Takashio":"","地震":"","津波":"","大規模な火事":"◎","内水氾濫":"","火山現象":"","指定避難所との重複":"","備考":""}},
{"type":"Feature","geometry":{"type":"Point","coordinates":[141.4521117000,39.8491420800]},"properties":{"Name":"薮川小学校跡（屋外運動場）","Jusho":"岩手県盛岡市薮川字町村98-2","Kouzui":"","がけ崩れ、土石流及び地滑り":"","Takashio":"","地震":"","津波":"","大規模な火事":"◎","内水氾濫":"","火山現象":"","指定避難所との重複":"","備考":""}},
{"type":"Feature","geometry":{"type":"Point","coordinates":[141.4556970000,39.8476530000]},"properties":{"Name":"町村活性化センター","Jusho":"岩手県盛岡市薮川字町村75-1","Kouzui":"","がけ崩れ、土石流及び地滑り":"◎","Takashio":"","地震":"◎","津波":"","大規模な火事":"◎","内水氾濫":"","火山現象":"","指定避難所との重複":"◎","備考":""}},
{"type":"Feature","geometry":{"type":"Point","coordinates":[141.3633196000,39.8278207700]},"properties":{"Name":"岩洞活性化センター","Jusho":"岩手県盛岡市薮川字外山35-45","Kouzui":"","がけ崩れ、土石流及び地滑り":"◎","Takashio":"","地震":"◎","津波":"","大規模な火事":"◎","内水氾濫":"","火山現象":"","指定避難所との重複":"◎","備考":""}},
{"type":"Feature","geometry":{"type":"Point","coordinates":[141.3303801000,39.7845283900]},"properties":{"Name":"薮川地区公民館","Jusho":"岩手県盛岡市薮川字外山93-1","Kouzui":"","がけ崩れ、土石流及び地滑り":"◎","Takashio":"","地震":"◎","津波":"","大規模な火事":"","内水氾濫":"","火山現象":"","指定避難所との重複":"◎","備考":""}},
{"type":"Feature","geometry":{"type":"Point","coordinates":[141.1884365000,39.9074575800]},"properties":{"Name":"永井地区コミュニティセンター","Jusho":"岩手県盛岡市玉山永井字永井沢117-1","Kouzui":"","がけ崩れ、土石流及び地滑り":"◎","Takashio":"","地震":"◎","津波":"","大規模な火事":"","内水氾濫":"","火山現象":"","指定避難所との重複":"◎","備考":""}},
{"type":"Feature","geometry":{"type":"Point","coordinates":[141.1529546000,39.8364936300]},"properties":{"Name":"舟田２地区コミュニティセンター","Jusho":"岩手県盛岡市下田字陣場54-432","Kouzui":"◎","がけ崩れ、土石流及び地滑り":"","Takashio":"","地震":"◎","津波":"","大規模な火事":"","内水氾濫":"","火山現象":"◎","指定避難所との重複":"◎","備考":""}},
{"type":"Feature","geometry":{"type":"Point","coordinates":[141.1770888000,39.8663594600]},"properties":{"Name":"芋田地区コミュニティセンター","Jusho":"岩手県盛岡市芋田字下芋田109-2","Kouzui":"","がけ崩れ、土石流及び地滑り":"◎","Takashio":"","地震":"","津波":"","大規模な火事":"","内水氾濫":"","火山現象":"","指定避難所との重複":"◎","備考":""}},
{"type":"Feature","geometry":{"type":"Point","coordinates":[141.1865790000,39.8152940600]},"properties":{"Name":"白沢地区コミュニティセンター","Jusho":"岩手県盛岡市玉山字宮前84-5","Kouzui":"","がけ崩れ、土石流及び地滑り":"◎","Takashio":"","地震":"◎","津波":"","大規模な火事":"","内水氾濫":"","火山現象":"","指定避難所との重複":"◎","備考":""}},
{"type":"Feature","geometry":{"type":"Point","coordinates":[141.1910219000,39.8820208600]},"properties":{"Name":"馬場状小屋地区コミュニティセンター","Jusho":"岩手県盛岡市玉山馬場字状小屋3-3","Kouzui":"◎","がけ崩れ、土石流及び地滑り":"◎","Takashio":"","地震":"◎","津波":"","大規模な火事":"","内水氾濫":"","火山現象":"","指定避難所との重複":"◎","備考":""}},
{"type":"Feature","geometry":{"type":"Point","coordinates":[141.2054114000,39.8762678200]},"properties":{"Name":"前田地区コミュニティセンター","Jusho":"岩手県盛岡市玉山馬場字芦名沢63-6","Kouzui":"","がけ崩れ、土石流及び地滑り":"◎","Takashio":"","地震":"◎","津波":"","大規模な火事":"","内水氾濫":"","火山現象":"","指定避難所との重複":"◎","備考":""}},
{"type":"Feature","geometry":{"type":"Point","coordinates":[141.1631875000,39.8740068100]},"properties":{"Name":"小袋地区コミュニティセンター","Jusho":"岩手県盛岡市好摩字夏間木70-31","Kouzui":"◎","がけ崩れ、土石流及び地滑り":"","Takashio":"","地震":"◎","津波":"","大規模な火事":"","内水氾濫":"","火山現象":"◎","指定避難所との重複":"◎","備考":""}},
{"type":"Feature","geometry":{"type":"Point","coordinates":[141.1132276000,39.8590516200]},"properties":{"Name":"ユートランド姫神","Jusho":"岩手県盛岡市下田字生出893-11","Kouzui":"","がけ崩れ、土石流及び地滑り":"","Takashio":"","地震":"◎","津波":"","大規模な火事":"","内水氾濫":"","火山現象":"","指定避難所との重複":"◎","備考":""}},
{"type":"Feature","geometry":{"type":"Point","coordinates":[141.2436848000,39.8009774600]},"properties":{"Name":"日戸キャンプ場","Jusho":"岩手県盛岡市日戸字新田13-52","Kouzui":"","がけ崩れ、土石流及び地滑り":"","Takashio":"","地震":"","津波":"","大規模な火事":"◎","内水氾濫":"","火山現象":"","指定避難所との重複":"","備考":""}},
{"type":"Feature","geometry":{"type":"Point","coordinates":[141.9531286000,39.6922183400]},"properties":{"Name":"女遊戸高台","Jusho":"岩手県宮古市崎山第5-50-3","Kouzui":"","がけ崩れ、土石流及び地滑り":"","Takashio":"◎","地震":"","津波":"◎","大規模な火事":"","内水氾濫":"","火山現象":"","指定避難所との重複":"","備考":""}},
{"type":"Feature","geometry":{"type":"Point","coordinates":[141.9728407000,39.6810105000]},"properties":{"Name":"姉ヶ崎地区センター高台","Jusho":"岩手県宮古市崎鍬ヶ崎16-240-2","Kouzui":"","がけ崩れ、土石流及び地滑り":"","Takashio":"◎","地震":"","津波":"◎","大規模な火事":"","内水氾濫":"","火山現象":"","指定避難所との重複":"","備考":""}},
{"type":"Feature","geometry":{"type":"Point","coordinates":[141.9505646000,39.6972935300]},"properties":{"Name":"はまゆり学園高台","Jusho":"岩手県宮古市崎山第5-88","Kouzui":"","がけ崩れ、土石流及び地滑り":"","Takashio":"◎","地震":"","津波":"◎","大規模な火事":"","内水氾濫":"","火山現象":"","指定避難所との重複":"","備考":""}},
{"type":"Feature","geometry":{"type":"Point","coordinates":[141.9732700000,39.6840097600]},"properties":{"Name":"宿高台","Jusho":"岩手県宮古市崎山第3地割内","Kouzui":"","がけ崩れ、土石流及び地滑り":"","Takashio":"◎","地震":"","津波":"◎","大規模な火事":"","内水氾濫":"","火山現象":"","指定避難所との重複":"","備考":""}},
{"type":"Feature","geometry":{"type":"Point","coordinates":[141.9742275000,39.6726490000]},"properties":{"Name":"大付月山神社高台","Jusho":"岩手県宮古市崎鍬ヶ崎15-44-1","Kouzui":"","がけ崩れ、土石流及び地滑り":"","Takashio":"◎","地震":"","津波":"◎","大規模な火事":"","内水氾濫":"","火山現象":"","指定避難所との重複":"","備考":""}},
{"type":"Feature","geometry":{"type":"Point","coordinates":[141.9675709000,39.6616359300]},"properties":{"Name":"大沢若宮神社高台","Jusho":"岩手県宮古市崎鍬ヶ崎8-85-1","Kouzui":"","がけ崩れ、土石流及び地滑り":"","Takashio":"◎","地震":"","津波":"◎","大規模な火事":"","内水氾濫":"","火山現象":"","指定避難所との重複":"","備考":""}},
{"type":"Feature","geometry":{"type":"Point","coordinates":[141.9739517000,39.6471396400]},"properties":{"Name":"臼木山高台","Jusho":"岩手県宮古市日立浜町7-20","Kouzui":"","がけ崩れ、土石流及び地滑り":"","Takashio":"◎","地震":"","津波":"◎","大規模な火事":"","内水氾濫":"","火山現象":"","指定避難所との重複":"","備考":""}},
{"type":"Feature","geometry":{"type":"Point","coordinates":[141.9781214000,39.6464900500]},"properties":{"Name":"浄土ヶ浜第１駐車場高台","Jusho":"岩手県宮古市日立浜町32","Kouzui":"","がけ崩れ、土石流及び地滑り":"","Takashio":"◎","地震":"","津波":"◎","大規模な火事":"","内水氾濫":"","火山現象":"","指定避難所との重複":"","備考":""}},
{"type":"Feature","geometry":{"type":"Point","coordinates":[141.9740029000,39.6497915500]},"properties":{"Name":"浄土ヶ浜第３駐車場高台","Jusho":"岩手県宮古市日立浜町４","Kouzui":"","がけ崩れ、土石流及び地滑り":"","Takashio":"◎","地震":"","津波":"◎","大規模な火事":"","内水氾濫":"","火山現象":"","指定避難所との重複":"","備考":""}},
{"type":"Feature","geometry":{"type":"Point","coordinates":[141.9761615000,39.6482863500]},"properties":{"Name":"水産科学館高台","Jusho":"岩手県宮古市日立浜町32-28","Kouzui":"","がけ崩れ、土石流及び地滑り":"","Takashio":"◎","地震":"","津波":"◎","大規模な火事":"","内水氾濫":"","火山現象":"","指定避難所との重複":"","備考":""}},
{"type":"Feature","geometry":{"type":"Point","coordinates":[141.9739757000,39.6458885300]},"properties":{"Name":"旧船員寮前高台","Jusho":"岩手県宮古市日立浜町7","Kouzui":"","がけ崩れ、土石流及び地滑り":"","Takashio":"◎","地震":"","津波":"◎","大規模な火事":"","内水氾濫":"","火山現象":"","指定避難所との重複":"","備考":""}},
{"type":"Feature","geometry":{"type":"Point","coordinates":[141.9691612000,39.6508753100]},"properties":{"Name":"心公院高台","Jusho":"岩手県宮古市蛸の浜町7-136","Kouzui":"","がけ崩れ、土石流及び地滑り":"","Takashio":"◎","地震":"","津波":"◎","大規模な火事":"","内水氾濫":"","火山現象":"","指定避難所との重複":"","備考":""}},
{"type":"Feature","geometry":{"type":"Point","coordinates":[141.9683543000,39.6506286700]},"properties":{"Name":"熊野神社高台（熊野町）","Jusho":"岩手県宮古市熊野町3-1-138","Kouzui":"","がけ崩れ、土石流及び地滑り":"","Takashio":"◎","地震":"","津波":"◎","大規模な火事":"","内水氾濫":"","火山現象":"","指定避難所との重複":"","備考":""}},
{"type":"Feature","geometry":{"type":"Point","coordinates":[141.9644576000,39.6506772600]},"properties":{"Name":"鍬ヶ崎小学校裏高台","Jusho":"岩手県宮古市熊野町76-2","Kouzui":"","がけ崩れ、土石流及び地滑り":"","Takashio":"◎","地震":"","津波":"◎","大規模な火事":"","内水氾濫":"","火山現象":"","指定避難所との重複":"","備考":""}},
{"type":"Feature","geometry":{"type":"Point","coordinates":[141.9633649000,39.6496820500]},"properties":{"Name":"旧不動園高台","Jusho":"岩手県宮古市日影町5-100-1","Kouzui":"","がけ崩れ、土石流及び地滑り":"","Takashio":"◎","地震":"","津波":"◎","大規模な火事":"","内水氾濫":"","火山現象":"","指定避難所との重複":"","備考":""}},
{"type":"Feature","geometry":{"type":"Point","coordinates":[141.9648298000,39.6469305900]},"properties":{"Name":"梅翁寺高台","Jusho":"岩手県宮古市中里団地81-11","Kouzui":"","がけ崩れ、土石流及び地滑り":"","Takashio":"◎","地震":"","津波":"◎","大規模な火事":"","内水氾濫":"","火山現象":"","指定避難所との重複":"","備考":""}},
{"type":"Feature","geometry":{"type":"Point","coordinates":[141.9633285000,39.6447110100]},"properties":{"Name":"本照寺高台","Jusho":"岩手県宮古市愛宕2-67-1","Kouzui":"","がけ崩れ、土石流及び地滑り":"","Takashio":"◎","地震":"","津波":"◎","大規模な火事":"","内水氾濫":"","火山現象":"","指定避難所との重複":"","備考":""}},
{"type":"Feature","geometry":{"type":"Point","coordinates":[141.9657306000,39.6432562900]},"properties":{"Name":"常安寺分院高台","Jusho":"岩手県宮古市鍬ヶ崎上町2-20","Kouzui":"","がけ崩れ、土石流及び地滑り":"","Takashio":"◎","地震":"","津波":"◎","大規模な火事":"","内水氾濫":"","火山現象":"","指定避難所との重複":"","備考":""}},
{"type":"Feature","geometry":{"type":"Point","coordinates":[141.9644631000,39.6416503900]},"properties":{"Name":"善林寺高台","Jusho":"岩手県宮古市光岸地6-40","Kouzui":"","がけ崩れ、土石流及び地滑り":"","Takashio":"◎","地震":"","津波":"◎","大規模な火事":"","内水氾濫":"","火山現象":"","指定避難所との重複":"","備考":""}},
{"type":"Feature","geometry":{"type":"Point","coordinates":[141.9653853000,39.6414761100]},"properties":{"Name":"大杉神社高台","Jusho":"岩手県宮古市光岸地5-32","Kouzui":"","がけ崩れ、土石流及び地滑り":"","Takashio":"◎","地震":"","津波":"◎","大規模な火事":"","内水氾濫":"","火山現象":"","指定避難所との重複":"","備考":""}},
{"type":"Feature","geometry":{"type":"Point","coordinates":[141.9667118000,39.6407222500]},"properties":{"Name":"宮古漁協ビル駐車場高台","Jusho":"岩手県宮古市光岸地4-40","Kouzui":"","がけ崩れ、土石流及び地滑り":"","Takashio":"◎","地震":"","津波":"◎","大規模な火事":"","内水氾濫":"","火山現象":"","指定避難所との重複":"","備考":""}},
{"type":"Feature","geometry":{"type":"Point","coordinates":[141.9571729000,39.6439308700]},"properties":{"Name":"中央公民館裏高台","Jusho":"岩手県宮古市築地1-3-9","Kouzui":"","がけ崩れ、土石流及び地滑り":"","Takashio":"◎","地震":"","津波":"◎","大規模な火事":"","内水氾濫":"","火山現象":"","指定避難所との重複":"","備考":""}},
{"type":"Feature","geometry":{"type":"Point","coordinates":[141.9553376000,39.6455770400]},"properties":{"Name":"常安寺高台","Jusho":"岩手県宮古市沢田4-136-1","Kouzui":"","がけ崩れ、土石流及び地滑り":"","Takashio":"◎","地震":"","津波":"◎","大規模な火事":"","内水氾濫":"","火山現象":"","指定避難所との重複":"","備考":""}},
{"type":"Feature","geometry":{"type":"Point","coordinates":[141.9514313000,39.6446845700]},"properties":{"Name":"横町高台","Jusho":"岩手県宮古市横町 118-1","Kouzui":"","がけ崩れ、土石流及び地滑り":"","Takashio":"◎","地震":"","津波":"◎","大規模な火事":"","内水氾濫":"","火山現象":"","指定避難所との重複":"","備考":""}},
{"type":"Feature","geometry":{"type":"Point","coordinates":[141.9466624000,39.6470923900]},"properties":{"Name":"宮古消防署前","Jusho":"岩手県宮古市五月町2-1","Kouzui":"","がけ崩れ、土石流及び地滑り":"","Takashio":"◎","地震":"","津波":"◎","大規模な火事":"","内水氾濫":"","火山現象":"","指定避難所との重複":"","備考":""}},
{"type":"Feature","geometry":{"type":"Point","coordinates":[141.9436548000,39.6476072100]},"properties":{"Name":"つつじが丘公園高台","Jusho":"岩手県宮古市西町2-4-2","Kouzui":"","がけ崩れ、土石流及び地滑り":"","Takashio":"◎","地震":"","津波":"◎","大規模な火事":"","内水氾濫":"","火山現象":"","指定避難所との重複":"","備考":""}},
{"type":"Feature","geometry":{"type":"Point","coordinates":[141.9333599000,39.6469827600]},"properties":{"Name":"もみじヶ丘公園高台","Jusho":"岩手県宮古市山口3-5-16","Kouzui":"","がけ崩れ、土石流及び地滑り":"","Takashio":"◎","地震":"","津波":"◎","大規模な火事":"","内水氾濫":"","火山現象":"","指定避難所との重複":"","備考":""}},
{"type":"Feature","geometry":{"type":"Point","coordinates":[141.9419696000,39.6424940000]},"properties":{"Name":"舘合近隣公園高台","Jusho":"岩手県宮古市舘合町4-8","Kouzui":"","がけ崩れ、土石流及び地滑り":"","Takashio":"◎","地震":"","津波":"◎","大規模な火事":"","内水氾濫":"","火山現象":"","指定避難所との重複":"","備考":""}},
{"type":"Feature","geometry":{"type":"Point","coordinates":[141.9398675000,39.6434403000]},"properties":{"Name":"鴨崎高台","Jusho":"岩手県宮古市鴨崎町5-46-1","Kouzui":"","がけ崩れ、土石流及び地滑り":"","Takashio":"◎","地震":"","津波":"◎","大規模な火事":"","内水氾濫":"","火山現象":"","指定避難所との重複":"","備考":""}},
{"type":"Feature","geometry":{"type":"Point","coordinates":[141.9437581000,39.6379525800]},"properties":{"Name":"横山八幡宮高台","Jusho":"岩手県宮古市宮町2-5-4","Kouzui":"","がけ崩れ、土石流及び地滑り":"","Takashio":"◎","地震":"","津波":"◎","大規模な火事":"","内水氾濫":"","火山現象":"","指定避難所との重複":"","備考":""}},
{"type":"Feature","geometry":{"type":"Point","coordinates":[141.9345647000,39.6422237600]},"properties":{"Name":"長根寺高台","Jusho":"岩手県宮古市長根1-11-1","Kouzui":"","がけ崩れ、土石流及び地滑り":"","Takashio":"◎","地震":"","津波":"◎","大規模な火事":"","内水氾濫":"","火山現象":"","指定避難所との重複":"","備考":""}},
{"type":"Feature","geometry":{"type":"Point","coordinates":[141.9293655000,39.6426011700]},"properties":{"Name":"青猿神社高台","Jusho":"岩手県宮古市長根4-18-7","Kouzui":"","がけ崩れ、土石流及び地滑り":"","Takashio":"◎","地震":"","津波":"◎","大規模な火事":"","内水氾濫":"","火山現象":"","指定避難所との重複":"","備考":""}},
{"type":"Feature","geometry":{"type":"Point","coordinates":[141.9161765000,39.6389752000]},"properties":{"Name":"西ヶ丘近隣公園高台(さくら公園)","Jusho":"岩手県宮古市西ヶ丘1-1","Kouzui":"","がけ崩れ、土石流及び地滑り":"","Takashio":"◎","地震":"","津波":"◎","大規模な火事":"","内水氾濫":"","火山現象":"","指定避難所との重複":"","備考":""}},
{"type":"Feature","geometry":{"type":"Point","coordinates":[141.9123102000,39.6335919100]},"properties":{"Name":"かんぱな公園高台","Jusho":"岩手県宮古市上鼻町1-7-11","Kouzui":"","がけ崩れ、土石流及び地滑り":"","Takashio":"◎","地震":"","津波":"◎","大規模な火事":"","内水氾濫":"","火山現象":"","指定避難所との重複":"","備考":""}},
{"type":"Feature","geometry":{"type":"Point","coordinates":[141.9367476000,39.6343294700]},"properties":{"Name":"薬師神社高台","Jusho":"岩手県宮古市小山田4-22-3","Kouzui":"","がけ崩れ、土石流及び地滑り":"","Takashio":"◎","地震":"","津波":"◎","大規模な火事":"","内水氾濫":"","火山現象":"","指定避難所との重複":"","備考":""}},
{"type":"Feature","geometry":{"type":"Point","coordinates":[141.9398781000,39.6318213000]},"properties":{"Name":"小山田高台","Jusho":"岩手県宮古市小山田3-2","Kouzui":"","がけ崩れ、土石流及び地滑り":"","Takashio":"◎","地震":"","津波":"◎","大規模な火事":"","内水氾濫":"","火山現象":"","指定避難所との重複":"","備考":""}},
{"type":"Feature","geometry":{"type":"Point","coordinates":[141.9577163000,39.6339961200]},"properties":{"Name":"伊藤牧場跡高台","Jusho":"岩手県宮古市藤原上町4-118","Kouzui":"","がけ崩れ、土石流及び地滑り":"","Takashio":"◎","地震":"","津波":"◎","大規模な火事":"","内水氾濫":"","火山現象":"","指定避難所との重複":"","備考":""}},
{"type":"Feature","geometry":{"type":"Point","coordinates":[141.9596069000,39.6360813500]},"properties":{"Name":"比古神社高台","Jusho":"岩手県宮古市藤原上町3-113-1","Kouzui":"","がけ崩れ、土石流及び地滑り":"","Takashio":"◎","地震":"","津波":"◎","大規模な火事":"","内水氾濫":"","火山現象":"","指定避難所との重複":"","備考":""}},
{"type":"Feature","geometry":{"type":"Point","coordinates":[141.9575693000,39.6290921100]},"properties":{"Name":"わむら公園高台","Jusho":"岩手県宮古市上村1-7","Kouzui":"","がけ崩れ、土石流及び地滑り":"","Takashio":"◎","地震":"","津波":"◎","大規模な火事":"","内水氾濫":"","火山現象":"","指定避難所との重複":"","備考":""}},
{"type":"Feature","geometry":{"type":"Point","coordinates":[141.9580274000,39.6266581700]},"properties":{"Name":"上村修導場付近高台","Jusho":"岩手県宮古市上村2-1","Kouzui":"","がけ崩れ、土石流及び地滑り":"","Takashio":"◎","地震":"","津波":"◎","大規模な火事":"","内水氾濫":"","火山現象":"","指定避難所との重複":"","備考":""}},
{"type":"Feature","geometry":{"type":"Point","coordinates":[141.9446309000,39.6201247300]},"properties":{"Name":"八木沢公園高台","Jusho":"岩手県宮古市八木沢2-8-4","Kouzui":"","がけ崩れ、土石流及び地滑り":"","Takashio":"◎","地震":"","津波":"◎","大規模な火事":"","内水氾濫":"","火山現象":"","指定避難所との重複":"","備考":""}},
{"type":"Feature","geometry":{"type":"Point","coordinates":[141.9635752000,39.6258038100]},"properties":{"Name":"越田山高台","Jusho":"岩手県宮古市磯鶏4-100-3","Kouzui":"","がけ崩れ、土石流及び地滑り":"","Takashio":"◎","地震":"","津波":"◎","大規模な火事":"","内水氾濫":"","火山現象":"","指定避難所との重複":"","備考":""}},
{"type":"Feature","geometry":{"type":"Point","coordinates":[141.9636085000,39.6248755800]},"properties":{"Name":"越田山熊野神社高台","Jusho":"岩手県宮古市磯鶏4-89","Kouzui":"","がけ崩れ、土石流及び地滑り":"","Takashio":"◎","地震":"","津波":"◎","大規模な火事":"","内水氾濫":"","火山現象":"","指定避難所との重複":"","備考":""}},
{"type":"Feature","geometry":{"type":"Point","coordinates":[141.9579726000,39.6149748400]},"properties":{"Name":"藤の川地区会館高台","Jusho":"岩手県宮古市藤の川13-194-280","Kouzui":"","がけ崩れ、土石流及び地滑り":"","Takashio":"◎","地震":"","津波":"◎","大規模な火事":"","内水氾濫":"","火山現象":"","指定避難所との重複":"","備考":""}},
{"type":"Feature","geometry":{"type":"Point","coordinates":[141.9513964000,39.6187769400]},"properties":{"Name":"県立宮古短期大学高台","Jusho":"岩手県宮古市河南1-5-1","Kouzui":"","がけ崩れ、土石流及び地滑り":"","Takashio":"◎","地震":"","津波":"◎","大規模な火事":"","内水氾濫":"","火山現象":"","指定避難所との重複":"","備考":""}},
{"type":"Feature","geometry":{"type":"Point","coordinates":[141.9601342000,39.6176834500]},"properties":{"Name":"宮古商業高等学校高台","Jusho":"岩手県宮古市磯鶏3-5-1","Kouzui":"","がけ崩れ、土石流及び地滑り":"","Takashio":"◎","地震":"","津波":"◎","大規模な火事":"","内水氾濫":"","火山現象":"","指定避難所との重複":"","備考":""}},
{"type":"Feature","geometry":{"type":"Point","coordinates":[141.9601361000,39.6159568700]},"properties":{"Name":"三陸国道事務所高台","Jusho":"岩手県宮古市藤の川4-1","Kouzui":"","がけ崩れ、土石流及び地滑り":"","Takashio":"◎","地震":"","津波":"◎","大規模な火事":"","内水氾濫":"","火山現象":"","指定避難所との重複":"","備考":""}},
{"type":"Feature","geometry":{"type":"Point","coordinates":[141.9546422000,39.6087463400]},"properties":{"Name":"高浜稲荷神社高台","Jusho":"岩手県宮古市高浜1-7","Kouzui":"","がけ崩れ、土石流及び地滑り":"","Takashio":"◎","地震":"","津波":"◎","大規模な火事":"","内水氾濫":"","火山現象":"","指定避難所との重複":"","備考":""}},
{"type":"Feature","geometry":{"type":"Point","coordinates":[141.9521150000,39.6061302300]},"properties":{"Name":"コープケミカル高浜住宅高台","Jusho":"岩手県宮古市高浜第3地割内","Kouzui":"","がけ崩れ、土石流及び地滑り":"","Takashio":"◎","地震":"","津波":"◎","大規模な火事":"","内水氾濫":"","火山現象":"","指定避難所との重複":"","備考":""}},
{"type":"Feature","geometry":{"type":"Point","coordinates":[141.9375364000,39.5998372800]},"properties":{"Name":"八木沢峠高台","Jusho":"岩手県宮古市八木沢第8地割内","Kouzui":"","がけ崩れ、土石流及び地滑り":"","Takashio":"◎","地震":"","津波":"◎","大規模な火事":"","内水氾濫":"","火山現象":"","指定避難所との重複":"","備考":""}},
{"type":"Feature","geometry":{"type":"Point","coordinates":[141.9422474000,39.5978310100]},"properties":{"Name":"金浜稲荷神社高台","Jusho":"岩手県宮古市金浜１-13","Kouzui":"","がけ崩れ、土石流及び地滑り":"","Takashio":"◎","地震":"","津波":"◎","大規模な火事":"","内水氾濫":"","火山現象":"","指定避難所との重複":"","備考":""}},
{"type":"Feature","geometry":{"type":"Point","coordinates":[141.9440847000,39.5979972000]},"properties":{"Name":"金浜老人福祉センター高台","Jusho":"岩手県宮古市金浜１-7","Kouzui":"","がけ崩れ、土石流及び地滑り":"","Takashio":"◎","地震":"","津波":"◎","大規模な火事":"","内水氾濫":"","火山現象":"","指定避難所との重複":"","備考":""}},
{"type":"Feature","geometry":{"type":"Point","coordinates":[141.9006018000,39.6191913400]},"properties":{"Name":"田鎖高台","Jusho":"岩手県宮古市田鎖第3地割内","Kouzui":"","がけ崩れ、土石流及び地滑り":"","Takashio":"◎","地震":"","津波":"◎","大規模な火事":"","内水氾濫":"","火山現象":"","指定避難所との重複":"","備考":""}},
{"type":"Feature","geometry":{"type":"Point","coordinates":[141.8982799000,39.6132821100]},"properties":{"Name":"花輪中学校高台","Jusho":"岩手県宮古市花輪5-132","Kouzui":"","がけ崩れ、土石流及び地滑り":"","Takashio":"◎","地震":"","津波":"◎","大規模な火事":"","内水氾濫":"","火山現象":"","指定避難所との重複":"","備考":""}},
{"type":"Feature","geometry":{"type":"Point","coordinates":[141.9147639000,39.6214264600]},"properties":{"Name":"松山地区センター高台","Jusho":"岩手県宮古市松山8-80-5","Kouzui":"","がけ崩れ、土石流及び地滑り":"","Takashio":"◎","地震":"","津波":"◎","大規模な火事":"","内水氾濫":"","火山現象":"","指定避難所との重複":"","備考":""}},
{"type":"Feature","geometry":{"type":"Point","coordinates":[141.8848598000,39.6196125000]},"properties":{"Name":"老木公民館高台","Jusho":"岩手県宮古市老木7-5-2","Kouzui":"","がけ崩れ、土石流及び地滑り":"","Takashio":"◎","地震":"","津波":"◎","大規模な火事":"","内水氾濫":"","火山現象":"","指定避難所との重複":"","備考":""}},
{"type":"Feature","geometry":{"type":"Point","coordinates":[141.9378141000,39.5859728700]},"properties":{"Name":"馬越高台","Jusho":"岩手県宮古市津軽石3地割内","Kouzui":"","がけ崩れ、土石流及び地滑り":"","Takashio":"◎","地震":"","津波":"◎","大規模な火事":"","内水氾濫":"","火山現象":"","指定避難所との重複":"","備考":""}},
{"type":"Feature","geometry":{"type":"Point","coordinates":[141.9325623000,39.5773357100]},"properties":{"Name":"館山公園高台","Jusho":"岩手県宮古市津軽石第6地割内","Kouzui":"","がけ崩れ、土石流及び地滑り":"","Takashio":"◎","地震":"","津波":"◎","大規模な火事":"","内水氾濫":"","火山現象":"","指定避難所との重複":"","備考":""}},
{"type":"Feature","geometry":{"type":"Point","coordinates":[141.9274779000,39.5674842500]},"properties":{"Name":"瑞雲寺高台","Jusho":"岩手県宮古市津軽石14-35","Kouzui":"","がけ崩れ、土石流及び地滑り":"","Takashio":"◎","地震":"","津波":"◎","大規模な火事":"","内水氾濫":"","火山現象":"","指定避難所との重複":"","備考":""}},
{"type":"Feature","geometry":{"type":"Point","coordinates":[141.9430048000,39.5752204200]},"properties":{"Name":"久保田山高台","Jusho":"岩手県宮古市赤前第１地割内","Kouzui":"","がけ崩れ、土石流及び地滑り":"","Takashio":"◎","地震":"","津波":"◎","大規模な火事":"","内水氾濫":"","火山現象":"","指定避難所との重複":"","備考":""}},
{"type":"Feature","geometry":{"type":"Point","coordinates":[141.9411906000,39.5691558100]},"properties":{"Name":"駒形神社高台","Jusho":"岩手県宮古市津軽石12-30","Kouzui":"","がけ崩れ、土石流及び地滑り":"","Takashio":"◎","地震":"","津波":"◎","大規模な火事":"","内水氾濫":"","火山現象":"","指定避難所との重複":"","備考":""}},
{"type":"Feature","geometry":{"type":"Point","coordinates":[141.9548313000,39.5767157300]},"properties":{"Name":"八幡神社高台","Jusho":"岩手県宮古市赤前5-51","Kouzui":"","がけ崩れ、土石流及び地滑り":"","Takashio":"◎","地震":"","津波":"◎","大規模な火事":"","内水氾濫":"","火山現象":"","指定避難所との重複":"","備考":""}},
{"type":"Feature","geometry":{"type":"Point","coordinates":[141.9605931000,39.5855086500]},"properties":{"Name":"釜ヶ沢高台","Jusho":"岩手県宮古市赤前第13地割内","Kouzui":"","がけ崩れ、土石流及び地滑り":"","Takashio":"◎","地震":"","津波":"◎","大規模な火事":"","内水氾濫":"","火山現象":"","指定避難所との重複":"","備考":""}},
{"type":"Feature","geometry":{"type":"Point","coordinates":[141.9633150000,39.5884819600]},"properties":{"Name":"小堀内高台","Jusho":"岩手県宮古市赤前第14地割内","Kouzui":"","がけ崩れ、土石流及び地滑り":"","Takashio":"◎","地震":"","津波":"◎","大規模な火事":"","内水氾濫":"","火山現象":"","指定避難所との重複":"","備考":""}},
{"type":"Feature","geometry":{"type":"Point","coordinates":[141.9669096000,39.5921505200]},"properties":{"Name":"堀内高台","Jusho":"岩手県宮古市赤前第15地割内","Kouzui":"","がけ崩れ、土石流及び地滑り":"","Takashio":"◎","地震":"","津波":"◎","大規模な火事":"","内水氾濫":"","火山現象":"","指定避難所との重複":"","備考":""}},
{"type":"Feature","geometry":{"type":"Point","coordinates":[141.9859430000,39.6084197600]},"properties":{"Name":"白浜農村公園高台","Jusho":"岩手県宮古市白浜第１地割内","Kouzui":"","がけ崩れ、土石流及び地滑り":"","Takashio":"◎","地震":"","津波":"◎","大規模な火事":"","内水氾濫":"","火山現象":"","指定避難所との重複":"","備考":""}},
{"type":"Feature","geometry":{"type":"Point","coordinates":[141.9747391000,39.6030895500]},"properties":{"Name":"太田の浜高台","Jusho":"岩手県宮古市白浜3-39-1","Kouzui":"","がけ崩れ、土石流及び地滑り":"","Takashio":"◎","地震":"","津波":"◎","大規模な火事":"","内水氾濫":"","火山現象":"","指定避難所との重複":"","備考":""}},
{"type":"Feature","geometry":{"type":"Point","coordinates":[141.9531006000,39.5795115300]},"properties":{"Name":"赤前上会館高台","Jusho":"岩手県宮古市赤前7-4","Kouzui":"","がけ崩れ、土石流及び地滑り":"","Takashio":"◎","地震":"","津波":"◎","大規模な火事":"","内水氾濫":"","火山現象":"","指定避難所との重複":"","備考":""}},
{"type":"Feature","geometry":{"type":"Point","coordinates":[141.9560155000,39.5834571900]},"properties":{"Name":"赤前漁村センター高台","Jusho":"岩手県宮古市赤前11-3","Kouzui":"","がけ崩れ、土石流及び地滑り":"","Takashio":"◎","地震":"","津波":"◎","大規模な火事":"","内水氾濫":"","火山現象":"","指定避難所との重複":"","備考":""}},
{"type":"Feature","geometry":{"type":"Point","coordinates":[142.0086605000,39.6412982100]},"properties":{"Name":"追切高台","Jusho":"岩手県宮古市重茂第30地割内","Kouzui":"","がけ崩れ、土石流及び地滑り":"","Takashio":"◎","地震":"","津波":"◎","大規模な火事":"","内水氾濫":"","火山現象":"","指定避難所との重複":"","備考":""}},
{"type":"Feature","geometry":{"type":"Point","coordinates":[142.0072328000,39.6376848100]},"properties":{"Name":"浦の沢高台","Jusho":"岩手県宮古市重茂第31地割内","Kouzui":"","がけ崩れ、土石流及び地滑り":"","Takashio":"◎","地震":"","津波":"◎","大規模な火事":"","内水氾濫":"","火山現象":"","指定避難所との重複":"","備考":""}},
{"type":"Feature","geometry":{"type":"Point","coordinates":[142.0170411000,39.6154682600]},"properties":{"Name":"林道鵜磯線高台","Jusho":"岩手県宮古市重茂26-19-1","Kouzui":"","がけ崩れ、土石流及び地滑り":"","Takashio":"◎","地震":"","津波":"◎","大規模な火事":"","内水氾濫":"","火山現象":"","指定避難所との重複":"","備考":""}},
{"type":"Feature","geometry":{"type":"Point","coordinates":[142.0120877000,39.6336882200]},"properties":{"Name":"北地区公民館高台","Jusho":"岩手県宮古市重茂28-5","Kouzui":"","がけ崩れ、土石流及び地滑り":"","Takashio":"◎","地震":"","津波":"◎","大規模な火事":"","内水氾濫":"","火山現象":"","指定避難所との重複":"","備考":""}},
{"type":"Feature","geometry":{"type":"Point","coordinates":[142.0175764000,39.6060325500]},"properties":{"Name":"荒巻高台","Jusho":"岩手県宮古市重茂第24地割内","Kouzui":"","がけ崩れ、土石流及び地滑り":"","Takashio":"◎","地震":"","津波":"◎","大規模な火事":"","内水氾濫":"","火山現象":"","指定避難所との重複":"","備考":""}},
{"type":"Feature","geometry":{"type":"Point","coordinates":[142.0225121000,39.5959608500]},"properties":{"Name":"音部神社高台","Jusho":"岩手県宮古市音部6-33-2","Kouzui":"","がけ崩れ、土石流及び地滑り":"","Takashio":"◎","地震":"","津波":"◎","大規模な火事":"","内水氾濫":"","火山現象":"","指定避難所との重複":"","備考":""}},
{"type":"Feature","geometry":{"type":"Point","coordinates":[142.0227044000,39.5902361200]},"properties":{"Name":"笹見内地区会館高台","Jusho":"岩手県宮古市音部3-88-2","Kouzui":"","がけ崩れ、土石流及び地滑り":"","Takashio":"◎","地震":"","津波":"◎","大規模な火事":"","内水氾濫":"","火山現象":"","指定避難所との重複":"","備考":""}},
{"type":"Feature","geometry":{"type":"Point","coordinates":[142.0321488000,39.5321810700]},"properties":{"Name":"千鶏神社高台","Jusho":"岩手県宮古市重茂11-88-4","Kouzui":"","がけ崩れ、土石流及び地滑り":"","Takashio":"◎","地震":"","津波":"◎","大規模な火事":"","内水氾濫":"","火山現象":"","指定避難所との重複":"","備考":""}},
{"type":"Feature","geometry":{"type":"Point","coordinates":[142.0437348000,39.5362789700]},"properties":{"Name":"姉吉神社高台","Jusho":"岩手県宮古市重茂第9地割内","Kouzui":"","がけ崩れ、土石流及び地滑り":"","Takashio":"◎","地震":"","津波":"◎","大規模な火事":"","内水氾濫":"","火山現象":"","指定避難所との重複":"","備考":""}},
{"type":"Feature","geometry":{"type":"Point","coordinates":[142.0248525000,39.5228238300]},"properties":{"Name":"石浜バス停付近高台","Jusho":"岩手県宮古市重茂第18地割内","Kouzui":"","がけ崩れ、土石流及び地滑り":"","Takashio":"◎","地震":"","津波":"◎","大規模な火事":"","内水氾濫":"","火山現象":"","指定避難所との重複":"","備考":""}},
{"type":"Feature","geometry":{"type":"Point","coordinates":[142.0249361000,39.5244221900]},"properties":{"Name":"石浜中央バス停付近高台","Jusho":"岩手県宮古市重茂第18地割内","Kouzui":"","がけ崩れ、土石流及び地滑り":"","Takashio":"◎","地震":"","津波":"◎","大規模な火事":"","内水氾濫":"","火山現象":"","指定避難所との重複":"","備考":""}},
{"type":"Feature","geometry":{"type":"Point","coordinates":[142.0091360000,39.5022321100]},"properties":{"Name":"賀具羅神社高台","Jusho":"岩手県宮古市重茂22-56-1","Kouzui":"","がけ崩れ、土石流及び地滑り":"","Takashio":"◎","地震":"","津波":"◎","大規模な火事":"","内水氾濫":"","火山現象":"","指定避難所との重複":"","備考":""}},
{"type":"Feature","geometry":{"type":"Point","coordinates":[142.0213086000,39.5758561400]},"properties":{"Name":"里・神祠神社高台","Jusho":"岩手県宮古市重茂1-12-1","Kouzui":"","がけ崩れ、土石流及び地滑り":"","Takashio":"◎","地震":"","津波":"◎","大規模な火事":"","内水氾濫":"","火山現象":"","指定避難所との重複":"","備考":""}},
{"type":"Feature","geometry":{"type":"Point","coordinates":[142.0215573000,39.5821281900]},"properties":{"Name":"重茂地区総合交流促進センター高台","Jusho":"岩手県宮古市重茂1-61","Kouzui":"","がけ崩れ、土石流及び地滑り":"","Takashio":"◎","地震":"","津波":"◎","大規模な火事":"","内水氾濫":"","火山現象":"","指定避難所との重複":"","備考":""}},
{"type":"Feature","geometry":{"type":"Point","coordinates":[142.0221201000,39.5792472800]},"properties":{"Name":"県道重茂半島線高台","Jusho":"岩手県宮古市重茂第1地割内","Kouzui":"","がけ崩れ、土石流及び地滑り":"","Takashio":"◎","地震":"","津波":"◎","大規模な火事":"","内水氾濫":"","火山現象":"","指定避難所との重複":"","備考":""}},
{"type":"Feature","geometry":{"type":"Point","coordinates":[142.0176425000,39.5793860700]},"properties":{"Name":"林道里麦生野線高台","Jusho":"岩手県宮古市重茂第1地割内","Kouzui":"","がけ崩れ、土石流及び地滑り":"","Takashio":"◎","地震":"","津波":"◎","大規模な火事":"","内水氾濫":"","火山現象":"","指定避難所との重複":"","備考":""}},
{"type":"Feature","geometry":{"type":"Point","coordinates":[141.9710095000,39.7111715200]},"properties":{"Name":"樫内地区集会施設高台","Jusho":"岩手県宮古市田老樫内１22","Kouzui":"","がけ崩れ、土石流及び地滑り":"","Takashio":"◎","地震":"","津波":"◎","大規模な火事":"","内水氾濫":"","火山現象":"","指定避難所との重複":"","備考":""}},
{"type":"Feature","geometry":{"type":"Point","coordinates":[141.9499760000,39.7308033900]},"properties":{"Name":"宮古北高等学校高台","Jusho":"岩手県宮古市田老字八幡水神43-2","Kouzui":"","がけ崩れ、土石流及び地滑り":"","Takashio":"◎","地震":"","津波":"◎","大規模な火事":"","内水氾濫":"","火山現象":"","指定避難所との重複":"","備考":""}},
{"type":"Feature","geometry":{"type":"Point","coordinates":[141.9634281000,39.7310446500]},"properties":{"Name":"日枝神社表参道高台","Jusho":"岩手県宮古市田老字小林232","Kouzui":"","がけ崩れ、土石流及び地滑り":"","Takashio":"◎","地震":"","津波":"◎","大規模な火事":"","内水氾濫":"","火山現象":"","指定避難所との重複":"","備考":""}},
{"type":"Feature","geometry":{"type":"Point","coordinates":[141.9616653000,39.7284393100]},"properties":{"Name":"アイノ山高台","Jusho":"岩手県宮古市田老字小田代54-63","Kouzui":"","がけ崩れ、土石流及び地滑り":"","Takashio":"◎","地震":"","津波":"◎","大規模な火事":"","内水氾濫":"","火山現象":"","指定避難所との重複":"","備考":""}},
{"type":"Feature","geometry":{"type":"Point","coordinates":[141.9666821000,39.7267440500]},"properties":{"Name":"宮古水産加工団地付近旧国道高台","Jusho":"岩手県宮古市田老字西向山250-44","Kouzui":"","がけ崩れ、土石流及び地滑り":"","Takashio":"◎","地震":"","津波":"◎","大規模な火事":"","内水氾濫":"","火山現象":"","指定避難所との重複":"","備考":""}},
{"type":"Feature","geometry":{"type":"Point","coordinates":[141.9623467000,39.7314165200]},"properties":{"Name":"兄形団地住宅裏高台","Jusho":"岩手県宮古市田老字小林231-143","Kouzui":"","がけ崩れ、土石流及び地滑り":"","Takashio":"◎","地震":"","津波":"◎","大規模な火事":"","内水氾濫":"","火山現象":"","指定避難所との重複":"","備考":""}},
{"type":"Feature","geometry":{"type":"Point","coordinates":[141.9643655000,39.7344419700]},"properties":{"Name":"日枝神社裏参道高台","Jusho":"岩手県宮古市田老字小林69-3","Kouzui":"","がけ崩れ、土石流及び地滑り":"","Takashio":"◎","地震":"","津波":"◎","大規模な火事":"","内水氾濫":"","火山現象":"","指定避難所との重複":"","備考":""}},
{"type":"Feature","geometry":{"type":"Point","coordinates":[141.9678008000,39.7372056700]},"properties":{"Name":"常運寺高台","Jusho":"岩手県宮古市田老館が森140","Kouzui":"","がけ崩れ、土石流及び地滑り":"","Takashio":"◎","地震":"","津波":"◎","大規模な火事":"","内水氾濫":"","火山現象":"","指定避難所との重複":"","備考":""}},
{"type":"Feature","geometry":{"type":"Point","coordinates":[141.9674549000,39.7346641200]},"properties":{"Name":"杉下宅付近高台","Jusho":"岩手県宮古市田老字田中132-2","Kouzui":"","がけ崩れ、土石流及び地滑り":"","Takashio":"◎","地震":"","津波":"◎","大規模な火事":"","内水氾濫":"","火山現象":"","指定避難所との重複":"","備考":""}},
{"type":"Feature","geometry":{"type":"Point","coordinates":[141.9693653000,39.7372148400]},"properties":{"Name":"田老総合事務所付近高台","Jusho":"岩手県宮古市田老下町129-2","Kouzui":"","がけ崩れ、土石流及び地滑り":"","Takashio":"◎","地震":"","津波":"◎","大規模な火事":"","内水氾濫":"","火山現象":"","指定避難所との重複":"","備考":""}},
{"type":"Feature","geometry":{"type":"Point","coordinates":[141.9655172000,39.7367123500]},"properties":{"Name":"田老第一小学校裏高台","Jusho":"岩手県宮古市田老館が森157","Kouzui":"","がけ崩れ、土石流及び地滑り":"","Takashio":"◎","地震":"","津波":"◎","大規模な火事":"","内水氾濫":"","火山現象":"","指定避難所との重複":"","備考":""}},
{"type":"Feature","geometry":{"type":"Point","coordinates":[141.9700103000,39.7369285100]},"properties":{"Name":"赤沼山高台","Jusho":"岩手県宮古市田老下町37-5","Kouzui":"","がけ崩れ、土石流及び地滑り":"","Takashio":"◎","地震":"","津波":"◎","大規模な火事":"","内水氾濫":"","火山現象":"","指定避難所との重複":"","備考":""}},
{"type":"Feature","geometry":{"type":"Point","coordinates":[141.9691853000,39.7375874300]},"properties":{"Name":"田老公民館高台","Jusho":"岩手県宮古市田老館が森3","Kouzui":"","がけ崩れ、土石流及び地滑り":"","Takashio":"◎","地震":"","津波":"◎","大規模な火事":"","内水氾濫":"","火山現象":"","指定避難所との重複":"","備考":""}},
{"type":"Feature","geometry":{"type":"Point","coordinates":[141.9703547000,39.7404681700]},"properties":{"Name":"熊野神社高台（荒谷）","Jusho":"岩手県宮古市田老字ケラス101","Kouzui":"","がけ崩れ、土石流及び地滑り":"","Takashio":"◎","地震":"","津波":"◎","大規模な火事":"","内水氾濫":"","火山現象":"","指定避難所との重複":"","備考":""}},
{"type":"Feature","geometry":{"type":"Point","coordinates":[141.9699430000,39.7420657400]},"properties":{"Name":"五天王高台","Jusho":"岩手県宮古市田老荒谷108-3","Kouzui":"","がけ崩れ、土石流及び地滑り":"","Takashio":"◎","地震":"","津波":"◎","大規模な火事":"","内水氾濫":"","火山現象":"","指定避難所との重複":"","備考":""}},
{"type":"Feature","geometry":{"type":"Point","coordinates":[141.9739150000,39.7443560500]},"properties":{"Name":"堀丁高台","Jusho":"岩手県宮古市田老乙部148-2","Kouzui":"","がけ崩れ、土石流及び地滑り":"","Takashio":"◎","地震":"","津波":"◎","大規模な火事":"","内水氾濫":"","火山現象":"","指定避難所との重複":"","備考":""}},
{"type":"Feature","geometry":{"type":"Point","coordinates":[141.9773094000,39.7388097700]},"properties":{"Name":"乙部自治会研修センター裏高台","Jusho":"岩手県宮古市田老字乙部25","Kouzui":"","がけ崩れ、土石流及び地滑り":"","Takashio":"◎","地震":"","津波":"◎","大規模な火事":"","内水氾濫":"","火山現象":"","指定避難所との重複":"","備考":""}},
{"type":"Feature","geometry":{"type":"Point","coordinates":[141.9783368000,39.7369759300]},"properties":{"Name":"出羽神社高台","Jusho":"岩手県宮古市田老字青砂里170-3","Kouzui":"","がけ崩れ、土石流及び地滑り":"","Takashio":"◎","地震":"","津波":"◎","大規模な火事":"","内水氾濫":"","火山現象":"","指定避難所との重複":"","備考":""}},
{"type":"Feature","geometry":{"type":"Point","coordinates":[141.9813043000,39.7350719100]},"properties":{"Name":"三王岩展望台付近駐車場高台","Jusho":"岩手県宮古市田老字青砂里164","Kouzui":"","がけ崩れ、土石流及び地滑り":"","Takashio":"◎","地震":"","津波":"◎","大規模な火事":"","内水氾濫":"","火山現象":"","指定避難所との重複":"","備考":""}},
{"type":"Feature","geometry":{"type":"Point","coordinates":[141.9987946000,39.7509573200]},"properties":{"Name":"真崎灯台高台","Jusho":"岩手県宮古市田老字和野136-20","Kouzui":"","がけ崩れ、土石流及び地滑り":"","Takashio":"◎","地震":"","津波":"◎","大規模な火事":"","内水氾濫":"","火山現象":"","指定避難所との重複":"","備考":""}},
{"type":"Feature","geometry":{"type":"Point","coordinates":[141.9813679000,39.7593816000]},"properties":{"Name":"乙部野高台","Jusho":"岩手県宮古市田老字乙部野","Kouzui":"","がけ崩れ、土石流及び地滑り":"","Takashio":"◎","地震":"","津波":"◎","大規模な火事":"","内水氾濫":"","火山現象":"","指定避難所との重複":"","備考":""}},
{"type":"Feature","geometry":{"type":"Point","coordinates":[141.9824911000,39.7520568500]},"properties":{"Name":"松長根高台","Jusho":"岩手県宮古市田老字駿達","Kouzui":"","がけ崩れ、土石流及び地滑り":"","Takashio":"◎","地震":"","津波":"◎","大規模な火事":"","内水氾濫":"","火山現象":"","指定避難所との重複":"","備考":""}},
{"type":"Feature","geometry":{"type":"Point","coordinates":[141.9817000000,39.7666734000]},"properties":{"Name":"重津部集会所高台","Jusho":"岩手県宮古市田老字重津部20","Kouzui":"","がけ崩れ、土石流及び地滑り":"","Takashio":"◎","地震":"","津波":"◎","大規模な火事":"","内水氾濫":"","火山現象":"","指定避難所との重複":"","備考":""}},
{"type":"Feature","geometry":{"type":"Point","coordinates":[141.9935907000,39.7733470200]},"properties":{"Name":"青野滝地区集会施設高台","Jusho":"岩手県宮古市田老青野滝17","Kouzui":"","がけ崩れ、土石流及び地滑り":"","Takashio":"◎","地震":"","津波":"◎","大規模な火事":"","内水氾濫":"","火山現象":"","指定避難所との重複":"","備考":""}},
{"type":"Feature","geometry":{"type":"Point","coordinates":[141.9682815000,39.7881589600]},"properties":{"Name":"グリーンピア三陸みやこ付近高台","Jusho":"岩手県宮古市田老向新田148","Kouzui":"","がけ崩れ、土石流及び地滑り":"","Takashio":"◎","地震":"","津波":"◎","大規模な火事":"","内水氾濫":"","火山現象":"","指定避難所との重複":"","備考":""}},
{"type":"Feature","geometry":{"type":"Point","coordinates":[141.9763114000,39.8003627200]},"properties":{"Name":"水沢地区集会施設高台","Jusho":"岩手県宮古市田老向新田35","Kouzui":"","がけ崩れ、土石流及び地滑り":"","Takashio":"◎","地震":"","津波":"◎","大規模な火事":"","内水氾濫":"","火山現象":"","指定避難所との重複":"","備考":""}},
{"type":"Feature","geometry":{"type":"Point","coordinates":[141.9696673000,39.8129629600]},"properties":{"Name":"舘崎宅裏高台（下摂待）","Jusho":"岩手県宮古市田老摂待","Kouzui":"","がけ崩れ、土石流及び地滑り":"","Takashio":"◎","地震":"","津波":"◎","大規模な火事":"","内水氾濫":"","火山現象":"","指定避難所との重複":"","備考":""}},
{"type":"Feature","geometry":{"type":"Point","coordinates":[141.9574017000,39.8087846400]},"properties":{"Name":"摂待和野方面旧国道高台","Jusho":"岩手県宮古市字摂待","Kouzui":"","がけ崩れ、土石流及び地滑り":"","Takashio":"◎","地震":"","津波":"◎","大規模な火事":"","内水氾濫":"","火山現象":"","指定避難所との重複":"","備考":""}},
{"type":"Feature","geometry":{"type":"Point","coordinates":[141.7056224000,39.0865694500]},"properties":{"Name":"天神山公園","Jusho":"岩手県大船渡市盛町字柿ノ木沢5-3","Kouzui":"","がけ崩れ、土石流及び地滑り":"","Takashio":"","地震":"","津波":"◎","大規模な火事":"","内水氾濫":"","火山現象":"","指定避難所との重複":"","備考":""}},
{"type":"Feature","geometry":{"type":"Point","coordinates":[141.7047373000,39.0815060500]},"properties":{"Name":"盛小学校グラウンド","Jusho":"岩手県大船渡市盛町字沢川30","Kouzui":"","がけ崩れ、土石流及び地滑り":"","Takashio":"","地震":"","津波":"◎","大規模な火事":"","内水氾濫":"","火山現象":"","指定避難所との重複":"","備考":""}},
{"type":"Feature","geometry":{"type":"Point","coordinates":[141.7105573000,39.0804387800]},"properties":{"Name":"貴船神社付近高台","Jusho":"岩手県大船渡市盛町字御山下22-1","Kouzui":"","がけ崩れ、土石流及び地滑り":"","Takashio":"","地震":"","津波":"◎","大規模な火事":"","内水氾濫":"","火山現象":"","指定避難所との重複":"","備考":""}},
{"type":"Feature","geometry":{"type":"Point","coordinates":[141.7096088000,39.0776464600]},"properties":{"Name":"リアスホール駐車場","Jusho":"岩手県大船渡市盛町字下舘下18-1","Kouzui":"","がけ崩れ、土石流及び地滑り":"","Takashio":"","地震":"","津波":"◎","大規模な火事":"","内水氾濫":"","火山現象":"","指定避難所との重複":"","備考":""}},
{"type":"Feature","geometry":{"type":"Point","coordinates":[141.7174399000,39.0723970600]},"properties":{"Name":"海の星幼稚園園庭","Jusho":"岩手県大船渡市大船渡町字地ノ森47-3","Kouzui":"","がけ崩れ、土石流及び地滑り":"","Takashio":"","地震":"","津波":"◎","大規模な火事":"","内水氾濫":"","火山現象":"","指定避難所との重複":"","備考":""}},
{"type":"Feature","geometry":{"type":"Point","coordinates":[141.7148318000,39.0746557000]},"properties":{"Name":"地ノ森公園","Jusho":"岩手県大船渡市大船渡町字地ノ森25-25","Kouzui":"","がけ崩れ、土石流及び地滑り":"","Takashio":"","地震":"","津波":"◎","大規模な火事":"","内水氾濫":"","火山現象":"","指定避難所との重複":"","備考":""}},
{"type":"Feature","geometry":{"type":"Point","coordinates":[141.7178804000,39.0684830700]},"properties":{"Name":"岩渕内科医院付近","Jusho":"岩手県大船渡市大船渡町字新田49-4付近","Kouzui":"","がけ崩れ、土石流及び地滑り":"","Takashio":"","地震":"","津波":"◎","大規模な火事":"","内水氾濫":"","火山現象":"","指定避難所との重複":"","備考":""}},
{"type":"Feature","geometry":{"type":"Point","coordinates":[141.7202040000,39.0664770300]},"properties":{"Name":"台町鉄道西側高台","Jusho":"岩手県大船渡市大船渡町字台16-7付近","Kouzui":"","がけ崩れ、土石流及び地滑り":"","Takashio":"","地震":"","津波":"◎","大規模な火事":"","内水氾濫":"","火山現象":"","指定避難所との重複":"","備考":""}},
{"type":"Feature","geometry":{"type":"Point","coordinates":[141.7202365000,39.0656841500]},"properties":{"Name":"大船渡保育園園庭","Jusho":"岩手県大船渡市大船渡町字台24-11","Kouzui":"","がけ崩れ、土石流及び地滑り":"","Takashio":"","地震":"","津波":"◎","大規模な火事":"","内水氾濫":"","火山現象":"","指定避難所との重複":"","備考":""}},
{"type":"Feature","geometry":{"type":"Point","coordinates":[141.7132046000,39.0658603600]},"properties":{"Name":"大船渡北小学校グラウンド","Jusho":"岩手県大船渡市大船渡町字山馬越68-2","Kouzui":"","がけ崩れ、土石流及び地滑り":"","Takashio":"","地震":"","津波":"◎","大規模な火事":"","内水氾濫":"","火山現象":"","指定避難所との重複":"","備考":""}},
{"type":"Feature","geometry":{"type":"Point","coordinates":[141.7132149000,39.0618704000]},"properties":{"Name":"大船渡地区公民館付近","Jusho":"岩手県大船渡市大船渡町字明神前10-6","Kouzui":"","がけ崩れ、土石流及び地滑り":"","Takashio":"","地震":"","津波":"◎","大規模な火事":"","内水氾濫":"","火山現象":"","指定避難所との重複":"","備考":""}},
{"type":"Feature","geometry":{"type":"Point","coordinates":[141.7176660000,39.0590441100]},"properties":{"Name":"加茂神社境内","Jusho":"岩手県大船渡市大船渡町字笹崎154-3","Kouzui":"","がけ崩れ、土石流及び地滑り":"","Takashio":"","地震":"","津波":"◎","大規模な火事":"","内水氾濫":"","火山現象":"","指定避難所との重複":"","備考":""}},
{"type":"Feature","geometry":{"type":"Point","coordinates":[141.7169460000,39.0524085500]},