var kagawa={"type":"FeatureCollection","name":"kagawa","features":[
{"type":"Feature","geometry":{"type":"Point","coordinates":[134.0298057000,34.3471811700]},"properties":{"Name":"日新小学校跡施設","Jusho":"香川県高松市瀬戸内町１８-２","洪水":"◎","がけ崩れ、土石流及び地滑り":"◎","高潮":"◎","地震":"◎","津波":"◎","大規模な火事":"◎","内水氾濫":"◎","火山現象":"","指定避難所との重複":"◎","備考":""}},
{"type":"Feature","geometry":{"type":"Point","coordinates":[134.0409621000,34.3458691800]},"properties":{"Name":"新番丁小学校","Jusho":"香川県高松市錦町２-１４-１","洪水":"◎","がけ崩れ、土石流及び地滑り":"◎","高潮":"◎","地震":"◎","津波":"◎","大規模な火事":"◎","内水氾濫":"◎","火山現象":"","指定避難所との重複":"◎","備考":""}},
{"type":"Feature","geometry":{"type":"Point","coordinates":[134.0470236000,34.3433503300]},"properties":{"Name":"四番丁小学校跡施設","Jusho":"香川県高松市番町１-５-１","洪水":"◎","がけ崩れ、土石流及び地滑り":"◎","高潮":"◎","地震":"◎","津波":"◎","大規模な火事":"◎","内水氾濫":"◎","火山現象":"","指定避難所との重複":"◎","備考":""}},
{"type":"Feature","geometry":{"type":"Point","coordinates":[134.0397848000,34.3378641800]},"properties":{"Name":"亀阜小学校","Jusho":"香川県高松市亀岡町１０-１","洪水":"◎","がけ崩れ、土石流及び地滑り":"◎","高潮":"◎","地震":"◎","津波":"◎","大規模な火事":"◎","内水氾濫":"◎","火山現象":"","指定避難所との重複":"◎","備考":""}},
{"type":"Feature","geometry":{"type":"Point","coordinates":[134.0496498000,34.3306190500]},"properties":{"Name":"栗林小学校","Jusho":"香川県高松市栗林町２-１０-７","洪水":"◎","がけ崩れ、土石流及び地滑り":"◎","高潮":"◎","地震":"◎","津波":"◎","大規模な火事":"◎","内水氾濫":"◎","火山現象":"","指定避難所との重複":"◎","備考":""}},
{"type":"Feature","geometry":{"type":"Point","coordinates":[134.0577429000,34.3338780300]},"properties":{"Name":"花園小学校","Jusho":"香川県高松市花園町２-７-７","洪水":"◎","がけ崩れ、土石流及び地滑り":"◎","高潮":"◎","地震":"◎","津波":"◎","大規模な火事":"◎","内水氾濫":"◎","火山現象":"","指定避難所との重複":"◎","備考":""}},
{"type":"Feature","geometry":{"type":"Point","coordinates":[134.0568850000,34.3409018600]},"properties":{"Name":"築地小学校跡施設","Jusho":"香川県高松市築地町１４-１","洪水":"◎","がけ崩れ、土石流及び地滑り":"◎","高潮":"◎","地震":"◎","津波":"◎","大規模な火事":"◎","内水氾濫":"◎","火山現象":"","指定避難所との重複":"◎","備考":""}},
{"type":"Feature","geometry":{"type":"Point","coordinates":[134.0558480000,34.3438191400]},"properties":{"Name":"総合教育センター","Jusho":"香川県高松市末広町５","洪水":"◎","がけ崩れ、土石流及び地滑り":"◎","高潮":"◎","地震":"◎","津波":"◎","大規模な火事":"◎","内水氾濫":"◎","火山現象":"","指定避難所との重複":"◎","備考":""}},
{"type":"Feature","geometry":{"type":"Point","coordinates":[134.0281760000,34.3154733000]},"properties":{"Name":"鶴尾小学校","Jusho":"香川県高松市松並町６３６-１","洪水":"◎","がけ崩れ、土石流及び地滑り":"◎","高潮":"◎","地震":"◎","津波":"◎","大規模な火事":"◎","内水氾濫":"◎","火山現象":"","指定避難所との重複":"◎","備考":""}},
{"type":"Feature","geometry":{"type":"Point","coordinates":[134.0523578000,34.3122049100]},"properties":{"Name":"太田小学校","Jusho":"香川県高松市伏石町８４５-１","洪水":"◎","がけ崩れ、土石流及び地滑り":"◎","高潮":"◎","地震":"◎","津波":"◎","大規模な火事":"◎","内水氾濫":"◎","火山現象":"","指定避難所との重複":"◎","備考":""}},
{"type":"Feature","geometry":{"type":"Point","coordinates":[134.0435429000,34.3058485200]},"properties":{"Name":"太田南小学校","Jusho":"香川県高松市太田下町１８２３-１","洪水":"◎","がけ崩れ、土石流及び地滑り":"◎","高潮":"◎","地震":"◎","津波":"◎","大規模な火事":"◎","内水氾濫":"◎","火山現象":"","指定避難所との重複":"◎","備考":""}},
{"type":"Feature","geometry":{"type":"Point","coordinates":[134.0627974000,34.3114948900]},"properties":{"Name":"中央小学校","Jusho":"香川県高松市松縄町８０７-１","洪水":"◎","がけ崩れ、土石流及び地滑り":"◎","高潮":"◎","地震":"◎","津波":"◎","大規模な火事":"◎","内水氾濫":"◎","火山現象":"","指定避難所との重複":"◎","備考":""}},
{"type":"Feature","geometry":{"type":"Point","coordinates":[134.0769156000,34.3256621600]},"properties":{"Name":"木太小学校","Jusho":"香川県高松市木太町３４８０-１","洪水":"◎","がけ崩れ、土石流及び地滑り":"◎","高潮":"◎","地震":"◎","津波":"◎","大規模な火事":"◎","内水氾濫":"◎","火山現象":"","指定避難所との重複":"◎","備考":""}},
{"type":"Feature","geometry":{"type":"Point","coordinates":[134.0807244000,34.3357708700]},"properties":{"Name":"木太北部小学校","Jusho":"香川県高松市木太町２６１３","洪水":"◎","がけ崩れ、土石流及び地滑り":"◎","高潮":"◎","地震":"◎","津波":"◎","大規模な火事":"◎","内水氾濫":"◎","火山現象":"","指定避難所との重複":"◎","備考":""}},
{"type":"Feature","geometry":{"type":"Point","coordinates":[134.0740468000,34.3206810300]},"properties":{"Name":"木太南小学校","Jusho":"香川県高松市木太町１５３０-１","洪水":"◎","がけ崩れ、土石流及び地滑り":"◎","高潮":"◎","地震":"◎","津波":"◎","大規模な火事":"◎","内水氾濫":"◎","火山現象":"","指定避難所との重複":"◎","備考":""}},
{"type":"Feature","geometry":{"type":"Point","coordinates":[134.1073061000,34.3316277300]},"properties":{"Name":"古高松小学校","Jusho":"香川県高松市高松町３９８","洪水":"◎","がけ崩れ、土石流及び地滑り":"◎","高潮":"◎","地震":"◎","津波":"◎","大規模な火事":"◎","内水氾濫":"◎","火山現象":"","指定避難所との重複":"◎","備考":""}},
{"type":"Feature","geometry":{"type":"Point","coordinates":[134.0990021000,34.3275803100]},"properties":{"Name":"古高松南小学校","Jusho":"香川県高松市新田町甲２６０５","洪水":"◎","がけ崩れ、土石流及び地滑り":"◎","高潮":"◎","地震":"◎","津波":"◎","大規模な火事":"◎","内水氾濫":"◎","火山現象":"","指定避難所との重複":"◎","備考":""}},
{"type":"Feature","geometry":{"type":"Point","coordinates":[134.0993203000,34.3477596100]},"properties":{"Name":"屋島小学校","Jusho":"香川県高松市屋島西町１２０５-１","洪水":"◎","がけ崩れ、土石流及び地滑り":"","高潮":"◎","地震":"◎","津波":"◎","大規模な火事":"◎","内水氾濫":"◎","火山現象":"","指定避難所との重複":"◎","備考":""}},
{"type":"Feature","geometry":{"type":"Point","coordinates":[134.0900079000,34.3509819100]},"properties":{"Name":"屋島西小学校","Jusho":"香川県高松市屋島西町２４６９","洪水":"◎","がけ崩れ、土石流及び地滑り":"◎","高潮":"◎","地震":"◎","津波":"◎","大規模な火事":"◎","内水氾濫":"◎","火山現象":"","指定避難所との重複":"◎","備考":""}},
{"type":"Feature","geometry":{"type":"Point","coordinates":[134.1164314000,34.3543733500]},"properties":{"Name":"屋島東小学校","Jusho":"香川県高松市屋島東町９４２-１","洪水":"◎","がけ崩れ、土石流及び地滑り":"◎","高潮":"◎","地震":"◎","津波":"◎","大規模な火事":"◎","内水氾濫":"◎","火山現象":"","指定避難所との重複":"◎","備考":""}},
{"type":"Feature","geometry":{"type":"Point","coordinates":[134.1125293000,34.2962465800]},"properties":{"Name":"前田小学校","Jusho":"香川県高松市前田東町８１９-３","洪水":"◎","がけ崩れ、土石流及び地滑り":"◎","高潮":"◎","地震":"◎","津波":"◎","大規模な火事":"◎","内水氾濫":"◎","火山現象":"","指定避難所との重複":"◎","備考":""}},
{"type":"Feature","geometry":{"type":"Point","coordinates":[134.0929870000,34.3069256400]},"properties":{"Name":"川添小学校","Jusho":"香川県高松市東山崎町２０７-１","洪水":"◎","がけ崩れ、土石流及び地滑り":"◎","高潮":"◎","地震":"◎","津波":"◎","大規模な火事":"◎","内水氾濫":"◎","火山現象":"","指定避難所との重複":"◎","備考":""}},
{"type":"Feature","geometry":{"type":"Point","coordinates":[134.0700584000,34.3017214900]},"properties":{"Name":"林小学校","Jusho":"香川県高松市林町１１０８-１","洪水":"◎","がけ崩れ、土石流及び地滑り":"◎","高潮":"◎","地震":"◎","津波":"◎","大規模な火事":"◎","内水氾濫":"◎","火山現象":"","指定避難所との重複":"◎","備考":""}},
{"type":"Feature","geometry":{"type":"Point","coordinates":[134.0688489000,34.2737578900]},"properties":{"Name":"三渓小学校","Jusho":"香川県高松市三谷町２１７３-１","洪水":"◎","がけ崩れ、土石流及び地滑り":"◎","高潮":"◎","地震":"◎","津波":"◎","大規模な火事":"◎","内水氾濫":"◎","火山現象":"","指定避難所との重複":"◎","備考":""}},
{"type":"Feature","geometry":{"type":"Point","coordinates":[134.0471608000,34.2742900700]},"properties":{"Name":"仏生山小学校","Jusho":"香川県高松市仏生山町甲２４６１","洪水":"◎","がけ崩れ、土石流及び地滑り":"◎","高潮":"◎","地震":"◎","津波":"◎","大規模な火事":"◎","内水氾濫":"◎","火山現象":"","指定避難所との重複":"◎","備考":""}},
{"type":"Feature","geometry":{"type":"Point","coordinates":[134.0525968000,34.2925559800]},"properties":{"Name":"多肥小学校","Jusho":"香川県高松市多肥上町９０２-２","洪水":"◎","がけ崩れ、土石流及び地滑り":"◎","高潮":"◎","地震":"◎","津波":"◎","大規模な火事":"◎","内水氾濫":"◎","火山現象":"","指定避難所との重複":"◎","備考":""}},
{"type":"Feature","geometry":{"type":"Point","coordinates":[134.0239199000,34.2908937900]},"properties":{"Name":"一宮小学校","Jusho":"香川県高松市一宮町６７２-１","洪水":"◎","がけ崩れ、土石流及び地滑り":"◎","高潮":"◎","地震":"◎","津波":"◎","大規模な火事":"◎","内水氾濫":"◎","火山現象":"","指定避難所との重複":"◎","備考":""}},
{"type":"Feature","geometry":{"type":"Point","coordinates":[134.0050420000,34.2846953800]},"properties":{"Name":"円座小学校","Jusho":"香川県高松市円座町１６３０-２","洪水":"◎","がけ崩れ、土石流及び地滑り":"◎","高潮":"◎","地震":"◎","津波":"◎","大規模な火事":"◎","内水氾濫":"◎","火山現象":"","指定避難所との重複":"◎","備考":""}},
{"type":"Feature","geometry":{"type":"Point","coordinates":[134.0064559000,34.2674542400]},"properties":{"Name":"川岡小学校","Jusho":"香川県高松市川部町１５５２","洪水":"◎","がけ崩れ、土石流及び地滑り":"◎","高潮":"◎","地震":"◎","津波":"◎","大規模な火事":"◎","内水氾濫":"◎","火山現象":"","指定避難所との重複":"◎","備考":""}},
{"type":"Feature","geometry":{"type":"Point","coordinates":[133.9938784000,34.3004368800]},"properties":{"Name":"檀紙小学校","Jusho":"香川県高松市御厩町８１６","洪水":"◎","がけ崩れ、土石流及び地滑り":"◎","高潮":"◎","地震":"◎","津波":"◎","大規模な火事":"◎","内水氾濫":"◎","火山現象":"","指定避難所との重複":"◎","備考":""}},
{"type":"Feature","geometry":{"type":"Point","coordinates":[134.0054794000,34.3290412000]},"properties":{"Name":"弦打小学校","Jusho":"香川県高松市鶴市町３７４-１","洪水":"◎","がけ崩れ、土石流及び地滑り":"◎","高潮":"◎","地震":"◎","津波":"◎","大規模な火事":"◎","内水氾濫":"◎","火山現象":"","指定避難所との重複":"◎","備考":""}},
{"type":"Feature","geometry":{"type":"Point","coordinates":[133.9885833000,34.3266809200]},"properties":{"Name":"鬼無小学校","Jusho":"香川県高松市鬼無町佐藤６０７-１","洪水":"◎","がけ崩れ、土石流及び地滑り":"◎","高潮":"◎","地震":"◎","津波":"◎","大規模な火事":"◎","内水氾濫":"◎","火山現象":"","指定避難所との重複":"◎","備考":""}},
{"type":"Feature","geometry":{"type":"Point","coordinates":[133.9985536000,34.3452135600]},"properties":{"Name":"香西小学校","Jusho":"香川県高松市香西南町７０３-１","洪水":"◎","がけ崩れ、土石流及び地滑り":"◎","高潮":"◎","地震":"◎","津波":"◎","大規模な火事":"◎","内水氾濫":"◎","火山現象":"","指定避難所との重複":"◎","備考":""}},
{"type":"Feature","geometry":{"type":"Point","coordinates":[133.9686835000,34.3580858900]},"properties":{"Name":"下笠居小学校","Jusho":"香川県高松市生島町３４５","洪水":"◎","がけ崩れ、土石流及び地滑り":"◎","高潮":"◎","地震":"◎","津波":"◎","大規模な火事":"◎","内水氾濫":"◎","火山現象":"","指定避難所との重複":"◎","備考":""}},
{"type":"Feature","geometry":{"type":"Point","coordinates":[134.0533281000,34.3918096200]},"properties":{"Name":"女木小学校","Jusho":"香川県高松市女木町２３６-２","洪水":"◎","がけ崩れ、土石流及び地滑り":"◎","高潮":"◎","地震":"◎","津波":"◎","大規模な火事":"◎","内水氾濫":"◎","火山現象":"","指定避難所との重複":"◎","備考":""}},
{"type":"Feature","geometry":{"type":"Point","coordinates":[134.0568534000,34.4200508000]},"properties":{"Name":"男木小学校","Jusho":"香川県高松市男木町１６５","洪水":"◎","がけ崩れ、土石流及び地滑り":"◎","高潮":"◎","地震":"◎","津波":"◎","大規模な火事":"◎","内水氾濫":"◎","火山現象":"","指定避難所との重複":"◎","備考":""}},
{"type":"Feature","geometry":{"type":"Point","coordinates":[134.0893573000,34.2757849900]},"properties":{"Name":"川島小学校","Jusho":"香川県高松市川島東町８６４-１","洪水":"◎","がけ崩れ、土石流及び地滑り":"◎","高潮":"◎","地震":"◎","津波":"◎","大規模な火事":"◎","内水氾濫":"◎","火山現象":"","指定避難所との重複":"◎","備考":""}},
{"type":"Feature","geometry":{"type":"Point","coordinates":[134.1028836000,34.2745719300]},"properties":{"Name":"十河小学校","Jusho":"香川県高松市十川西町３６６-５","洪水":"◎","がけ崩れ、土石流及び地滑り":"◎","高潮":"◎","地震":"◎","津波":"◎","大規模な火事":"◎","内水氾濫":"◎","火山現象":"","指定避難所との重複":"◎","備考":""}},
{"type":"Feature","geometry":{"type":"Point","coordinates":[134.0789605000,34.2394065800]},"properties":{"Name":"植田小学校","Jusho":"香川県高松市西植田町２３３７","洪水":"◎","がけ崩れ、土石流及び地滑り":"","高潮":"◎","地震":"◎","津波":"◎","大規模な火事":"◎","内水氾濫":"◎","火山現象":"","指定避難所との重複":"◎","備考":""}},
{"type":"Feature","geometry":{"type":"Point","coordinates":[134.0975974000,34.2391072100]},"properties":{"Name":"東植田小学校","Jusho":"香川県高松市東植田町２００８","洪水":"◎","がけ崩れ、土石流及び地滑り":"◎","高潮":"◎","地震":"◎","津波":"◎","大規模な火事":"◎","内水氾濫":"◎","火山現象":"","指定避難所との重複":"◎","備考":""}},
{"type":"Feature","geometry":{"type":"Point","coordinates":[134.0983833000,34.1936440300]},"properties":{"Name":"東植田小学校菅沢分校","Jusho":"香川県高松市菅沢町３３９","洪水":"◎","がけ崩れ、土石流及び地滑り":"◎","高潮":"◎","地震":"◎","津波":"◎","大規模な火事":"◎","内水氾濫":"◎","火山現象":"","指定避難所との重複":"◎","備考":""}},
{"type":"Feature","geometry":{"type":"Point","coordinates":[134.0523230000,34.3267608500]},"properties":{"Name":"桜町中学校","Jusho":"香川県高松市桜町２-１２-４","洪水":"◎","がけ崩れ、土石流及び地滑り":"◎","高潮":"◎","地震":"◎","津波":"◎","大規模な火事":"◎","内水氾濫":"◎","火山現象":"","指定避難所との重複":"◎","備考":""}},
{"type":"Feature","geometry":{"type":"Point","coordinates":[134.0334827000,34.3411120400]},"properties":{"Name":"紫雲中学校","Jusho":"香川県高松市紫雲町８-２５","洪水":"◎","がけ崩れ、土石流及び地滑り":"◎","高潮":"◎","地震":"◎","津波":"◎","大規模な火事":"◎","内水氾濫":"◎","火山現象":"","指定避難所との重複":"◎","備考":""}},
{"type":"Feature","geometry":{"type":"Point","coordinates":[134.0659799000,34.3334355500]},"properties":{"Name":"玉藻中学校","Jusho":"香川県高松市上福岡町７１４-１","洪水":"◎","がけ崩れ、土石流及び地滑り":"◎","高潮":"◎","地震":"◎","津波":"◎","大規模な火事":"◎","内水氾濫":"◎","火山現象":"","指定避難所との重複":"◎","備考":""}},
{"type":"Feature","geometry":{"type":"Point","coordinates":[134.0624738000,34.3394228600]},"properties":{"Name":"高松第一学園（高松第一小・中学校）","Jusho":"香川県高松市松島町２-１４-５","洪水":"◎","がけ崩れ、土石流及び地滑り":"◎","高潮":"◎","地震":"◎","津波":"◎","大規模な火事":"◎","内水氾濫":"◎","火山現象":"","指定避難所との重複":"◎","備考":""}},
{"type":"Feature","geometry":{"type":"Point","coordinates":[134.0260553000,34.3156321600]},"properties":{"Name":"鶴尾中学校","Jusho":"香川県高松市松並町６３９-１","洪水":"◎","がけ崩れ、土石流及び地滑り":"◎","高潮":"◎","地震":"◎","津波":"◎","大規模な火事":"◎","内水氾濫":"◎","火山現象":"","指定避難所との重複":"◎","備考":""}},
{"type":"Feature","geometry":{"type":"Point","coordinates":[134.1049372000,34.3405479100]},"properties":{"Name":"屋島中学校","Jusho":"香川県高松市屋島中町２９５","洪水":"◎","がけ崩れ、土石流及び地滑り":"◎","高潮":"◎","地震":"◎","津波":"◎","大規模な火事":"◎","内水氾濫":"◎","火山現象":"","指定避難所との重複":"◎","備考":""}},
{"type":"Feature","geometry":{"type":"Point","coordinates":[134.0862832000,34.3072707300]},"properties":{"Name":"協和中学校","Jusho":"香川県高松市元山町８８-２","洪水":"◎","がけ崩れ、土石流及び地滑り":"◎","高潮":"◎","地震":"◎","津波":"◎","大規模な火事":"◎","内水氾濫":"◎","火山現象":"","指定避難所との重複":"◎","備考":""}},
{"type":"Feature","geometry":{"type":"Point","coordinates":[134.0510246000,34.2826509900]},"properties":{"Name":"龍雲中学校","Jusho":"香川県高松市出作町３３１-２","洪水":"◎","がけ崩れ、土石流及び地滑り":"◎","高潮":"◎","地震":"◎","津波":"◎","大規模な火事":"◎","内水氾濫":"◎","火山現象":"","指定避難所との重複":"◎","備考":""}},
{"type":"Feature","geometry":{"type":"Point","coordinates":[133.9992513000,34.3429871400]},"properties":{"Name":"勝賀中学校","Jusho":"香川県高松市香西南町５６５","洪水":"◎","がけ崩れ、土石流及び地滑り":"◎","高潮":"◎","地震":"◎","津波":"◎","大規模な火事":"◎","内水氾濫":"◎","火山現象":"","指定避難所との重複":"◎","備考":""}},
{"type":"Feature","geometry":{"type":"Point","coordinates":[134.0243844000,34.2925974200]},"properties":{"Name":"一宮中学校","Jusho":"香川県高松市一宮町１１８５-１","洪水":"◎","がけ崩れ、土石流及び地滑り":"◎","高潮":"◎","地震":"◎","津波":"◎","大規模な火事":"◎","内水氾濫":"◎","火山現象":"","指定避難所との重複":"◎","備考":""}},
{"type":"Feature","geometry":{"type":"Point","coordinates":[134.0096204000,34.2951212400]},"properties":{"Name":"香東中学校","Jusho":"香川県高松市円座町７７１","洪水":"◎","がけ崩れ、土石流及び地滑り":"◎","高潮":"◎","地震":"◎","津波":"◎","大規模な火事":"◎","内水氾濫":"◎","火山現象":"","指定避難所との重複":"◎","備考":""}},
{"type":"Feature","geometry":{"type":"Point","coordinates":[133.9673716000,34.3576788600]},"properties":{"Name":"下笠居中学校","Jusho":"香川県高松市生島町３７２-１","洪水":"◎","がけ崩れ、土石流及び地滑り":"◎","高潮":"◎","地震":"◎","津波":"◎","大規模な火事":"◎","内水氾濫":"◎","火山現象":"","指定避難所との重複":"◎","備考":""}},
{"type":"Feature","geometry":{"type":"Point","coordinates":[134.0924065000,34.2676336000]},"properties":{"Name":"山田中学校","Jusho":"香川県高松市川島東町１２５７-１","洪水":"◎","がけ崩れ、土石流及び地滑り":"◎","高潮":"◎","地震":"◎","津波":"◎","大規模な火事":"◎","内水氾濫":"◎","火山現象":"","指定避難所との重複":"◎","備考":""}},
{"type":"Feature","geometry":{"type":"Point","coordinates":[134.0451814000,34.3063708900]},"properties":{"Name":"太田中学校","Jusho":"香川県高松市太田下町１８００","洪水":"◎","がけ崩れ、土石流及び地滑り":"◎","高潮":"◎","地震":"◎","津波":"◎","大規模な火事":"◎","内水氾濫":"◎","火山現象":"","指定避難所との重複":"◎","備考":""}},
{"type":"Feature","geometry":{"type":"Point","coordinates":[134.1025022000,34.3323091400]},"properties":{"Name":"古高松中学校","Jusho":"香川県高松市新田町甲１９０-１","洪水":"◎","がけ崩れ、土石流及び地滑り":"◎","高潮":"◎","地震":"◎","津波":"◎","大規模な火事":"◎","内水氾濫":"◎","火山現象":"","指定避難所との重複":"◎","備考":""}},
{"type":"Feature","geometry":{"type":"Point","coordinates":[134.0677163000,34.3145207000]},"properties":{"Name":"木太中学校","Jusho":"香川県高松市木太町２５１","洪水":"◎","がけ崩れ、土石流及び地滑り":"◎","高潮":"◎","地震":"◎","津波":"◎","大規模な火事":"◎","内水氾濫":"◎","火山現象":"","指定避難所との重複":"◎","備考":""}},
{"type":"Feature","geometry":{"type":"Point","coordinates":[134.0324595000,34.2992060200]},"properties":{"Name":"香川大学附属中学校（体育館）","Jusho":"香川県高松市鹿角町３９４","洪水":"◎","がけ崩れ、土石流及び地滑り":"◎","高潮":"◎","地震":"◎","津波":"◎","大規模な火事":"","内水氾濫":"◎","火山現象":"","指定避難所との重複":"◎","備考":""}},
{"type":"Feature","geometry":{"type":"Point","coordinates":[134.0520264000,34.3276792400]},"properties":{"Name":"高松第一高校","Jusho":"香川県高松市桜町２-５-１０","洪水":"◎","がけ崩れ、土石流及び地滑り":"◎","高潮":"◎","地震":"◎","津波":"◎","大規模な火事":"◎","内水氾濫":"◎","火山現象":"","指定避難所との重複":"◎","備考":""}},
{"type":"Feature","geometry":{"type":"Point","coordinates":[134.0243805000,34.2859480300]},"properties":{"Name":"高松南高等学校（体育館）","Jusho":"香川県高松市一宮町５３１","洪水":"◎","がけ崩れ、土石流及び地滑り":"◎","高潮":"◎","地震":"◎","津波":"◎","大規模な火事":"","内水氾濫":"◎","火山現象":"","指定避難所との重複":"◎","備考":""}},
{"type":"Feature","geometry":{"type":"Point","coordinates":[134.0570535000,34.2963556000]},"properties":{"Name":"高松桜井高等学校（体育館）","Jusho":"香川県高松市多肥上町１２５０","洪水":"◎","がけ崩れ、土石流及び地滑り":"◎","高潮":"◎","地震":"◎","津波":"◎","大規模な火事":"","内水氾濫":"◎","火山現象":"","指定避難所との重複":"◎","備考":""}},
{"type":"Feature","geometry":{"type":"Point","coordinates":[134.0325072000,34.3475783200]},"properties":{"Name":"日新コミュニティセンター","Jusho":"香川県高松市瀬戸内町２２-９","洪水":"◎","がけ崩れ、土石流及び地滑り":"◎","高潮":"◎","地震":"◎","津波":"◎","大規模な火事":"","内水氾濫":"◎","火山現象":"","指定避難所との重複":"◎","備考":""}},
{"type":"Feature","geometry":{"type":"Point","coordinates":[134.0365196000,34.3445109900]},"properties":{"Name":"二番丁コミュニティセンター","Jusho":"香川県高松市扇町２-８-７","洪水":"◎","がけ崩れ、土石流及び地滑り":"◎","高潮":"◎","地震":"◎","津波":"◎","大規模な火事":"","内水氾濫":"◎","火山現象":"","指定避難所との重複":"◎","備考":""}},
{"type":"Feature","geometry":{"type":"Point","coordinates":[134.0449204000,34.3435468200]},"properties":{"Name":"四番丁コミュニティセンター","Jusho":"香川県高松市　番町二丁目３-５","洪水":"◎","がけ崩れ、土石流及び地滑り":"◎","高潮":"◎","地震":"◎","津波":"◎","大規模な火事":"","内水氾濫":"◎","火山現象":"","指定避難所との重複":"◎","備考":""}},
{"type":"Feature","geometry":{"type":"Point","coordinates":[134.0353108000,34.3396169700]},"properties":{"Name":"亀阜コミュニティセンター","Jusho":"香川県高松市宮脇町１-６-１８","洪水":"◎","がけ崩れ、土石流及び地滑り":"◎","高潮":"◎","地震":"◎","津波":"◎","大規模な火事":"","内水氾濫":"◎","火山現象":"","指定避難所との重複":"◎","備考":""}},
{"type":"Feature","geometry":{"type":"Point","coordinates":[134.0480381000,34.3288850300]},"properties":{"Name":"栗林コミュニティセンター","Jusho":"香川県高松市栗林町３-２-１２","洪水":"◎","がけ崩れ、土石流及び地滑り":"◎","高潮":"◎","地震":"◎","津波":"◎","大規模な火事":"","内水氾濫":"◎","火山現象":"","指定避難所との重複":"◎","備考":""}},
{"type":"Feature","geometry":{"type":"Point","coordinates":[134.0569027000,34.3360657100]},"properties":{"Name":"花園コミュニティセンター","Jusho":"香川県高松市観光通２-８-９","洪水":"◎","がけ崩れ、土石流及び地滑り":"◎","高潮":"◎","地震":"◎","津波":"◎","大規模な火事":"","内水氾濫":"◎","火山現象":"","指定避難所との重複":"◎","備考":""}},
{"type":"Feature","geometry":{"type":"Point","coordinates":[134.0650758000,34.3402252400]},"properties":{"Name":"松島コミュニティセンター","Jusho":"香川県高松市松福町２-１５-２４","洪水":"◎","がけ崩れ、土石流及び地滑り":"◎","高潮":"◎","地震":"◎","津波":"◎","大規模な火事":"","内水氾濫":"◎","火山現象":"","指定避難所との重複":"◎","備考":""}},
{"type":"Feature","geometry":{"type":"Point","coordinates":[134.0568501000,34.3412296300]},"properties":{"Name":"築地コミュニティセンター","Jusho":"香川県高松市築地町１４-１","洪水":"◎","がけ崩れ、土石流及び地滑り":"◎","高潮":"◎","地震":"◎","津波":"◎","大規模な火事":"","内水氾濫":"◎","火山現象":"","指定避難所との重複":"◎","備考":""}},
{"type":"Feature","geometry":{"type":"Point","coordinates":[134.0559480000,34.3474310400]},"properties":{"Name":"新塩屋町コミュニティセンター","Jusho":"香川県高松市城東町１-１-４７","洪水":"◎","がけ崩れ、土石流及び地滑り":"◎","高潮":"◎","地震":"◎","津波":"◎","大規模な火事":"","内水氾濫":"◎","火山現象":"","指定避難所との重複":"◎","備考":""}},
{"type":"Feature","geometry":{"type":"Point","coordinates":[134.0302573000,34.3138393900]},"properties":{"Name":"鶴尾コミュニティセンター","Jusho":"香川県高松市田村町３０３-１","洪水":"◎","がけ崩れ、土石流及び地滑り":"◎","高潮":"◎","地震":"◎","津波":"◎","大規模な火事":"","内水氾濫":"◎","火山現象":"","指定避難所との重複":"◎","備考":""}},
{"type":"Feature","geometry":{"type":"Point","coordinates":[134.0413326000,34.3018699000]},"properties":{"Name":"太田南コミュニティセンター","Jusho":"香川県高松市太田上町１０４５-２","洪水":"◎","がけ崩れ、土石流及び地滑り":"◎","高潮":"◎","地震":"◎","津波":"◎","大規模な火事":"","内水氾濫":"◎","火山現象":"","指定避難所との重複":"◎","備考":""}},
{"type":"Feature","geometry":{"type":"Point","coordinates":[134.0640513000,34.3138528200]},"properties":{"Name":"太田中央コミュニティセンター","Jusho":"香川県高松市松縄町１１０８-１","洪水":"◎","がけ崩れ、土石流及び地滑り":"◎","高潮":"◎","地震":"◎","津波":"◎","大規模な火事":"","内水氾濫":"◎","火山現象":"","指定避難所との重複":"◎","備考":""}},
{"type":"Feature","geometry":{"type":"Point","coordinates":[134.0794841000,34.3356405400]},"properties":{"Name":"木太北部コミュニティセンター","Jusho":"香川県高松市木太町２６０３","洪水":"◎","がけ崩れ、土石流及び地滑り":"◎","高潮":"◎","地震":"◎","津波":"◎","大規模な火事":"","内水氾濫":"◎","火山現象":"","指定避難所との重複":"◎","備考":""}},
{"type":"Feature","geometry":{"type":"Point","coordinates":[134.0762320000,34.3192271000]},"properties":{"Name":"木太南コミュニティセンター","Jusho":"香川県高松市木太町１４８６","洪水":"◎","がけ崩れ、土石流及び地滑り":"◎","高潮":"◎","地震":"◎","津波":"◎","大規模な火事":"","内水氾濫":"◎","火山現象":"","指定避難所との重複":"◎","備考":""}},
{"type":"Feature","geometry":{"type":"Point","coordinates":[134.1074787000,34.3356547000]},"properties":{"Name":"古高松コミュニティセンター","Jusho":"香川県高松市高松町１０-２０","洪水":"","がけ崩れ、土石流及び地滑り":"◎","高潮":"","地震":"◎","津波":"◎","大規模な火事":"","内水氾濫":"","火山現象":"","指定避難所との重複":"◎","備考":""}},
{"type":"Feature","geometry":{"type":"Point","coordinates":[134.0917499000,34.3269902200]},"properties":{"Name":"古高松南コミュニティセンター","Jusho":"香川県高松市春日町７８２-２","洪水":"◎","がけ崩れ、土石流及び地滑り":"◎","高潮":"◎","地震":"◎","津波":"◎","大規模な火事":"","内水氾濫":"◎","火山現象":"","指定避難所との重複":"◎","備考":""}},
{"type":"Feature","geometry":{"type":"Point","coordinates":[134.1013430000,34.3437141300]},"properties":{"Name":"屋島コミュニティセンター","Jusho":"香川県高松市屋島中町４４９-１","洪水":"◎","がけ崩れ、土石流及び地滑り":"◎","高潮":"◎","地震":"◎","津波":"◎","大規模な火事":"","内水氾濫":"◎","火山現象":"","指定避難所との重複":"◎","備考":""}},
{"type":"Feature","geometry":{"type":"Point","coordinates":[134.0891860000,34.3522800800]},"properties":{"Name":"屋島西コミュニティセンター","Jusho":"香川県高松市屋島西町２４８３-２","洪水":"◎","がけ崩れ、土石流及び地滑り":"◎","高潮":"◎","地震":"◎","津波":"◎","大規模な火事":"","内水氾濫":"◎","火山現象":"","指定避難所との重複":"◎","備考":""}},
{"type":"Feature","geometry":{"type":"Point","coordinates":[134.1159421000,34.3549886300]},"properties":{"Name":"屋島東コミュニティセンター","Jusho":"香川県高松市屋島東町９２８","洪水":"◎","がけ崩れ、土石流及び地滑り":"◎","高潮":"◎","地震":"◎","津波":"◎","大規模な火事":"","内水氾濫":"◎","火山現象":"","指定避難所との重複":"◎","備考":""}},
{"type":"Feature","geometry":{"type":"Point","coordinates":[134.1126271000,34.2966036500]},"properties":{"Name":"前田コミュニティセンター","Jusho":"香川県高松市前田東町８３８","洪水":"◎","がけ崩れ、土石流及び地滑り":"◎","高潮":"◎","地震":"◎","津波":"◎","大規模な火事":"","内水氾濫":"◎","火山現象":"","指定避難所との重複":"◎","備考":""}},
{"type":"Feature","geometry":{"type":"Point","coordinates":[134.0894688000,34.3070550900]},"properties":{"Name":"川添コミュニティセンター","Jusho":"香川県高松市元山町１３６-４","洪水":"◎","がけ崩れ、土石流及び地滑り":"◎","高潮":"◎","地震":"◎","津波":"◎","大規模な火事":"","内水氾濫":"◎","火山現象":"","指定避難所との重複":"◎","備考":""}},
{"type":"Feature","geometry":{"type":"Point","coordinates":[134.0763451000,34.2975435300]},"properties":{"Name":"林コミュニティセンター","Jusho":"香川県高松市林町329-1","洪水":"◎","がけ崩れ、土石流及び地滑り":"◎","高潮":"◎","地震":"◎","津波":"◎","大規模な火事":"","内水氾濫":"◎","火山現象":"","指定避難所との重複":"◎","備考":""}},
{"type":"Feature","geometry":{"type":"Point","coordinates":[134.0694850000,34.2780140000]},"properties":{"Name":"三谷コミュニティセンター","Jusho":"香川県高松市三谷町１２０１-１","洪水":"◎","がけ崩れ、土石流及び地滑り":"◎","高潮":"◎","地震":"◎","津波":"◎","大規模な火事":"","内水氾濫":"◎","火山現象":"","指定避難所との重複":"◎","備考":""}},
{"type":"Feature","geometry":{"type":"Point","coordinates":[134.0478780000,34.2785037200]},"properties":{"Name":"仏生山コミュニティセンター","Jusho":"香川県高松市仏生山町乙４５-４","洪水":"◎","がけ崩れ、土石流及び地滑り":"◎","高潮":"◎","地震":"◎","津波":"◎","大規模な火事":"","内水氾濫":"◎","火山現象":"","指定避難所との重複":"◎","備考":""}},
{"type":"Feature","geometry":{"type":"Point","coordinates":[134.0515211000,34.2904402800]},"properties":{"Name":"多肥コミュニティセンター","Jusho":"香川県高松市多肥上町４３３-５","洪水":"◎","がけ崩れ、土石流及び地滑り":"◎","高潮":"◎","地震":"◎","津波":"◎","大規模な火事":"","内水氾濫":"◎","火山現象":"","指定避難所との重複":"◎","備考":""}},
{"type":"Feature","geometry":{"type":"Point","coordinates":[134.0289302000,34.2906802900]},"properties":{"Name":"一宮コミュニティセンター","Jusho":"香川県高松市一宮町８３８-１","洪水":"","がけ崩れ、土石流及び地滑り":"◎","高潮":"◎","地震":"◎","津波":"◎","大規模な火事":"","内水氾濫":"◎","火山現象":"","指定避難所との重複":"◎","備考":""}},
{"type":"Feature","geometry":{"type":"Point","coordinates":[134.0055212000,34.2854025400]},"properties":{"Name":"円座コミュニティセンター","Jusho":"香川県高松市円座町１６２２-１","洪水":"◎","がけ崩れ、土石流及び地滑り":"◎","高潮":"◎","地震":"◎","津波":"◎","大規模な火事":"","内水氾濫":"◎","火山現象":"","指定避難所との重複":"◎","備考":""}},
{"type":"Feature","geometry":{"type":"Point","coordinates":[134.0099708000,34.2694292900]},"properties":{"Name":"川岡コミュニティセンター","Jusho":"香川県高松市川部町４８６-１","洪水":"◎","がけ崩れ、土石流及び地滑り":"◎","高潮":"◎","地震":"◎","津波":"◎","大規模な火事":"","内水氾濫":"◎","火山現象":"","指定避難所との重複":"◎","備考":""}},
{"type":"Feature","geometry":{"type":"Point","coordinates":[133.9947065000,34.3009277700]},"properties":{"Name":"檀紙コミュニティセンター","Jusho":"香川県高松市御厩町７７５-１","洪水":"◎","がけ崩れ、土石流及び地滑り":"◎","高潮":"◎","地震":"◎","津波":"◎","大規模な火事":"","内水氾濫":"◎","火山現象":"","指定避難所との重複":"◎","備考":""}},
{"type":"Feature","geometry":{"type":"Point","coordinates":[134.0057813000,34.3289520600]},"properties":{"Name":"弦打コミュニティセンター","Jusho":"香川県高松市鶴市町３５６-３","洪水":"◎","がけ崩れ、土石流及び地滑り":"◎","高潮":"◎","地震":"◎","津波":"◎","大規模な火事":"","内水氾濫":"◎","火山現象":"","指定避難所との重複":"◎","備考":""}},
{"type":"Feature","geometry":{"type":"Point","coordinates":[133.9932813000,34.3270886600]},"properties":{"Name":"鬼無コミュニティセンター","Jusho":"香川県高松市鬼無町佐藤３１-３","洪水":"◎","がけ崩れ、土石流及び地滑り":"◎","高潮":"◎","地震":"◎","津波":"◎","大規模な火事":"","内水氾濫":"◎","火山現象":"","指定避難所との重複":"◎","備考":""}},
{"type":"Feature","geometry":{"type":"Point","coordinates":[133.9962626000,34.3469124800]},"properties":{"Name":"香西コミュニティセンター","Jusho":"香川県高松市香西本町４７６-１","洪水":"◎","がけ崩れ、土石流及び地滑り":"◎","高潮":"◎","地震":"◎","津波":"◎","大規模な火事":"","内水氾濫":"◎","火山現象":"","指定避難所との重複":"◎","備考":""}},
{"type":"Feature","geometry":{"type":"Point","coordinates":[133.9688211000,34.3586985300]},"properties":{"Name":"下笠居コミュニティセンター","Jusho":"香川県高松市生島町３５３-１","洪水":"◎","がけ崩れ、土石流及び地滑り":"◎","高潮":"◎","地震":"◎","津波":"◎","大規模な火事":"","内水氾濫":"◎","火山現象":"","指定避難所との重複":"◎","備考":""}},
{"type":"Feature","geometry":{"type":"Point","coordinates":[134.0517020000,34.3920909300]},"properties":{"Name":"女木コミュニティセンター","Jusho":"香川県高松市女木町２０３-１","洪水":"◎","がけ崩れ、土石流及び地滑り":"◎","高潮":"◎","地震":"◎","津波":"◎","大規模な火事":"","内水氾濫":"◎","火山現象":"","指定避難所との重複":"◎","備考":""}},
{"type":"Feature","geometry":{"type":"Point","coordinates":[134.0855226000,34.2764712700]},"properties":{"Name":"川島コミュニティセンター","Jusho":"香川県高松市川島本町１９１-２","洪水":"◎","がけ崩れ、土石流及び地滑り":"◎","高潮":"◎","地震":"◎","津波":"◎","大規模な火事":"","内水氾濫":"◎","火山現象":"","指定避難所との重複":"◎","備考":""}},
{"type":"Feature","geometry":{"type":"Point","coordinates":[134.0788733000,34.2403330900]},"properties":{"Name":"西植田コミュニティセンター","Jusho":"香川県高松市西植田町２２４７-１","洪水":"◎","がけ崩れ、土石流及び地滑り":"◎","高潮":"◎","地震":"","津波":"◎","大規模な火事":"","内水氾濫":"◎","火山現象":"","指定避難所との重複":"◎","備考":""}},
{"type":"Feature","geometry":{"type":"Point","coordinates":[134.0990775000,34.2382410300]},"properties":{"Name":"東植田コミュニティセンター","Jusho":"香川県高松市東植田町１８２５-１","洪水":"◎","がけ崩れ、土石流及び地滑り":"◎","高潮":"◎","地震":"","津波":"◎","大規模な火事":"","内水氾濫":"◎","火山現象":"","指定避難所との重複":"◎","備考":""}},
{"type":"Feature","geometry":{"type":"Point","coordinates":[134.1425004000,34.3452752200]},"properties":{"Name":"高松北高等(中）学校（体育館）","Jusho":"香川県高松市牟礼町牟礼１５８３-１","洪水":"◎","がけ崩れ、土石流及び地滑り":"◎","高潮":"◎","地震":"◎","津波":"◎","大規模な火事":"","内水氾濫":"◎","火山現象":"","指定避難所との重複":"◎","備考":""}},
{"type":"Feature","geometry":{"type":"Point","coordinates":[134.1428074000,34.3401721300]},"properties":{"Name":"牟礼中学校","Jusho":"香川県高松市牟礼町牟礼４６-２","洪水":"◎","がけ崩れ、土石流及び地滑り":"◎","高潮":"◎","地震":"◎","津波":"◎","大規模な火事":"◎","内水氾濫":"◎","火山現象":"","指定避難所との重複":"◎","備考":""}},
{"type":"Feature","geometry":{"type":"Point","coordinates":[134.1392154000,34.3379573900]},"properties":{"Name":"牟礼コミュニティセンター","Jusho":"香川県高松市牟礼町牟礼３０２-１","洪水":"◎","がけ崩れ、土石流及び地滑り":"◎","高潮":"◎","地震":"◎","津波":"◎","大規模な火事":"","内水氾濫":"◎","火山現象":"","指定避難所との重複":"◎","備考":""}},
{"type":"Feature","geometry":{"type":"Point","coordinates":[134.1430848000,34.3425224700]},"properties":{"Name":"牟礼総合体育館","Jusho":"香川県高松市牟礼町牟礼１５２-１０","洪水":"◎","がけ崩れ、土石流及び地滑り":"","高潮":"◎","地震":"◎","津波":"◎","大規模な火事":"","内水氾濫":"◎","火山現象":"","指定避難所との重複":"◎","備考":""}},
{"type":"Feature","geometry":{"type":"Point","coordinates":[134.1255751000,34.3511117900]},"properties":{"Name":"牟礼北小学校","Jusho":"香川県高松市牟礼町牟礼２９００-１","洪水":"◎","がけ崩れ、土石流及び地滑り":"◎","高潮":"◎","地震":"◎","津波":"◎","大規模な火事":"◎","内水氾濫":"◎","火山現象":"","指定避難所との重複":"◎","備考":""}},
{"type":"Feature","geometry":{"type":"Point","coordinates":[134.1420594000,34.3362431600]},"properties":{"Name":"牟礼小学校","Jusho":"香川県高松市牟礼町大町１５６０","洪水":"◎","がけ崩れ、土石流及び地滑り":"◎","高潮":"◎","地震":"◎","津波":"◎","大規模な火事":"◎","内水氾濫":"◎","火山現象":"","指定避難所との重複":"◎","備考":""}},
{"type":"Feature","geometry":{"type":"Point","coordinates":[134.1471602000,34.3325995500]},"properties":{"Name":"牟礼中央公園運動センター","Jusho":"香川県高松市牟礼町原１０１９-８","洪水":"◎","がけ崩れ、土石流及び地滑り":"◎","高潮":"◎","地震":"◎","津波":"◎","大規模な火事":"◎","内水氾濫":"◎","火山現象":"","指定避難所との重複":"◎","備考":""}},
{"type":"Feature","geometry":{"type":"Point","coordinates":[134.1521065000,34.3339410000]},"properties":{"Name":"牟礼南小学校","Jusho":"香川県高松市牟礼町大町１１１５-１","洪水":"◎","がけ崩れ、土石流及び地滑り":"◎","高潮":"◎","地震":"◎","津波":"◎","大規模な火事":"◎","内水氾濫":"◎","火山現象":"","指定避難所との重複":"◎","備考":""}},
{"type":"Feature","geometry":{"type":"Point","coordinates":[134.1558109000,34.3284304300]},"properties":{"Name":"高松市はらこども園","Jusho":"香川県高松市牟礼町原５７０-１","洪水":"◎","がけ崩れ、土石流及び地滑り":"◎","高潮":"◎","地震":"◎","津波":"◎","大規模な火事":"","内水氾濫":"◎","火山現象":"","指定避難所との重複":"","備考":""}},
{"type":"Feature","geometry":{"type":"Point","coordinates":[134.1426806000,34.3361353300]},"properties":{"Name":"大町コミュニティセンター","Jusho":"香川県高松市牟礼町大町１４６３-２","洪水":"◎","がけ崩れ、土石流及び地滑り":"◎","高潮":"◎","地震":"◎","津波":"◎","大規模な火事":"","内水氾濫":"◎","火山現象":"","指定避難所との重複":"◎","備考":""}},
{"type":"Feature","geometry":{"type":"Point","coordinates":[134.1576567000,34.3217385000]},"properties":{"Name":"香川県立保健医療大学（体育館）","Jusho":"香川県高松市牟礼町原２８１-１","洪水":"◎","がけ崩れ、土石流及び地滑り":"◎","高潮":"◎","地震":"◎","津波":"◎","大規模な火事":"","内水氾濫":"◎","火山現象":"","指定避難所との重複":"◎","備考":""}},
{"type":"Feature","geometry":{"type":"Point","coordinates":[134.1214739000,34.3683532900]},"properties":{"Name":"深間ふれあいセンター","Jusho":"香川県高松市庵治町６３９１-１７","洪水":"◎","がけ崩れ、土石流及び地滑り":"","高潮":"◎","地震":"◎","津波":"◎","大規模な火事":"","内水氾濫":"◎","火山現象":"","指定避難所との重複":"","備考":""}},
{"type":"Feature","geometry":{"type":"Point","coordinates":[134.1313905000,34.3836471400]},"properties":{"Name":"庵治中学校","Jusho":"香川県高松市庵治町６９１-１","洪水":"◎","がけ崩れ、土石流及び地滑り":"◎","高潮":"◎","地震":"◎","津波":"◎","大規模な火事":"◎","内水氾濫":"◎","火山現象":"","指定避難所との重複":"◎","備考":""}},
{"type":"Feature","geometry":{"type":"Point","coordinates":[134.1309438000,34.3853275400]},"properties":{"Name":"庵治小学校","Jusho":"香川県高松市庵治町７９０-１","洪水":"◎","がけ崩れ、土石流及び地滑り":"◎","高潮":"◎","地震":"◎","津波":"◎","大規模な火事":"◎","内水氾濫":"◎","火山現象":"","指定避難所との重複":"◎","備考":""}},
{"type":"Feature","geometry":{"type":"Point","coordinates":[134.1299098000,34.3852608100]},"properties":{"Name":"庵治コミュニティセンター・庵治武道館","Jusho":"香川県高松市庵治町８８８-１","洪水":"◎","がけ崩れ、土石流及び地滑り":"◎","高潮":"◎","地震":"◎","津波":"◎","大規模な火事":"","内水氾濫":"◎","火山現象":"","指定避難所との重複":"◎","備考":""}},
{"type":"Feature","geometry":{"type":"Point","coordinates":[134.1303282000,34.3853891900]},"properties":{"Name":"庵治小学校第二体育館","Jusho":"香川県高松市庵治町８６６-４","洪水":"◎","がけ崩れ、土石流及び地滑り":"◎","高潮":"◎","地震":"◎","津波":"◎","大規模な火事":"","内水氾濫":"◎","火山現象":"","指定避難所との重複":"◎","備考":""}},
{"type":"Feature","geometry":{"type":"Point","coordinates":[134.1271945000,34.3829536200]},"properties":{"Name":"庵治やすらぎ会館","Jusho":"香川県高松市庵治町６３９２-１４","洪水":"◎","がけ崩れ、土石流及び地滑り":"◎","高潮":"◎","地震":"◎","津波":"◎","大規模な火事":"","内水氾濫":"◎","火山現象":"","指定避難所との重複":"","備考":""}},
{"type":"Feature","geometry":{"type":"Point","coordinates":[134.1362138000,34.3908055600]},"properties":{"Name":"庵治斎場","Jusho":"香川県高松市庵治町１３９１","洪水":"◎","がけ崩れ、土石流及び地滑り":"◎","高潮":"◎","地震":"◎","津波":"◎","大規模な火事":"","内水氾濫":"◎","火山現象":"","指定避難所との重複":"","備考":""}},
{"type":"Feature","geometry":{"type":"Point","coordinates":[134.0246513000,34.2672010600]},"properties":{"Name":"大野コミュニティセンター","Jusho":"香川県高松市香川町大野１３２９-１","洪水":"◎","がけ崩れ、土石流及び地滑り":"◎","高潮":"◎","地震":"◎","津波":"◎","大規模な火事":"","内水氾濫":"◎","火山現象":"","指定避難所との重複":"◎","備考":""}},
{"type":"Feature","geometry":{"type":"Point","coordinates":[134.0274465000,34.2670982500]},"properties":{"Name":"大野小学校","Jusho":"香川県高松市香川町大野１０４５-１","洪水":"◎","がけ崩れ、土石流及び地滑り":"◎","高潮":"◎","地震":"◎","津波":"◎","大規模な火事":"◎","内水氾濫":"◎","火山現象":"","指定避難所との重複":"◎","備考":""}},
{"type":"Feature","geometry":{"type":"Point","coordinates":[134.0408570000,34.2593828300]},"properties":{"Name":"浅野小学校","Jusho":"香川県高松市香川町浅野３０８８","洪水":"◎","がけ崩れ、土石流及び地滑り":"◎","高潮":"◎","地震":"◎","津波":"◎","大規模な火事":"◎","内水氾濫":"◎","火山現象":"","指定避難所との重複":"◎","備考":""}},
{"type":"Feature","geometry":{"type":"Point","coordinates":[134.0356787000,34.2566345500]},"properties":{"Name":"浅野コミュニティセンター","Jusho":"香川県高松市香川町浅野８２６-２","洪水":"◎","がけ崩れ、土石流及び地滑り":"◎","高潮":"◎","地震":"◎","津波":"◎","大規模な火事":"","内水氾濫":"◎","火山現象":"","指定避難所との重複":"◎","備考":""}},
{"type":"Feature","geometry":{"type":"Point","coordinates":[134.0287091000,34.2550964900]},"properties":{"Name":"香川総合体育館","Jusho":"香川県高松市香川町川東下１９１７-１","洪水":"◎","がけ崩れ、土石流及び地滑り":"◎","高潮":"◎","地震":"◎","津波":"◎","大規模な火事":"","内水氾濫":"◎","火山現象":"","指定避難所との重複":"◎","備考":""}},
{"type":"Feature","geometry":{"type":"Point","coordinates":[134.0344276000,34.2414626400]},"properties":{"Name":"川東コミュニティセンター","Jusho":"香川県高松市香川町川東上１８６５-１３","洪水":"◎","がけ崩れ、土石流及び地滑り":"◎","高潮":"◎","地震":"◎","津波":"◎","大規模な火事":"","内水氾濫":"◎","火山現象":"","指定避難所との重複":"◎","備考":""}},
{"type":"Feature","geometry":{"type":"Point","coordinates":[134.0351030000,34.2410542700]},"properties":{"Name":"川東小学校","Jusho":"香川県高松市香川町川東上１８６５-８","洪水":"◎","がけ崩れ、土石流及び地滑り":"◎","高潮":"◎","地震":"◎","津波":"◎","大規模な火事":"◎","内水氾濫":"◎","火山現象":"","指定避難所との重複":"◎","備考":""}},
{"type":"Feature","geometry":{"type":"Point","coordinates":[134.0378182000,34.2267992900]},"properties":{"Name":"香川町グリーンセンター","Jusho":"香川県高松市香川町川東上６０４-８５","洪水":"◎","がけ崩れ、土石流及び地滑り":"","高潮":"◎","地震":"◎","津波":"◎","大規模な火事":"","内水氾濫":"◎","火山現象":"","指定避難所との重複":"","備考":""}},
{"type":"Feature","geometry":{"type":"Point","coordinates":[134.0314016000,34.2120191700]},"properties":{"Name":"香川町多目的研修集会施設","Jusho":"香川県高松市香川町安原下第３号１９４-１","洪水":"◎","がけ崩れ、土石流及び地滑り":"","高潮":"◎","地震":"◎","津波":"◎","大規模な火事":"","内水氾濫":"◎","火山現象":"","指定避難所との重複":"","備考":""}},
{"type":"Feature","geometry":{"type":"Point","coordinates":[134.0504988000,34.2165819200]},"properties":{"Name":"香川町高齢者活動促進センター","Jusho":"香川県高松市香川町東谷１５９-１","洪水":"◎","がけ崩れ、土石流及び地滑り":"◎","高潮":"◎","地震":"◎","津波":"◎","大規模な火事":"","内水氾濫":"◎","火山現象":"","指定避難所との重複":"","備考":""}},
{"type":"Feature","geometry":{"type":"Point","coordinates":[134.0616751000,34.2046185800]},"properties":{"Name":"東谷コミュニティセンター","Jusho":"香川県高松市香川町東谷８７３-３","洪水":"◎","がけ崩れ、土石流及び地滑り":"","高潮":"◎","地震":"◎","津波":"◎","大規模な火事":"","内水氾濫":"◎","火山現象":"","指定避難所との重複":"◎","備考":""}},
{"type":"Feature","geometry":{"type":"Point","coordinates":[134.0085224000,34.2416239500]},"properties":{"Name":"香南小学校","Jusho":"香川県高松市香南町横井１００８","洪水":"◎","がけ崩れ、土石流及び地滑り":"◎","高潮":"◎","地震":"◎","津波":"◎","大規模な火事":"◎","内水氾濫":"◎","火山現象":"","指定避難所との重複":"◎","備考":""}},
{"type":"Feature","geometry":{"type":"Point","coordinates":[134.0085278000,34.2425867700]},"properties":{"Name":"香南中学校","Jusho":"香川県高松市香南町横井８０１","洪水":"◎","がけ崩れ、土石流及び地滑り":"◎","高潮":"◎","地震":"◎","津波":"◎","大規模な火事":"◎","内水氾濫":"◎","火山現象":"","指定避難所との重複":"◎","備考":""}},
{"type":"Feature","geometry":{"type":"Point","coordinates":[134.0128954000,34.2400382900]},"properties":{"Name":"香南コミュニティセンター","Jusho":"香川県高松市香南町由佐１１７２","洪水":"◎","がけ崩れ、土石流及び地滑り":"◎","高潮":"◎","地震":"◎","津波":"◎","大規模な火事":"","内水氾濫":"◎","火山現象":"","指定避難所との重複":"◎","備考":""}},
{"type":"Feature","geometry":{"type":"Point","coordinates":[134.0189894000,34.2403132400]},"properties":{"Name":"由佐農村環境改善センター","Jusho":"香川県高松市香南町由佐３５７-２","洪水":"◎","がけ崩れ、土石流及び地滑り":"◎","高潮":"◎","地震":"◎","津波":"◎","大規模な火事":"","内水氾濫":"◎","火山現象":"","指定避難所との重複":"◎","備考":""}},
{"type":"Feature","geometry":{"type":"Point","coordinates":[134.0003860000,34.2452147100]},"properties":{"Name":"池西農村環境改善センター","Jusho":"香川県高松市香南町池内５２２-１","洪水":"◎","がけ崩れ、土石流及び地滑り":"◎","高潮":"◎","地震":"◎","津波":"◎","大規模な火事":"","内水氾濫":"◎","火山現象":"","指定避難所との重複":"◎","備考":""}},
{"type":"Feature","geometry":{"type":"Point","coordinates":[134.0413650000,34.1963522500]},"properties":{"Name":"塩江コミュニティセンター","Jusho":"香川県高松市塩江町安原下第２号１６４５","洪水":"◎","がけ崩れ、土石流及び地滑り":"","高潮":"◎","地震":"◎","津波":"◎","大規模な火事":"","内水氾濫":"◎","火山現象":"","指定避難所との重複":"◎","備考":""}},
{"type":"Feature","geometry":{"type":"Point","coordinates":[134.0406564000,34.1976278300]},"properties":{"Name":"安原小学校跡施設","Jusho":"香川県高松市塩江町安原下第２号１６８４","洪水":"◎","がけ崩れ、土石流及び地滑り":"","高潮":"◎","地震":"◎","津波":"◎","大規模な火事":"◎","内水氾濫":"◎","火山現象":"","指定避難所との重複":"◎","備考":""}},
{"type":"Feature","geometry":{"type":"Point","coordinates":[134.0245504000,34.1561114900]},"properties":{"Name":"安原小学校　戸石分校跡施設","Jusho":"香川県高松市塩江町安原下第２号８５７","洪水":"◎","がけ崩れ、土石流及び地滑り":"","高潮":"◎","地震":"◎","津波":"◎","大規模な火事":"","内水氾濫":"◎","火山現象":"","指定避難所との重複":"","備考":""}},
{"type":"Feature","geometry":{"type":"Point","coordinates":[134.0828802000,34.1696196400]},"properties":{"Name":"塩江支所　塩江連絡事務所","Jusho":"香川県高松市塩江町安原上東３９４番地の２","洪水":"◎","がけ崩れ、土石流及び地滑り":"◎","高潮":"◎","地震":"◎","津波":"◎","大規模な火事":"","内水氾濫":"◎","火山現象":"","指定避難所との重複":"","備考":""}},
{"type":"Feature","geometry":{"type":"Point","coordinates":[134.0835200000,34.1703030000]},"properties":{"Name":"塩江小学校跡施設","Jusho":"香川県高松市塩江町安原上東３６５","洪水":"◎","がけ崩れ、土石流及び地滑り":"","高潮":"◎","地震":"◎","津波":"◎","大規模な火事":"◎","内水氾濫":"◎","火山現象":"","指定避難所との重複":"◎","備考":""}},
{"type":"Feature","geometry":{"type":"Point","coordinates":[134.0993698000,34.1623066800]},"properties":{"Name":"椛川集会所","Jusho":"香川県高松市塩江町安原上東字椛川２１７３-８","洪水":"◎","がけ崩れ、土石流及び地滑り":"◎","高潮":"◎","地震":"◎","津波":"◎","大規模な火事":"","内水氾濫":"◎","火山現象":"","指定避難所との重複":"","備考":""}},
{"type":"Feature","geometry":{"type":"Point","coordinates":[134.0739550000,34.1816873100]},"properties":{"Name":"塩江小・中学校","Jusho":"香川県高松市塩江町安原上２３１","洪水":"◎","がけ崩れ、土石流及び地滑り":"◎","高潮":"◎","地震":"◎","津波":"◎","大規模な火事":"◎","内水氾濫":"◎","火山現象":"","指定避難所との重複":"◎","備考":""}},
{"type":"Feature","geometry":{"type":"Point","coordinates":[134.0766720000,34.1505099900]},"properties":{"Name":"塩江支所　上西連絡事務所","Jusho":"香川県高松市塩江町上西乙５４９","洪水":"◎","がけ崩れ、土石流及び地滑り":"◎","高潮":"◎","地震":"◎","津波":"◎","大規模な火事":"","内水氾濫":"◎","火山現象":"","指定避難所との重複":"","備考":""}},
{"type":"Feature","geometry":{"type":"Point","coordinates":[134.0768043000,34.1522505400]},"properties":{"Name":"上西小学校跡施設","Jusho":"香川県高松市塩江町上西乙４６１","洪水":"◎","がけ崩れ、土石流及び地滑り":"◎","高潮":"◎","地震":"◎","津波":"◎","大規模な火事":"◎","内水氾濫":"◎","火山現象":"","指定避難所との重複":"◎","備考":""}},
{"type":"Feature","geometry":{"type":"Point","coordinates":[134.0738301000,34.1261288200]},"properties":{"Name":"西山ふれあいセンター","Jusho":"香川県高松市塩江町上西甲９４７番地３","洪水":"◎","がけ崩れ、土石流及び地滑り":"","高潮":"◎","地震":"◎","津波":"◎","大規模な火事":"","内水氾濫":"◎","火山現象":"","指定避難所との重複":"","備考":""}},
{"type":"Feature","geometry":{"type":"Point","coordinates":[133.9649126000,34.2974012100]},"properties":{"Name":"国分寺中学校","Jusho":"香川県高松市国分寺町新居１１３１-１","洪水":"◎","がけ崩れ、土石流及び地滑り":"◎","高潮":"◎","地震":"◎","津波":"◎","大規模な火事":"◎","内水氾濫":"◎","火山現象":"","指定避難所との重複":"◎","備考":""}},
{"type":"Feature","geometry":{"type":"Point","coordinates":[133.9638751000,34.3060562200]},"properties":{"Name":"国分寺北部小学校","Jusho":"香川県高松市国分寺町新居１８８０","洪水":"◎","がけ崩れ、土石流及び地滑り":"◎","高潮":"◎","地震":"◎","津波":"◎","大規模な火事":"◎","内水氾濫":"◎","火山現象":"","指定避難所との重複":"◎","備考":""}},
{"type":"Feature","geometry":{"type":"Point","coordinates":[133.9623604000,34.3053776200]},"properties":{"Name":"国分寺北部コミュニティセンター","Jusho":"香川県高松市国分寺町新居１８４０-６","洪水":"◎","がけ崩れ、土石流及び地滑り":"◎","高潮":"◎","地震":"◎","津波":"◎","大規模な火事":"","内水氾濫":"◎","火山現象":"","指定避難所との重複":"◎","備考":""}},
{"type":"Feature","geometry":{"type":"Point","coordinates":[133.9652885000,34.2973464800]},"properties":{"Name":"国分寺中学校第二体育館","Jusho":"香川県高松市国分寺町新居１１５５-７","洪水":"◎","がけ崩れ、土石流及び地滑り":"◎","高潮":"◎","地震":"◎","津波":"◎","大規模な火事":"","内水氾濫":"◎","火山現象":"","指定避難所との重複":"◎","備考":""}},
{"type":"Feature","geometry":{"type":"Point","coordinates":[133.9718606000,34.3079581300]},"properties":{"Name":"新居東児童館","Jusho":"香川県高松市国分寺町新居３３７１-１","洪水":"◎","がけ崩れ、土石流及び地滑り":"◎","高潮":"◎","地震":"◎","津波":"◎","大規模な火事":"","内水氾濫":"◎","火山現象":"","指定避難所との重複":"","備考":""}},
{"type":"Feature","geometry":{"type":"Point","coordinates":[133.9592321000,34.2995993800]},"properties":{"Name":"国分寺文化センター","Jusho":"香川県高松市国分寺町新居１４２３-１","洪水":"◎","がけ崩れ、土石流及び地滑り":"◎","高潮":"◎","地震":"◎","津波":"◎","大規模な火事":"","内水氾濫":"","火山現象":"","指定避難所との重複":"◎","備考":""}},
{"type":"Feature","geometry":{"type":"Point","coordinates":[133.9577979000,34.2998700300]},"properties":{"Name":"新居児童館","Jusho":"香川県高松市国分寺町国分７８-１","洪水":"◎","がけ崩れ、土石流及び地滑り":"◎","高潮":"◎","地震":"◎","津波":"◎","大規模な火事":"","内水氾濫":"","火山現象":"","指定避難所との重複":"◎","備考":""}},
{"type":"Feature","geometry":{"type":"Point","coordinates":[133.9464752000,34.3028694600]},"properties":{"Name":"国分児童館","Jusho":"香川県高松市国分寺町国分２１５０-７","洪水":"◎","がけ崩れ、土石流及び地滑り":"◎","高潮":"◎","地震":"◎","津波":"◎","大規模な火事":"","内水氾濫":"◎","火山現象":"","指定避難所との重複":"","備考":""}},
{"type":"Feature","geometry":{"type":"Point","coordinates":[133.9619826000,34.2839430600]},"properties":{"Name":"国分寺南部小学校","Jusho":"香川県高松市国分寺町福家甲３００５","洪水":"◎","がけ崩れ、土石流及び地滑り":"◎","高潮":"◎","地震":"◎","津波":"◎","大規模な火事":"◎","内水氾濫":"◎","火山現象":"","指定避難所との重複":"◎","備考":""}},
{"type":"Feature","geometry":{"type":"Point","coordinates":[133.9610470000,34.2841349700]},"properties":{"Name":"国分寺南部コミュニティセンター","Jusho":"香川県高松市国分寺町福家甲３１０６-３","洪水":"◎","がけ崩れ、土石流及び地滑り":"◎","高潮":"◎","地震":"◎","津波":"◎","大規模な火事":"","内水氾濫":"◎","火山現象":"","指定避難所との重複":"◎","備考":""}},
{"type":"Feature","geometry":{"type":"Point","coordinates":[133.9614649000,34.2830787400]},"properties":{"Name":"国分寺勤労青少年ホーム","Jusho":"香川県高松市国分寺町福家甲３００５","洪水":"◎","がけ崩れ、土石流及び地滑り":"◎","高潮":"◎","地震":"◎","津波":"◎","大規模な火事":"","内水氾濫":"◎","火山現象":"","指定避難所との重複":"◎","備考":""}},
{"type":"Feature","geometry":{"type":"Point","coordinates":[133.9727955000,34.2741646400]},"properties":{"Name":"福家児童館","Jusho":"香川県高松市国分寺町福家甲１９５１-１","洪水":"◎","がけ崩れ、土石流及び地滑り":"◎","高潮":"◎","地震":"◎","津波":"◎","大規模な火事":"","内水氾濫":"◎","火山現象":"","指定避難所との重複":"","備考":""}},
{"type":"Feature","geometry":{"type":"Point","coordinates":[133.9601272000,34.2966712500]},"properties":{"Name":"国分寺会館","Jusho":"香川県高松市国分寺町新名４３０-２","洪水":"◎","がけ崩れ、土石流及び地滑り":"◎","高潮":"◎","地震":"◎","津波":"◎","大規模な火事":"","内水氾濫":"◎","火山現象":"","指定避難所との重複":"","備考":""}},
{"type":"Feature","geometry":{"type":"Point","coordinates":[133.9421268000,34.2992946300]},"properties":{"Name":"香川県青年センター","Jusho":"香川県高松市国分寺町国分１００９","洪水":"◎","がけ崩れ、土石流及び地滑り":"◎","高潮":"◎","地震":"◎","津波":"◎","大規模な火事":"","内水氾濫":"◎","火山現象":"","指定避難所との重複":"◎","備考":""}},
{"type":"Feature","geometry":{"type":"Point","coordinates":[133.9694121000,34.3647563700]},"properties":{"Name":"香川県消防学校","Jusho":"香川県高松市生島町６８９-１１","洪水":"◎","がけ崩れ、土石流及び地滑り":"◎","高潮":"◎","地震":"◎","津波":"◎","大規模な火事":"","内水氾濫":"◎","火山現象":"","指定避難所との重複":"","備考":""}},
{"type":"Feature","geometry":{"type":"Point","coordinates":[134.0423597000,34.3434065800]},"properties":{"Name":"高松工芸高等学校（体育館）","Jusho":"香川県高松市番町２-９-３０","洪水":"◎","がけ崩れ、土石流及び地滑り":"◎","高潮":"◎","地震":"◎","津波":"◎","大規模な火事":"","内水氾濫":"◎","火山現象":"","指定避難所との重複":"◎","備考":""}},
{"type":"Feature","geometry":{"type":"Point","coordinates":[134.0435152000,34.3417212600]},"properties":{"Name":"高松高等学校（体育館）","Jusho":"香川県高松市番町３-１-１","洪水":"◎","がけ崩れ、土石流及び地滑り":"◎","高潮":"◎","地震":"◎","津波":"◎","大規模な火事":"","内水氾濫":"◎","火山現象":"","指定避難所との重複":"◎","備考":""}},
{"type":"Feature","geometry":{"type":"Point","coordinates":[134.0599437000,34.3381223700]},"properties":{"Name":"高松商業高等学校（体育館）","Jusho":"香川県高松市松島町１-１８-５４","洪水":"◎","がけ崩れ、土石流及び地滑り":"◎","高潮":"◎","地震":"◎","津波":"◎","大規模な火事":"","内水氾濫":"◎","火山現象":"","指定避難所との重複":"◎","備考":""}},
{"type":"Feature","geometry":{"type":"Point","coordinates":[134.0365773000,34.3399255800]},"properties":{"Name":"香川大学（経済学部構内体育館）","Jusho":"香川県高松市幸町１-１","洪水":"◎","がけ崩れ、土石流及び地滑り":"◎","高潮":"◎","地震":"◎","津波":"◎","大規模な火事":"","内水氾濫":"◎","火山現象":"","指定避難所との重複":"◎","備考":""}},
{"type":"Feature","geometry":{"type":"Point","coordinates":[134.0416973000,34.2971572700]},"properties":{"Name":"香川県立聾学校（体育館）","Jusho":"香川県高松市太田上町５１３-１","洪水":"","がけ崩れ、土石流及び地滑り":"","高潮":"","地震":"◎","津波":"","大規模な火事":"","内水氾濫":"","火山現象":"","指定避難所との重複":"","備考":""}},
{"type":"Feature","geometry":{"type":"Point","coordinates":[134.0535320000,34.3454268900]},"properties":{"Name":"高松市生涯学習センター（まなびCAN)","Jusho":"香川県高松市片原町１１-１むうぶ片原町ビル内","洪水":"◎","がけ崩れ、土石流及び地滑り":"◎","高潮":"◎","地震":"◎","津波":"◎","大規模な火事":"","内水氾濫":"◎","火山現象":"","指定避難所との重複":"◎","備考":""}},
{"type":"Feature","geometry":{"type":"Point","coordinates":[134.0741780000,34.3419360400]},"properties":{"Name":"高松市総合体育館","Jusho":"香川県高松市福岡町４-３６-１","洪水":"◎","がけ崩れ、土石流及び地滑り":"◎","高潮":"◎","地震":"◎","津波":"◎","大規模な火事":"","内水氾濫":"◎","火山現象":"","指定避難所との重複":"◎","備考":""}},
{"type":"Feature","geometry":{"type":"Point","coordinates":[134.1119221000,34.2908570500]},"properties":{"Name":"高松東高校（体育館）","Jusho":"香川県高松市前田東町６９０-１","洪水":"","がけ崩れ、土石流及び地滑り":"◎","高潮":"◎","地震":"◎","津波":"◎","大規模な火事":"","内水氾濫":"◎","火山現象":"","指定避難所との重複":"◎","備考":""}},
{"type":"Feature","geometry":{"type":"Point","coordinates":[134.0093798000,34.3101466900]},"properties":{"Name":"香川高等専門学校（体育館）","Jusho":"香川県高松市勅使町３５５","洪水":"◎","がけ崩れ、土石流及び地滑り":"◎","高潮":"◎","地震":"◎","津波":"◎","大規模な火事":"","内水氾濫":"◎","火山現象":"","指定避難所との重複":"◎","備考":""}},
{"type":"Feature","geometry":{"type":"Point","coordinates":[133.9548189000,34.2899911000]},"properties":{"Name":"香川県営住宅国分寺団地集会場","Jusho":"香川県高松市国分寺町柏原４１","洪水":"◎","がけ崩れ、土石流及び地滑り":"◎","高潮":"◎","地震":"","津波":"◎","大規模な火事":"","内水氾濫":"◎","火山現象":"","指定避難所との重複":"","備考":""}},
{"type":"Feature","geometry":{"type":"Point","coordinates":[134.0316716000,34.2528330600]},"properties":{"Name":"香川第一中学校","Jusho":"香川県高松市香川町浅野１１８８","洪水":"◎","がけ崩れ、土石流及び地滑り":"◎","高潮":"◎","地震":"◎","津波":"◎","大規模な火事":"◎","内水氾濫":"◎","火山現象":"","指定避難所との重複":"◎","備考":""}},
{"type":"Feature","geometry":{"type":"Point","coordinates":[134.0382846000,34.2853748200]},"properties":{"Name":"香川県農業共済組合","Jusho":"香川県高松市三名町５-６","洪水":"◎","がけ崩れ、土石流及び地滑り":"◎","高潮":"◎","地震":"◎","津波":"◎","大規模な火事":"","内水氾濫":"◎","火山現象":"","指定避難所との重複":"","備考":""}},
{"type":"Feature","geometry":{"type":"Point","coordinates":[134.0637355000,34.2929462600]},"properties":{"Name":"香川大学工学部","Jusho":"香川県高松市林町２２１７-２０","洪水":"◎","がけ崩れ、土石流及び地滑り":"◎","高潮":"◎","地震":"◎","津波":"◎","大規模な火事":"","内水氾濫":"◎","火山現象":"","指定避難所との重複":"◎","備考":""}},
{"type":"Feature","geometry":{"type":"Point","coordinates":[134.0993242000,34.3292097300]},"properties":{"Name":"介護老人保健施設サンライズ屋島","Jusho":"香川県高松市新田町甲２７２３-２","洪水":"◎","がけ崩れ、土石流及び地滑り":"◎","高潮":"◎","地震":"◎","津波":"◎","大規模な火事":"","内水氾濫":"◎","火山現象":"","指定避難所との重複":"","備考":""}},
{"type":"Feature","geometry":{"type":"Point","coordinates":[134.0508011000,34.3491377000]},"properties":{"Name":"玉藻公園","Jusho":"香川県高松市玉藻町２-１","洪水":"","がけ崩れ、土石流及び地滑り":"◎","高潮":"","地震":"◎","津波":"","大規模な火事":"","内水氾濫":"◎","火山現象":"","指定避難所との重複":"","備考":""}},
{"type":"Feature","geometry":{"type":"Point","coordinates":[134.0466332000,34.3414199700]},"properties":{"Name":"中央公園","Jusho":"香川県高松市番町１丁目１１-１","洪水":"◎","がけ崩れ、土石流及び地滑り":"◎","高潮":"◎","地震":"◎","津波":"","大規模な火事":"","内水氾濫":"◎","火山現象":"","指定避難所との重複":"","備考":""}},
{"type":"Feature","geometry":{"type":"Point","coordinates":[134.0586924000,34.3254373500]},"properties":{"Name":"今里中央公園","Jusho":"香川県高松市今里町１丁目２０","洪水":"","がけ崩れ、土石流及び地滑り":"◎","高潮":"◎","地震":"◎","津波":"","大規模な火事":"◎","内水氾濫":"◎","火山現象":"","指定避難所との重複":"","備考":""}},
{"type":"Feature","geometry":{"type":"Point","coordinates":[134.0554738000,34.3137585500]},"properties":{"Name":"伏石中央公園","Jusho":"香川県高松市伏石町１１２６-１","洪水":"◎","がけ崩れ、土石流及び地滑り":"◎","高潮":"◎","地震":"◎","津波":"","大規模な火事":"◎","内水氾濫":"◎","火山現象":"","指定避難所との重複":"","備考":""}},
{"type":"Feature","geometry":{"type":"Point","coordinates":[134.0656018000,34.3156017500]},"properties":{"Name":"木太中央公園","Jusho":"香川県高松市木太町５０５２","洪水":"◎","がけ崩れ、土石流及び地滑り":"◎","高潮":"◎","地震":"◎","津波":"","大規模な火事":"◎","内水氾濫":"◎","火山現象":"","指定避難所との重複":"","備考":""}},
{"type":"Feature","geometry":{"type":"Point","coordinates":[134.1151905000,34.3310192100]},"properties":{"Name":"菱の池公園","Jusho":"香川県高松市高松町１２１１-２８","洪水":"◎","がけ崩れ、土石流及び地滑り":"◎","高潮":"◎","地震":"◎","津波":"◎","大規模な火事":"","内水氾濫":"◎","火山現象":"","指定避難所との重複":"","備考":""}},
{"type":"Feature","geometry":{"type":"Point","coordinates":[134.0247035000,34.2948989000]},"properties":{"Name":"一宮新池農村公園","Jusho":"香川県高松市一宮町１２２７","洪水":"◎","がけ崩れ、土石流及び地滑り":"◎","高潮":"◎","地震":"◎","津波":"◎","大規模な火事":"","内水氾濫":"◎","火山現象":"","指定避難所との重複":"","備考":""}},
{"type":"Feature","geometry":{"type":"Point","coordinates":[134.1574835000,34.3337834200]},"properties":{"Name":"房前公園・源平の里むれ（道の駅）","Jusho":"香川県高松市牟礼町原６３１-７","洪水":"◎","がけ崩れ、土石流及び地滑り":"◎","高潮":"◎","地震":"◎","津波":"◎","大規模な火事":"","内水氾濫":"◎","火山現象":"","指定避難所との重複":"","備考":""}},
{"type":"Feature","geometry":{"type":"Point","coordinates":[134.0260247000,34.3301021600]},"properties":{"Name":"峰山公園","Jusho":"香川県高松市峰山町１８３８-３７","洪水":"◎","がけ崩れ、土石流及び地滑り":"","高潮":"◎","地震":"◎","津波":"◎","大規模な火事":"","内水氾濫":"◎","火山現象":"","指定避難所との重複":"","備考":""}},
{"type":"Feature","geometry":{"type":"Point","coordinates":[134.1222946000,34.3286668500]},"properties":{"Name":"東部運動公園","Jusho":"香川県高松市高松町１３４７-１","洪水":"◎","がけ崩れ、土石流及び地滑り":"◎","高潮":"◎","地震":"◎","津波":"◎","大規模な火事":"◎","内水氾濫":"◎","火山現象":"","指定避難所との重複":"","備考":""}},
{"type":"Feature","geometry":{"type":"Point","coordinates":[134.0493278000,34.2717128700]},"properties":{"Name":"仏生山公園","Jusho":"香川県高松市仏生山町甲２６５４-１","洪水":"◎","がけ崩れ、土石流及び地滑り":"◎","高潮":"◎","地震":"◎","津波":"◎","大規模な火事":"◎","内水氾濫":"◎","火山現象":"","指定避難所との重複":"","備考":""}},
{"type":"Feature","geometry":{"type":"Point","coordinates":[134.0641121000,34.3031637600]},"properties":{"Name":"長池中央公園","Jusho":"香川県高松市林町１７４５","洪水":"◎","がけ崩れ、土石流及び地滑り":"◎","高潮":"◎","地震":"◎","津波":"◎","大規模な火事":"◎","内水氾濫":"◎","火山現象":"","指定避難所との重複":"","備考":""}},
{"type":"Feature","geometry":{"type":"Point","coordinates":[134.0559367000,34.2801174800]},"properties":{"Name":"彦作池公園","Jusho":"香川県高松市多肥上町２０４９-１","洪水":"◎","がけ崩れ、土石流及び地滑り":"◎","高潮":"◎","地震":"◎","津波":"◎","大規模な火事":"","内水氾濫":"◎","火山現象":"","指定避難所との重複":"","備考":""}},
{"type":"Feature","geometry":{"type":"Point","coordinates":[134.0067987000,34.2417402600]},"properties":{"Name":"月見ヶ原公園","Jusho":"香川県高松市香南町横井７９６-１","洪水":"◎","がけ崩れ、土石流及び地滑り":"◎","高潮":"◎","地震":"◎","津波":"◎","大規模な火事":"◎","内水氾濫":"◎","火山現象":"","指定避難所との重複":"","備考":""}},
{"type":"Feature","geometry":{"type":"Point","coordinates":[134.1472675000,34.3319970900]},"properties":{"Name":"牟礼中央公園","Jusho":"香川県高松市牟礼町原１０１９-８","洪水":"◎","がけ崩れ、土石流及び地滑り":"◎","高潮":"◎","地震":"◎","津波":"◎","大規模な火事":"◎","内水氾濫":"◎","火山現象":"","指定避難所との重複":"","備考":""}},
{"type":"Feature","geometry":{"type":"Point","coordinates":[134.1332745000,34.3468760300]},"properties":{"Name":"御山公園","Jusho":"香川県高松市牟礼町牟礼１３５５-１","洪水":"◎","がけ崩れ、土石流及び地滑り":"◎","高潮":"◎","地震":"◎","津波":"◎","大規模な火事":"◎","内水氾濫":"◎","火山現象":"","指定避難所との重複":"","備考":""}},
{"type":"Feature","geometry":{"type":"Point","coordinates":[133.9519143000,34.3079975700]},"properties":{"Name":"如意輪寺公園","Jusho":"香川県高松市国分寺町国分２５３０-２","洪水":"◎","がけ崩れ、土石流及び地滑り":"◎","高潮":"◎","地震":"◎","津波":"◎","大規模な火事":"","内水氾濫":"◎","火山現象":"","指定避難所との重複":"","備考":""}},
{"type":"Feature","geometry":{"type":"Point","coordinates":[133.9533627000,34.2735651900]},"properties":{"Name":"橘ノ丘公園","Jusho":"香川県高松市国分寺町新名２０６９-１","洪水":"◎","がけ崩れ、土石流及び地滑り":"","高潮":"◎","地震":"◎","津波":"◎","大規模な火事":"◎","内水氾濫":"◎","火山現象":"","指定避難所との重複":"","備考":""}},
{"type":"Feature","geometry":{"type":"Point","coordinates":[133.7925312000,34.2876566000]},"properties":{"Name":"城乾小学校","Jusho":"香川県丸亀市中府町五丁目15-1","洪水":"◎","がけ崩れ、土石流及び地滑り":"◎","高潮":"◎","地震":"◎","津波":"◎","大規模な火事":"◎","内水氾濫":"◎","火山現象":"","指定避難所との重複":"◎","備考":""}},
{"type":"Feature","geometry":{"type":"Point","coordinates":[133.7928222000,34.2882794000]},"properties":{"Name":"西幼稚園","Jusho":"香川県丸亀市南条町34-2","洪水":"◎","がけ崩れ、土石流及び地滑り":"◎","高潮":"◎","地震":"◎","津波":"◎","大規模な火事":"","内水氾濫":"◎","火山現象":"","指定避難所との重複":"◎","備考":""}},
{"type":"Feature","geometry":{"type":"Point","coordinates":[133.7931266000,34.2876202000]},"properties":{"Name":"城乾コミュニティセンター","Jusho":"香川県丸亀市南条町34-28","洪水":"◎","がけ崩れ、土石流及び地滑り":"◎","高潮":"◎","地震":"◎","津波":"◎","大規模な火事":"","内水氾濫":"◎","火山現象":"","指定避難所との重複":"◎","備考":""}},
{"type":"Feature","geometry":{"type":"Point","coordinates":[133.7859115000,34.2800740100]},"properties":{"Name":"城坤小学校","Jusho":"香川県丸亀市今津町348","洪水":"◎","がけ崩れ、土石流及び地滑り":"◎","高潮":"◎","地震":"◎","津波":"◎","大規模な火事":"◎","内水氾濫":"◎","火山現象":"","指定避難所との重複":"◎","備考":""}},
{"type":"Feature","geometry":{"type":"Point","coordinates":[133.7831139000,34.2771262000]},"properties":{"Name":"城坤幼稚園","Jusho":"香川県丸亀市今津町278","洪水":"◎","がけ崩れ、土石流及び地滑り":"◎","高潮":"◎","地震":"◎","津波":"◎","大規模な火事":"◎","内水氾濫":"◎","火山現象":"","指定避難所との重複":"◎","備考":""}},
{"type":"Feature","geometry":{"type":"Point","coordinates":[133.7815797000,34.2847014000]},"properties":{"Name":"しおや保育所","Jusho":"香川県丸亀市前塩屋町二丁目1-17","洪水":"◎","がけ崩れ、土石流及び地滑り":"◎","高潮":"◎","地震":"◎","津波":"◎","大規模な火事":"◎","内水氾濫":"◎","火山現象":"","指定避難所との重複":"◎","備考":""}},
{"type":"Feature","geometry":{"type":"Point","coordinates":[133.7825400000,34.2899048000]},"properties":{"Name":"旧塩屋北保育所（２階一部）","Jusho":"香川県丸亀市塩屋町五丁目6-1","洪水":"","がけ崩れ、土石流及び地滑り":"◎","高潮":"","地震":"","津波":"","大規模な火事":"◎","内水氾濫":"","火山現象":"","指定避難所との重複":"◎","備考":""}},
{"type":"Feature","geometry":{"type":"Point","coordinates":[133.7816575000,34.2688609600]},"properties":{"Name":"金倉保育所","Jusho":"香川県丸亀市金倉町1230-1","洪水":"◎","がけ崩れ、土石流及び地滑り":"◎","高潮":"◎","地震":"◎","津波":"◎","大規模な火事":"◎","内水氾濫":"◎","火山現象":"","指定避難所との重複":"◎","備考":""}},
{"type":"Feature","geometry":{"type":"Point","coordinates":[133.7888592000,34.2632417300]},"properties":{"Name":"丸亀市総合運動公園体育館（陸上競技場）","Jusho":"香川県丸亀市新田町1-1","洪水":"◎","がけ崩れ、土石流及び地滑り":"◎","高潮":"◎","地震":"◎","津波":"◎","大規模な火事":"◎","内水氾濫":"◎","火山現象":"","指定避難所との重複":"◎","備考":""}},
{"type":"Feature","geometry":{"type":"Point","coordinates":[133.7852597000,34.2615703400]},"properties":{"Name":"県立丸亀競技場（第1～第6会議室）","Jusho":"香川県丸亀市金倉町830","洪水":"◎","がけ崩れ、土石流及び地滑り":"◎","高潮":"◎","地震":"◎","津波":"◎","大規模な火事":"◎","内水氾濫":"◎","火山現象":"","指定避難所との重複":"◎","備考":""}},
{"type":"Feature","geometry":{"type":"Point","coordinates":[133.7921423000,34.2772326200]},"properties":{"Name":"丸亀城西高校（第2体育館）","Jusho":"香川県丸亀市津森町267","洪水":"◎","がけ崩れ、土石流及び地滑り":"◎","高潮":"◎","地震":"◎","津波":"◎","大規模な火事":"◎","内水氾濫":"◎","火山現象":"","指定避難所との重複":"◎","備考":""}},
{"type":"Feature","geometry":{"type":"Point","coordinates":[133.8003659000,34.2943811200]},"properties":{"Name":"城北小学校","Jusho":"香川県丸亀市瓦町95","洪水":"◎","がけ崩れ、土石流及び地滑り":"◎","高潮":"◎","地震":"◎","津波":"◎","大規模な火事":"","内水氾濫":"◎","火山現象":"","指定避難所との重複":"◎","備考":""}},
{"type":"Feature","geometry":{"type":"Point","coordinates":[133.8020744000,34.2934128000]},"properties":{"Name":"城北幼稚園","Jusho":"香川県丸亀市土居町三丁目9-27","洪水":"","がけ崩れ、土石流及び地滑り":"◎","高潮":"","地震":"◎","津波":"","大規模な火事":"◎","内水氾濫":"","火山現象":"","指定避難所との重複":"◎","備考":""}},
{"type":"Feature","geometry":{"type":"Point","coordinates":[133.7976140000,34.2974878000]},"properties":{"Name":"平山保育所","Jusho":"香川県丸亀市北平山町二丁目12-20","洪水":"","がけ崩れ、土石流及び地滑り":"◎","高潮":"◎","地震":"◎","津波":"◎","大規模な火事":"","内水氾濫":"","火山現象":"","指定避難所との重複":"◎","備考":""}},
{"type":"Feature","geometry":{"type":"Point","coordinates":[133.8050410000,34.2917087200]},"properties":{"Name":"土居保育所","Jusho":"香川県丸亀市土居町二丁目13-3","洪水":"","がけ崩れ、土石流及び地滑り":"◎","高潮":"◎","地震":"◎","津波":"◎","大規模な火事":"◎","内水氾濫":"","火山現象":"","指定避難所との重複":"◎","備考":""}},
{"type":"Feature","geometry":{"type":"Point","coordinates":[133.8003552000,34.2961761000]},"properties":{"Name":"城北コミュニティセンター","Jusho":"香川県丸亀市御供所町一丁目5-20","洪水":"","がけ崩れ、土石流及び地滑り":"◎","高潮":"","地震":"◎","津波":"","大規模な火事":"","内水氾濫":"","火山現象":"","指定避難所との重複":"◎","備考":""}},
{"type":"Feature","geometry":{"type":"Point","coordinates":[133.8053977000,34.2993170000]},"properties":{"Name":"二軒茶屋総合センター","Jusho":"香川県丸亀市土器町東八丁目501","洪水":"","がけ崩れ、土石流及び地滑り":"◎","高潮":"◎","地震":"◎","津波":"◎","大規模な火事":"◎","内水氾濫":"","火山現象":"","指定避難所との重複":"◎","備考":""}},
{"type":"Feature","geometry":{"type":"Point","coordinates":[133.7998981275,34.2981313233]},"properties":{"Name":"東汐入川けんこう公園","Jusho":"香川県丸亀市富士見町一丁目998-1","洪水":"","がけ崩れ、土石流及び地滑り":"◎","高潮":"","地震":"◎","津波":"","大規模な火事":"◎","内水氾濫":"","火山現象":"","指定避難所との重複":"","備考":""}},
{"type":"Feature","geometry":{"type":"Point","coordinates":[133.7966806000,34.2858228100]},"properties":{"Name":"城西小学校","Jusho":"香川県丸亀市六番丁12","洪水":"◎","がけ崩れ、土石流及び地滑り":"◎","高潮":"◎","地震":"◎","津波":"◎","大規模な火事":"◎","内水氾濫":"◎","火山現象":"","指定避難所との重複":"◎","備考":""}},
{"type":"Feature","geometry":{"type":"Point","coordinates":[133.7984937000,34.2791431000]},"properties":{"Name":"城西コミュニティセンター","Jusho":"香川県丸亀市山北町722-1","洪水":"◎","がけ崩れ、土石流及び地滑り":"◎","高潮":"◎","地震":"◎","津波":"◎","大規模な火事":"◎","内水氾濫":"◎","火山現象":"","指定避難所との重複":"◎","備考":""}},
{"type":"Feature","geometry":{"type":"Point","coordinates":[133.7997919000,34.2892333900]},"properties":{"Name":"中央保育所","Jusho":"香川県丸亀市大手町二丁目1-41","洪水":"◎","がけ崩れ、土石流及び地滑り":"◎","高潮":"◎","地震":"◎","津波":"◎","大規模な火事":"","内水氾濫":"◎","火山現象":"","指定避難所との重複":"◎","備考":""}},
{"type":"Feature","geometry":{"type":"Point","coordinates":[133.7947547000,34.2840721000]},"properties":{"Name":"西中学校","Jusho":"香川県丸亀市中府町三丁目11-1","洪水":"◎","がけ崩れ、土石流及び地滑り":"◎","高潮":"◎","地震":"◎","津波":"◎","大規模な火事":"◎","内水氾濫":"◎","火山現象":"","指定避難所との重複":"◎","備考":""}},
{"type":"Feature","geometry":{"type":"Point","coordinates":[133.7991322000,34.2829728200]},"properties":{"Name":"香川県立丸亀高等学校（第2体育館）","Jusho":"香川県丸亀市六番丁1番地","洪水":"◎","がけ崩れ、土石流及び地滑り":"◎","高潮":"◎","地震":"◎","津波":"◎","大規模な火事":"◎","内水氾濫":"◎","火山現象":"","指定避難所との重複":"◎","備考":""}},
{"type":"Feature","geometry":{"type":"Point","coordinates":[133.7976891000,34.2823567600]},"properties":{"Name":"丸亀武道館","Jusho":"香川県丸亀市城南町63-5","洪水":"◎","がけ崩れ、土石流及び地滑り":"◎","高潮":"◎","地震":"◎","津波":"◎","大規模な火事":"◎","内水氾濫":"◎","火山現象":"","指定避難所との重複":"◎","備考":""}},
{"type":"Feature","geometry":{"type":"Point","coordinates":[133.8005376000,34.2902772000]},"properties":{"Name":"東中学校","Jusho":"香川県丸亀市大手町一丁目5-1","洪水":"◎","がけ崩れ、土石流及び地滑り":"◎","高潮":"◎","地震":"◎","津波":"◎","大規模な火事":"","内水氾濫":"◎","火山現象":"","指定避難所との重複":"◎","備考":""}},
{"type":"Feature","geometry":{"type":"Point","coordinates":[133.7984508000,34.2687923000]},"properties":{"Name":"城南小学校","Jusho":"香川県丸亀市田村町973","洪水":"◎","がけ崩れ、土石流及び地滑り":"◎","高潮":"◎","地震":"◎","津波":"◎","大規模な火事":"◎","内水氾濫":"◎","火山現象":"","指定避難所との重複":"◎","備考":""}},
{"type":"Feature","geometry":{"type":"Point","coordinates":[133.7988532000,34.2703217000]},"properties":{"Name":"城南保育所","Jusho":"香川県丸亀市山北町261","洪水":"◎","がけ崩れ、土石流及び地滑り":"◎","高潮":"◎","地震":"◎","津波":"◎","大規模な火事":"◎","内水氾濫":"◎","火山現象":"","指定避難所との重複":"◎","備考":""}},
{"type":"Feature","geometry":{"type":"Point","coordinates":[133.7903345000,34.2583426000]},"properties":{"Name":"誠心保育園はらだ","Jusho":"香川県丸亀市原田町2046","洪水":"◎","がけ崩れ、土石流及び地滑り":"◎","高潮":"◎","地震":"◎","津波":"◎","大規模な火事":"◎","内水氾濫":"◎","火山現象":"","指定避難所との重複":"◎","備考":""}},
{"type":"Feature","geometry":{"type":"Point","coordinates":[133.8004625000,34.2722989000]},"properties":{"Name":"城南コミュニティセンター","Jusho":"香川県丸亀市山北町200-1","洪水":"◎","がけ崩れ、土石流及び地滑り":"◎","高潮":"◎","地震":"◎","津波":"◎","大規模な火事":"◎","内水氾濫":"◎","火山現象":"","指定避難所との重複":"◎","備考":""}},
{"type":"Feature","geometry":{"type":"Point","coordinates":[133.8127255000,34.2856721600]},"properties":{"Name":"城東小学校","Jusho":"香川県丸亀市土器町西五丁目113","洪水":"◎","がけ崩れ、土石流及び地滑り":"◎","高潮":"◎","地震":"◎","津波":"◎","大規模な火事":"◎","内水氾濫":"◎","火山現象":"","指定避難所との重複":"◎","備考":""}},
{"type":"Feature","geometry":{"type":"Point","coordinates":[133.8133800000,34.2818027000]},"properties":{"Name":"城東幼稚園","Jusho":"香川県丸亀市土器町西四丁目668","洪水":"◎","がけ崩れ、土石流及び地滑り":"◎","高潮":"◎","地震":"◎","津波":"◎","大規模な火事":"◎","内水氾濫":"◎","火山現象":"","指定避難所との重複":"◎","備考":""}},
{"type":"Feature","geometry":{"type":"Point","coordinates":[133.8188410000,34.2953030000]},"properties":{"Name":"青ノ山保育所","Jusho":"香川県丸亀市土器町東四丁目303","洪水":"◎","がけ崩れ、土石流及び地滑り":"","高潮":"◎","地震":"◎","津波":"◎","大規模な火事":"◎","内水氾濫":"◎","火山現象":"","指定避難所との重複":"◎","備考":""}},
{"type":"Feature","geometry":{"type":"Point","coordinates":[133.8114917000,34.2914250900]},"properties":{"Name":"土器コミュニティセンター","Jusho":"香川県丸亀市土器町東七丁目160","洪水":"◎","がけ崩れ、土石流及び地滑り":"◎","高潮":"◎","地震":"◎","津波":"◎","大規模な火事":"◎","内水氾濫":"◎","火山現象":"","指定避難所との重複":"◎","備考":""}},
{"type":"Feature","geometry":{"type":"Point","coordinates":[133.8044000000,34.3088454000]},"properties":{"Name":"クリントピア丸亀","Jusho":"香川県丸亀市土器町北一丁目72-2","洪水":"◎","がけ崩れ、土石流及び地滑り":"◎","高潮":"◎","地震":"◎","津波":"◎","大規模な火事":"◎","内水氾濫":"◎","火山現象":"","指定避難所との重複":"◎","備考":""}},
{"type":"Feature","geometry":{"type":"Point","coordinates":[133.8284540000,34.2566844000]},"properties":{"Name":"城辰小学校","Jusho":"香川県丸亀市川西町北151","洪水":"◎","がけ崩れ、土石流及び地滑り":"◎","高潮":"◎","地震":"◎","津波":"◎","大規模な火事":"◎","内水氾濫":"◎","火山現象":"","指定避難所との重複":"◎","備考":""}},
{"type":"Feature","geometry":{"type":"Point","coordinates":[133.8291568000,34.2571544000]},"properties":{"Name":"城辰幼稚園","Jusho":"香川県丸亀市川西町南161","洪水":"◎","がけ崩れ、土石流及び地滑り":"◎","高潮":"◎","地震":"◎","津波":"◎","大規模な火事":"◎","内水氾濫":"◎","火山現象":"","指定避難所との重複":"◎","備考":""}},
{"type":"Feature","geometry":{"type":"Point","coordinates":[133.8303209000,34.2459051100]},"properties":{"Name":"城辰保育所","Jusho":"香川県丸亀市川西町南746-1","洪水":"","がけ崩れ、土石流及び地滑り":"◎","高潮":"◎","地震":"◎","津波":"◎","大規模な火事":"◎","内水氾濫":"","火山現象":"","指定避難所との重複":"◎","備考":""}},
{"type":"Feature","geometry":{"type":"Point","coordinates":[133.8295054000,34.2529422000]},"properties":{"Name":"川西コミュニティセンター","Jusho":"香川県丸亀市川西町南428-1","洪水":"","がけ崩れ、土石流及び地滑り":"◎","高潮":"◎","地震":"◎","津波":"◎","大規模な火事":"◎","内水氾濫":"","火山現象":"","指定避難所との重複":"◎","備考":""}},
{"type":"Feature","geometry":{"type":"Point","coordinates":[133.8290871000,34.2474172000]},"properties":{"Name":"金山文化センター（集会所）","Jusho":"香川県丸亀市川西町南679-10","洪水":"","がけ崩れ、土石流及び地滑り":"◎","高潮":"◎","地震":"","津波":"◎","大規模な火事":"◎","内水氾濫":"","火山現象":"","指定避難所との重複":"◎","備考":""}},
{"type":"Feature","geometry":{"type":"Point","coordinates":[133.8344085000,34.2524899000]},"properties":{"Name":"土器川体育センター","Jusho":"香川県丸亀市川西町南307","洪水":"◎","がけ崩れ、土石流及び地滑り":"◎","高潮":"◎","地震":"◎","津波":"◎","大規模な火事":"◎","内水氾濫":"◎","火山現象":"","指定避難所との重複":"◎","備考":""}},
{"type":"Feature","geometry":{"type":"Point","coordinates":[133.8146836000,34.2514745000]},"properties":{"Name":"郡家小学校","Jusho":"香川県丸亀市郡家町790-1","洪水":"◎","がけ崩れ、土石流及び地滑り":"◎","高潮":"◎","地震":"◎","津波":"◎","大規模な火事":"◎","内水氾濫":"◎","火山現象":"","指定避難所との重複":"◎","備考":""}},
{"type":"Feature","geometry":{"type":"Point","coordinates":[133.8140506000,34.2521440000]},"properties":{"Name":"郡家幼稚園","Jusho":"香川県丸亀市郡家町787","洪水":"◎","がけ崩れ、土石流及び地滑り":"◎","高潮":"◎","地震":"◎","津波":"◎","大規模な火事":"◎","内水氾濫":"◎","火山現象":"","指定避難所との重複":"◎","備考":""}},
{"type":"Feature","geometry":{"type":"Point","coordinates":[133.8148606000,34.2504857000]},"properties":{"Name":"郡家コミュニティセンター","Jusho":"香川県丸亀市郡家町814-1","洪水":"◎","がけ崩れ、土石流及び地滑り":"◎","高潮":"◎","地震":"◎","津波":"◎","大規模な火事":"◎","内水氾濫":"◎","火山現象":"","指定避難所との重複":"◎","備考":""}},
{"type":"Feature","geometry":{"type":"Point","coordinates":[133.8135141000,34.2670322700]},"properties":{"Name":"南中学校","Jusho":"香川県丸亀市郡家町3690","洪水":"◎","がけ崩れ、土石流及び地滑り":"◎","高潮":"◎","地震":"◎","津波":"◎","大規模な火事":"◎","内水氾濫":"◎","火山現象":"","指定避難所との重複":"◎","備考":""}},
{"type":"Feature","geometry":{"type":"Point","coordinates":[133.8103115000,34.2625767400]},"properties":{"Name":"四国職業能力開発大学校（体育館)","Jusho":"香川県丸亀市郡家町3202","洪水":"◎","がけ崩れ、土石流及び地滑り":"◎","高潮":"◎","地震":"","津波":"◎","大規模な火事":"◎","内水氾濫":"◎","火山現象":"","指定避難所との重複":"◎","備考":""}},
{"type":"Feature","geometry":{"type":"Point","coordinates":[133.8332498000,34.2804463100]},"properties":{"Name":"飯野小学校","Jusho":"香川県丸亀市飯野町西分113","洪水":"◎","がけ崩れ、土石流及び地滑り":"◎","高潮":"◎","地震":"◎","津波":"◎","大規模な火事":"◎","内水氾濫":"◎","火山現象":"","指定避難所との重複":"◎","備考":""}},
{"type":"Feature","geometry":{"type":"Point","coordinates":[133.8334966000,34.2786644000]},"properties":{"Name":"飯野こども園","Jusho":"香川県丸亀市飯野町東分2576","洪水":"◎","がけ崩れ、土石流及び地滑り":"◎","高潮":"◎","地震":"◎","津波":"◎","大規模な火事":"◎","内水氾濫":"◎","火山現象":"","指定避難所との重複":"◎","備考":""}},
{"type":"Feature","geometry":{"type":"Point","coordinates":[133.8335824000,34.2815722000]},"properties":{"Name":"飯野コミュニティセンター","Jusho":"香川県丸亀市飯野町東分2334-2","洪水":"◎","がけ崩れ、土石流及び地滑り":"◎","高潮":"◎","地震":"","津波":"◎","大規模な火事":"◎","内水氾濫":"◎","火山現象":"","指定避難所との重複":"◎","備考":""}},
{"type":"Feature","geometry":{"type":"Point","coordinates":[133.8250101000,34.2921873600]},"properties":{"Name":"県立香川丸亀養護学校（体育館）","Jusho":"香川県丸亀市飯野町東分592-1","洪水":"◎","がけ崩れ、土石流及び地滑り":"◎","高潮":"◎","地震":"◎","津波":"◎","大規模な火事":"◎","内水氾濫":"◎","火山現象":"","指定避難所との重複":"◎","備考":""}},
{"type":"Feature","geometry":{"type":"Point","coordinates":[133.8276494000,34.2323702000]},"properties":{"Name":"垂水小学校","Jusho":"香川県丸亀市垂水町1408","洪水":"◎","がけ崩れ、土石流及び地滑り":"◎","高潮":"◎","地震":"◎","津波":"◎","大規模な火事":"◎","内水氾濫":"◎","火山現象":"","指定避難所との重複":"◎","備考":""}},
{"type":"Feature","geometry":{"type":"Point","coordinates":[133.8244414000,34.2311594000]},"properties":{"Name":"垂水こども園","Jusho":"香川県丸亀市垂水町1709","洪水":"◎","がけ崩れ、土石流及び地滑り":"◎","高潮":"◎","地震":"◎","津波":"◎","大規模な火事":"◎","内水氾濫":"◎","火山現象":"","指定避難所との重複":"◎","備考":""}},
{"type":"Feature","geometry":{"type":"Point","coordinates":[133.8284647000,34.2336298000]},"properties":{"Name":"垂水コミュニティセンター","Jusho":"香川県丸亀市垂水町1344-1","洪水":"◎","がけ崩れ、土石流及び地滑り":"◎","高潮":"◎","地震":"","津波":"◎","大規模な火事":"◎","内水氾濫":"◎","火山現象":"","指定避難所との重複":"◎","備考":""}},
{"type":"Feature","geometry":{"type":"Point","coordinates":[133.7831032000,34.3875309000]},"properties":{"Name":"本島小学校","Jusho":"香川県丸亀市本島町泊18","洪水":"◎","がけ崩れ、土石流及び地滑り":"◎","高潮":"◎","地震":"◎","津波":"◎","大規模な火事":"◎","内水氾濫":"◎","火山現象":"","指定避難所との重複":"◎","備考":""}},
{"type":"Feature","geometry":{"type":"Point","coordinates":[133.7831783000,34.3894167000]},"properties":{"Name":"本島幼稚園","Jusho":"香川県丸亀市本島町泊34","洪水":"◎","がけ崩れ、土石流及び地滑り":"","高潮":"◎","地震":"◎","津波":"◎","大規模な火事":"◎","内水氾濫":"◎","火山現象":"","指定避難所との重複":"◎","備考":""}},
{"type":"Feature","geometry":{"type":"Point","coordinates":[133.7800991000,34.3833296200]},"properties":{"Name":"本島コミュニティセンター","Jusho":"香川県丸亀市本島町泊506-1","洪水":"◎","がけ崩れ、土石流及び地滑り":"","高潮":"","地震":"","津波":"","大規模な火事":"◎","内水氾濫":"◎","火山現象":"","指定避難所との重複":"◎","備考":""}},
{"type":"Feature","geometry":{"type":"Point","coordinates":[133.7569732000,34.3868314000]},"properties":{"Name":"西地区集会場","Jusho":"香川県丸亀市本島町尻浜83","洪水":"◎","がけ崩れ、土石流及び地滑り":"","高潮":"◎","地震":"◎","津波":"◎","大規模な火事":"◎","内水氾濫":"◎","火山現象":"","指定避難所との重複":"◎","備考":""}},
{"type":"Feature","geometry":{"type":"Point","coordinates":[133.7852625000,34.3892595000]},"properties":{"Name":"山根文化センター","Jusho":"香川県丸亀市本島町笠島100-2","洪水":"◎","がけ崩れ、土石流及び地滑り":"","高潮":"◎","地震":"","津波":"◎","大規模な火事":"◎","内水氾濫":"◎","火山現象":"","指定避難所との重複":"◎","備考":""}},
{"type":"Feature","geometry":{"type":"Point","coordinates":[133.7860590000,34.3889962000]},"properties":{"Name":"山根児童館","Jusho":"香川県丸亀市本島町笠島84-3","洪水":"◎","がけ崩れ、土石流及び地滑り":"◎","高潮":"◎","地震":"◎","津波":"◎","大規模な火事":"◎","内水氾濫":"◎","火山現象":"","指定避難所との重複":"◎","備考":""}},
{"type":"Feature","geometry":{"type":"Point","coordinates":[133.7809092000,34.3855786000]},"properties":{"Name":"本島中学校","Jusho":"香川県丸亀市本島町泊410","洪水":"◎","がけ崩れ、土石流及び地滑り":"◎","高潮":"◎","地震":"◎","津波":"◎","大規模な火事":"◎","内水氾濫":"◎","火山現象":"","指定避難所との重複":"◎","備考":""}},
{"type":"Feature","geometry":{"type":"Point","coordinates":[133.7798685000,34.3617357500]},"properties":{"Name":"牛島集会場","Jusho":"香川県丸亀市牛島町385","洪水":"◎","がけ崩れ、土石流及び地滑り":"","高潮":"◎","地震":"","津波":"◎","大規模な火事":"◎","内水氾濫":"◎","火山現象":"","指定避難所との重複":"◎","備考":""}},
{"type":"Feature","geometry":{"type":"Point","coordinates":[133.7144065000,34.3651852500]},"properties":{"Name":"広島小学校","Jusho":"香川県丸亀市広島町江の浦439","洪水":"◎","がけ崩れ、土石流及び地滑り":"◎","高潮":"◎","地震":"◎","津波":"◎","大規模な火事":"◎","内水氾濫":"◎","火山現象":"","指定避難所との重複":"◎","備考":""}},
{"type":"Feature","geometry":{"type":"Point","coordinates":[133.7186122000,34.3631084800]},"properties":{"Name":"旧広島コミュニティセンター","Jusho":"香川県丸亀市広島町江の浦2-15","洪水":"◎","がけ崩れ、土石流及び地滑り":"◎","高潮":"","地震":"","津波":"","大規模な火事":"◎","内水氾濫":"◎","火山現象":"","指定避難所との重複":"◎","備考":""}},
{"type":"Feature","geometry":{"type":"Point","coordinates":[133.7154954000,34.3651941500]},"properties":{"Name":"広島コミュニティセンター","Jusho":"香川県丸亀市広島町江の浦373-3","洪水":"◎","がけ崩れ、土石流及び地滑り":"◎","高潮":"◎","地震":"◎","津波":"◎","大規模な火事":"◎","内水氾濫":"◎","火山現象":"","指定避難所との重複":"◎","備考":""}},
{"type":"Feature","geometry":{"type":"Point","coordinates":[133.6907816000,34.3695778200]},"properties":{"Name":"へき地集会室","Jusho":"香川県丸亀市広島町青木549","洪水":"◎","がけ崩れ、土石流及び地滑り":"","高潮":"◎","地震":"◎","津波":"◎","大規模な火事":"◎","内水氾濫":"◎","火山現象":"","指定避難所との重複":"◎","備考":""}},
{"type":"Feature","geometry":{"type":"Point","coordinates":[133.6678595000,34.3976635000]},"properties":{"Name":"手島自然教育センター","Jusho":"香川県丸亀市手島町1273","洪水":"◎","がけ崩れ、土石流及び地滑り":"◎","高潮":"◎","地震":"","津波":"◎","大規模な火事":"◎","内水氾濫":"◎","火山現象":"","指定避難所との重複":"◎","備考":""}},
{"type":"Feature","geometry":{"type":"Point","coordinates":[133.6706167000,34.3979511600]},"properties":{"Name":"手島集会場","Jusho":"香川県丸亀市手島町224","洪水":"◎","がけ崩れ、土石流及び地滑り":"","高潮":"◎","地震":"","津波":"◎","大規模な火事":"◎","内水氾濫":"◎","火山現象":"","指定避難所との重複":"◎","備考":""}},
{"type":"Feature","geometry":{"type":"Point","coordinates":[133.6514497000,34.3749664000]},"properties":{"Name":"小手島小中学校","Jusho":"香川県丸亀市広島町小手島2782","洪水":"◎","がけ崩れ、土石流及び地滑り":"◎","高潮":"◎","地震":"◎","津波":"◎","大規模な火事":"◎","内水氾濫":"◎","火山現象":"","指定避難所との重複":"◎","備考":""}},
{"type":"Feature","geometry":{"type":"Point","coordinates":[133.8584411000,34.2271987000]},"properties":{"Name":"岡田小学校","Jusho":"香川県丸亀市綾歌町岡田下217","洪水":"◎","がけ崩れ、土石流及び地滑り":"◎","高潮":"◎","地震":"◎","津波":"◎","大規模な火事":"◎","内水氾濫":"◎","火山現象":"","指定避難所との重複":"◎","備考":""}},
{"type":"Feature","geometry":{"type":"Point","coordinates":[133.8693631000,34.2357187000]},"properties":{"Name":"あやうたこども園","Jusho":"香川県丸亀市綾歌町岡田東1150","洪水":"◎","がけ崩れ、土石流及び地滑り":"◎","高潮":"◎","地震":"◎","津波":"◎","大規模な火事":"◎","内水氾濫":"◎","火山現象":"","指定避難所との重複":"◎","備考":""}},
{"type":"Feature","geometry":{"type":"Point","coordinates":[133.8591707000,34.2276423000]},"properties":{"Name":"岡田保育所","Jusho":"香川県丸亀市綾歌町岡田下87-1","洪水":"◎","がけ崩れ、土石流及び地滑り":"◎","高潮":"◎","地震":"◎","津波":"◎","大規模な火事":"◎","内水氾濫":"◎","火山現象":"","指定避難所との重複":"◎","備考":""}},
{"type":"Feature","geometry":{"type":"Point","coordinates":[133.8594925000,34.2245863000]},"properties":{"Name":"岡田コミュニティセンター","Jusho":"香川県丸亀市綾歌町岡田下516-1","洪水":"◎","がけ崩れ、土石流及び地滑り":"◎","高潮":"◎","地震":"◎","津波":"◎","大規模な火事":"◎","内水氾濫":"◎","火山現象":"","指定避難所との重複":"◎","備考":""}},
{"type":"Feature","geometry":{"type":"Point","coordinates":[133.8815188000,34.2391069000]},"properties":{"Name":"栗熊小学校","Jusho":"香川県丸亀市綾歌町栗熊東323","洪水":"◎","がけ崩れ、土石流及び地滑り":"◎","高潮":"◎","地震":"◎","津波":"◎","大規模な火事":"◎","内水氾濫":"◎","火山現象":"","指定避難所との重複":"◎","備考":""}},
{"type":"Feature","geometry":{"type":"Point","coordinates":[133.8838255000,34.2374571000]},"properties":{"Name":"栗熊保育所","Jusho":"香川県丸亀市綾歌町栗熊東271","洪水":"◎","がけ崩れ、土石流及び地滑り":"◎","高潮":"◎","地震":"◎","津波":"◎","大規模な火事":"◎","内水氾濫":"◎","火山現象":"","指定避難所との重複":"◎","備考":""}},
{"type":"Feature","geometry":{"type":"Point","coordinates":[133.8786382000,34.2315098200]},"properties":{"Name":"綾歌総合文化会館","Jusho":"香川県丸亀市綾歌町栗熊西1680","洪水":"◎","がけ崩れ、土石流及び地滑り":"◎","高潮":"◎","地震":"◎","津波":"◎","大規模な火事":"◎","内水氾濫":"◎","火山現象":"","指定避難所との重複":"◎","備考":""}},
{"type":"Feature","geometry":{"type":"Point","coordinates":[133.8823128000,34.2262052000]},"properties":{"Name":"綾歌保健福祉センター","Jusho":"香川県丸亀市綾歌町栗熊西782","洪水":"◎","がけ崩れ、土石流及び地滑り":"◎","高潮":"◎","地震":"◎","津波":"◎","大規模な火事":"◎","内水氾濫":"◎","火山現象":"","指定避難所との重複":"◎","備考":""}},
{"type":"Feature","geometry":{"type":"Point","coordinates":[133.8830638000,34.2369604200]},"properties":{"Name":"綾歌中学校","Jusho":"香川県丸亀市綾歌町栗熊東431","洪水":"◎","がけ崩れ、土石流及び地滑り":"◎","高潮":"◎","地震":"◎","津波":"◎","大規模な火事":"◎","内水氾濫":"◎","火山現象":"","指定避難所との重複":"◎","備考":""}},
{"type":"Feature","geometry":{"type":"Point","coordinates":[133.8794053000,34.2494037000]},"properties":{"Name":"富熊小学校","Jusho":"香川県丸亀市綾歌町富熊1227","洪水":"◎","がけ崩れ、土石流及び地滑り":"◎","高潮":"◎","地震":"◎","津波":"◎","大規模な火事":"◎","内水氾濫":"◎","火山現象":"","指定避難所との重複":"◎","備考":""}},
{"type":"Feature","geometry":{"type":"Point","coordinates":[133.8796037000,34.2485612000]},"properties":{"Name":"富熊保育所","Jusho":"香川県丸亀市綾歌町富熊1226","洪水":"◎","がけ崩れ、土石流及び地滑り":"◎","高潮":"◎","地震":"◎","津波":"◎","大規模な火事":"◎","内水氾濫":"◎","火山現象":"","指定避難所との重複":"◎","備考":""}},
{"type":"Feature","geometry":{"type":"Point","coordinates":[133.8809824000,34.2467874700]},"properties":{"Name":"富熊コミュニティセンター","Jusho":"香川県丸亀市綾歌町富熊1192-1","洪水":"◎","がけ崩れ、土石流及び地滑り":"◎","高潮":"◎","地震":"◎","津波":"◎","大規模な火事":"◎","内水氾濫":"◎","火山現象":"","指定避難所との重複":"◎","備考":""}},
{"type":"Feature","geometry":{"type":"Point","coordinates":[133.8841930000,34.2553786000]},"properties":{"Name":"富熊コミュニティセンター分館","Jusho":"香川県丸亀市綾歌町富熊1409-31","洪水":"◎","がけ崩れ、土石流及び地滑り":"◎","高潮":"◎","地震":"◎","津波":"◎","大規模な火事":"◎","内水氾濫":"◎","火山現象":"","指定避難所との重複":"◎","備考":""}},
{"type":"Feature","geometry":{"type":"Point","coordinates":[133.8547933000,34.2475191500]},"properties":{"Name":"飯山南小学校","Jusho":"香川県丸亀市飯山町上法軍寺1206","洪水":"◎","がけ崩れ、土石流及び地滑り":"◎","高潮":"◎","地震":"◎","津波":"◎","大規模な火事":"◎","内水氾濫":"◎","火山現象":"","指定避難所との重複":"◎","備考":""}},
{"type":"Feature","geometry":{"type":"Point","coordinates":[133.8568532000,34.2478606000]},"properties":{"Name":"飯山南保育所","Jusho":"香川県丸亀市飯山町上法軍寺1036","洪水":"◎","がけ崩れ、土石流及び地滑り":"◎","高潮":"◎","地震":"◎","津波":"◎","大規模な火事":"◎","内水氾濫":"◎","火山現象":"","指定避難所との重複":"◎","備考":""}},
{"type":"Feature","geometry":{"type":"Point","coordinates":[133.8584304000,34.2588569000]},"properties":{"Name":"飯山総合保健福祉 センター","Jusho":"香川県丸亀市飯山町下法軍寺581-1","洪水":"◎","がけ崩れ、土石流及び地滑り":"◎","高潮":"◎","地震":"◎","津波":"◎","大規模な火事":"◎","内水氾濫":"◎","火山現象":"","指定避難所との重複":"◎","備考":""}},
{"type":"Feature","geometry":{"type":"Point","coordinates":[133.8443220000,34.2477542000]},"properties":{"Name":"東小川児童センター","Jusho":"香川県丸亀市飯山町東小川1260","洪水":"","がけ崩れ、土石流及び地滑り":"◎","高潮":"◎","地震":"◎","津波":"◎","大規模な火事":"◎","内水氾濫":"","火山現象":"","指定避難所との重複":"◎","備考":""}},
{"type":"Feature","geometry":{"type":"Point","coordinates":[133.8560969000,34.2479316000]},"properties":{"Name":"飯山南コミュニティセンター","Jusho":"香川県丸亀市飯山町上法軍寺1067-5","洪水":"◎","がけ崩れ、土石流及び地滑り":"◎","高潮":"◎","地震":"◎","津波":"◎","大規模な火事":"◎","内水氾濫":"◎","火山現象":"","指定避難所との重複":"◎","備考":""}},
{"type":"Feature","geometry":{"type":"Point","coordinates":[133.8546056000,34.2576110800]},"properties":{"Name":"飯山高校（新体育館）","Jusho":"香川県丸亀市飯山町下法軍寺664-1","洪水":"◎","がけ崩れ、土石流及び地滑り":"◎","高潮":"◎","地震":"◎","津波":"◎","大規模な火事":"◎","内水氾濫":"◎","火山現象":"","指定避難所との重複":"◎","備考":""}},
{"type":"Feature","geometry":{"type":"Point","coordinates":[133.8579262000,34.2650239700]},"properties":{"Name":"飯山北小学校","Jusho":"香川県丸亀市飯山町川原1874","洪水":"◎","がけ崩れ、土石流及び地滑り":"◎","高潮":"◎","地震":"◎","津波":"◎","大規模な火事":"◎","内水氾濫":"◎","火山現象":"","指定避難所との重複":"◎","備考":""}},
{"type":"Feature","geometry":{"type":"Point","coordinates":[133.8581353000,34.2679987700]},"properties":{"Name":"飯山北第一保育所","Jusho":"香川県丸亀市飯山町川原1009","洪水":"◎","がけ崩れ、土石流及び地滑り":"◎","高潮":"◎","地震":"◎","津波":"◎","大規模な火事":"◎","内水氾濫":"◎","火山現象":"","指定避難所との重複":"◎","備考":""}},
{"type":"Feature","geometry":{"type":"Point","coordinates":[133.8408458000,34.2624946700]},"properties":{"Name":"飯山総合学習センター","Jusho":"香川県丸亀市飯山町西坂元547-1","洪水":"◎","がけ崩れ、土石流及び地滑り":"◎","高潮":"◎","地震":"◎","津波":"◎","大規模な火事":"◎","内水氾濫":"◎","火山現象":"","指定避難所との重複":"◎","備考":""}},
{"type":"Feature","geometry":{"type":"Point","coordinates":[133.8706827000,34.2682514600]},"properties":{"Name":"飯山総合運動公園","Jusho":"香川県丸亀市飯山町東坂元2713-1","洪水":"◎","がけ崩れ、土石流及び地滑り":"◎","高潮":"◎","地震":"◎","津波":"◎","大規模な火事":"◎","内水氾濫":"◎","火山現象":"","指定避難所との重複":"◎","備考":""}},
{"type":"Feature","geometry":{"type":"Point","coordinates":[133.8610053000,34.2641639000]},"properties":{"Name":"飯山北コミュニティセンター","Jusho":"香川県丸亀市飯山町川原1112-5","洪水":"◎","がけ崩れ、土石流及び地滑り":"◎","高潮":"◎","地震":"","津波":"◎","大規模な火事":"◎","内水氾濫":"◎","火山現象":"","指定避難所との重複":"◎","備考":""}},
{"type":"Feature","geometry":{"type":"Point","coordinates":[133.8614505000,34.2639466300]},"properties":{"Name":"飯山中学校","Jusho":"香川県丸亀市飯山町川原1110","洪水":"◎","がけ崩れ、土石流及び地滑り":"◎","高潮":"◎","地震":"◎","津波":"◎","大規模な火事":"◎","内水氾濫":"◎","火山現象":"","指定避難所との重複":"◎","備考":""}},
{"type":"Feature","geometry":{"type":"Point","coordinates":[133.8506198000,34.2569815000]},"properties":{"Name":"飯山こども園","Jusho":"香川県丸亀市飯山町真時71-1","洪水":"◎","がけ崩れ、土石流及び地滑り":"◎","高潮":"◎","地震":"◎","津波":"◎","大規模な火事":"◎","内水氾濫":"◎","火山現象":"","指定避難所との重複":"◎","備考":""}},
{"type":"Feature","geometry":{"type":"Point","coordinates":[133.8462150000,34.3136260000]},"properties":{"Name":"坂出小学校","Jusho":"香川県坂出市白金町1-3-7","洪水":"◎","がけ崩れ、土石流及び地滑り":"◎","高潮":"","地震":"◎","津波":"","大規模な火事":"◎","内水氾濫":"◎","火山現象":"","指定避難所との重複":"◎","備考":""}},
{"type":"Feature","geometry":{"type":"Point","coordinates":[133.8419820000,34.3180820000]},"properties":{"Name":"坂出工業高等学校 心技館","Jusho":"香川県坂出市御供所町1-1-2","洪水":"◎","がけ崩れ、土石流及び地滑り":"◎","高潮":"","地震":"◎","津波":"","大規模な火事":"◎","内水氾濫":"","火山現象":"","指定避難所との重複":"◎","備考":""}},
{"type":"Feature","geometry":{"type":"Point","coordinates":[133.8535650000,34.3064770000]},"properties":{"Name":"坂出商業高等学校 新体育館","Jusho":"香川県坂出市青葉町1-13","洪水":"◎","がけ崩れ、土石流及び地滑り":"◎","高潮":"◎","地震":"◎","津波":"◎","大規模な火事":"◎","内水氾濫":"◎","火山現象":"","指定避難所との重複":"◎","備考":""}},
{"type":"Feature","geometry":{"type":"Point","coordinates":[133.8532190000,34.3094300000]},"properties":{"Name":"坂出高等学校 新体育館","Jusho":"香川県坂出市文京町2-1-5","洪水":"◎","がけ崩れ、土石流及び地滑り":"◎","高潮":"","地震":"◎","津波":"","大規模な火事":"◎","内水氾濫":"","火山現象":"","指定避難所との重複":"◎","備考":""}},
{"type":"Feature","geometry":{"type":"Point","coordinates":[133.8526880000,34.3054680000]},"properties":{"Name":"南部公民館","Jusho":"香川県坂出市池園町3-46","洪水":"◎","がけ崩れ、土石流及び地滑り":"◎","高潮":"◎","地震":"◎","津波":"◎","大規模な火事":"◎","内水氾濫":"◎","火山現象":"","指定避難所との重複":"","備考":""}},
{"type":"Feature","geometry":{"type":"Point","coordinates":[133.8501420000,34.3170450000]},"properties":{"Name":"中央体育館","Jusho":"香川県坂出市寿町3-1-2","洪水":"◎","がけ崩れ、土石流及び地滑り":"◎","高潮":"","地震":"◎","津波":"","大規模な火事":"◎","内水氾濫":"","火山現象":"","指定避難所との重複":"◎","備考":""}},
{"type":"Feature","geometry":{"type":"Point","coordinates":[133.8515950000,34.3132360000]},"properties":{"Name":"市民ふれあい会館","Jusho":"香川県坂出市本町1-2-1","洪水":"◎","がけ崩れ、土石流及び地滑り":"◎","高潮":"","地震":"◎","津波":"","大規模な火事":"","内水氾濫":"◎","火山現象":"","指定避難所との重複":"◎","備考":""}},
{"type":"Feature","geometry":{"type":"Point","coordinates":[133.8577960000,34.3232630000]},"properties":{"Name":"坂出市立体育館","Jusho":"香川県坂出市入船町2-1-59","洪水":"◎","がけ崩れ、土石流及び地滑り":"◎","高潮":"","地震":"◎","津波":"","大規模な火事":"","内水氾濫":"◎","火山現象":"","指定避難所との重複":"◎","備考":""}},
{"type":"Feature","geometry":{"type":"Point","coordinates":[133.8607090000,34.3143280000]},"properties":{"Name":"東部小学校","Jusho":"香川県坂出市室町1-1-21","洪水":"◎","がけ崩れ、土石流及び地滑り":"◎","高潮":"","地震":"◎","津波":"","大規模な火事":"◎","内水氾濫":"","火山現象":"","指定避難所との重複":"◎","備考":""}},
{"type":"Feature","geometry":{"type":"Point","coordinates":[133.8649268000,34.3202184100]},"properties":{"Name":"東部中学校","Jusho":"香川県坂出市久米町2-7-46","洪水":"◎","がけ崩れ、土石流及び地滑り":"◎","高潮":"","地震":"◎","津波":"","大規模な火事":"◎","内水氾濫":"","火山現象":"","指定避難所との重複":"◎","備考":""}},
{"type":"Feature","geometry":{"type":"Point","coordinates":[133.8579550000,34.3136160000]},"properties":{"Name":"市民広場","Jusho":"香川県坂出市京町1-3793-49","洪水":"","がけ崩れ、土石流及び地滑り":"","高潮":"","地震":"◎","津波":"","大規模な火事":"◎","内水氾濫":"","火山現象":"","指定避難所との重複":"","備考":""}},
{"type":"Feature","geometry":{"type":"Point","coordinates":[133.8668470000,34.3100830000]},"properties":{"Name":"金山小学校","Jusho":"香川県坂出市谷町3-1-23","洪水":"◎","がけ崩れ、土石流及び地滑り":"◎","高潮":"◎","地震":"◎","津波":"◎","大規模な火事":"◎","内水氾濫":"◎","火山現象":"","指定避難所との重複":"◎","備考":""}},
{"type":"Feature","geometry":{"type":"Point","coordinates":[133.8908134000,34.3139065200]},"properties":{"Name":"西庄小学校","Jusho":"香川県坂出市西庄町524-5","洪水":"","がけ崩れ、土石流及び地滑り":"◎","高潮":"◎","地震":"◎","津波":"◎","大規模な火事":"◎","内水氾濫":"","火山現象":"","指定避難所との重複":"◎","備考":""}},
{"type":"Feature","geometry":{"type":"Point","coordinates":[133.8888310000,34.3172210000]},"properties":{"Name":"西庄公民館","Jusho":"香川県坂出市西庄町456-9","洪水":"","がけ崩れ、土石流及び地滑り":"◎","高潮":"◎","地震":"◎","津波":"◎","大規模な火事":"◎","内水氾濫":"","火山現象":"","指定避難所との重複":"","備考":""}},
{"type":"Feature","geometry":{"type":"Point","coordinates":[133.8981320000,34.3097430000]},"properties":{"Name":"西庄文化センター(西庄児童館含む)","Jusho":"香川県坂出市西庄町1155-1","洪水":"","がけ崩れ、土石流及び地滑り":"","高潮":"◎","地震":"◎","津波":"◎","大規模な火事":"◎","内水氾濫":"","火山現象":"","指定避難所との重複":"","備考":""}},
{"type":"Feature","geometry":{"type":"Point","coordinates":[133.8902651000,34.3283656400]},"properties":{"Name":"林田小学校","Jusho":"香川県坂出市林田町2215-1","洪水":"","がけ崩れ、土石流及び地滑り":"◎","高潮":"","地震":"◎","津波":"◎","大規模な火事":"◎","内水氾濫":"","火山現象":"","指定避難所との重複":"◎","備考":""}},
{"type":"Feature","geometry":{"type":"Point","coordinates":[133.9000185000,34.3255288200]},"properties":{"Name":"白峰中学校","Jusho":"香川県坂出市林田町181-1","洪水":"","がけ崩れ、土石流及び地滑り":"◎","高潮":"◎","地震":"◎","津波":"◎","大規模な火事":"◎","内水氾濫":"","火山現象":"","指定避難所との重複":"◎","備考":""}},
{"type":"Feature","geometry":{"type":"Point","coordinates":[133.8908280000,34.3272630000]},"properties":{"Name":"林田公民館","Jusho":"香川県坂出市林田町636-5","洪水":"","がけ崩れ、土石流及び地滑り":"◎","高潮":"","地震":"◎","津波":"◎","大規模な火事":"◎","内水氾濫":"","火山現象":"","指定避難所との重複":"","備考":""}},
{"type":"Feature","geometry":{"type":"Point","coordinates":[133.9095580000,34.3120730000]},"properties":{"Name":"加茂小学校","Jusho":"香川県坂出市加茂町1098-3","洪水":"","がけ崩れ、土石流及び地滑り":"◎","高潮":"◎","地震":"◎","津波":"◎","大規模な火事":"◎","内水氾濫":"","火山現象":"","指定避難所との重複":"◎","備考":""}},
{"type":"Feature","geometry":{"type":"Point","coordinates":[133.9101820000,34.3091580000]},"properties":{"Name":"加茂公民館","Jusho":"香川県坂出市加茂町645-7","洪水":"","がけ崩れ、土石流及び地滑り":"◎","高潮":"◎","地震":"◎","津波":"◎","大規模な火事":"◎","内水氾濫":"","火山現象":"","指定避難所との重複":"","備考":""}},
{"type":"Feature","geometry":{"type":"Point","coordinates":[133.8500190000,34.3518950000]},"properties":{"Name":"瀬居小学校","Jusho":"香川県坂出市瀬居町1500-1","洪水":"◎","がけ崩れ、土石流及び地滑り":"◎","高潮":"","地震":"◎","津波":"◎","大規模な火事":"◎","内水氾濫":"◎","火山現象":"","指定避難所との重複":"◎","備考":""}},
{"type":"Feature","geometry":{"type":"Point","coordinates":[133.8571640000,34.3524640000]},"properties":{"Name":"瀬居中学校","Jusho":"香川県坂出市番の州町11","洪水":"◎","がけ崩れ、土石流及び地滑り":"◎","高潮":"","地震":"◎","津波":"◎","大規模な火事":"◎","内水氾濫":"◎","火山現象":"","指定避難所との重複":"◎","備考":""}},
{"type":"Feature","geometry":{"type":"Point","coordinates":[133.8227500000,34.3471190000]},"properties":{"Name":"万葉会館","Jusho":"香川県坂出市沙弥島70-1","洪水":"◎","がけ崩れ、土石流及び地滑り":"◎","高潮":"◎","地震":"◎","津波":"◎","大規模な火事":"◎","内水氾濫":"◎","火山現象":"","指定避難所との重複":"◎","備考":""}},
{"type":"Feature","geometry":{"type":"Point","coordinates":[133.8226464000,34.3848969200]},"properties":{"Name":"中央公民館与島分館","Jusho":"香川県坂出市与島町102","洪水":"◎","がけ崩れ、土石流及び地滑り":"◎","高潮":"","地震":"◎","津波":"","大規模な火事":"◎","内水氾濫":"◎","火山現象":"","指定避難所との重複":"◎","備考":""}},
{"type":"Feature","geometry":{"type":"Point","coordinates":[133.8193970000,34.3903334100]},"properties":{"Name":"与島開発総合センター","Jusho":"香川県坂出市与島町514-22","洪水":"◎","がけ崩れ、土石流及び地滑り":"◎","高潮":"◎","地震":"◎","津波":"◎","大規模な火事":"◎","内水氾濫":"◎","火山現象":"","指定避難所との重複":"◎","備考":""}},
{"type":"Feature","geometry":{"type":"Point","coordinates":[133.8124640000,34.4079960000]},"properties":{"Name":"岩黒小・中学校","Jusho":"香川県坂出市岩黒240","洪水":"◎","がけ崩れ、土石流及び地滑り":"◎","高潮":"◎","地震":"◎","津波":"◎","大規模な火事":"◎","内水氾濫":"◎","火山現象":"","指定避難所との重複":"◎","備考":""}},
{"type":"Feature","geometry":{"type":"Point","coordinates":[133.8067470000,34.4207390000]},"properties":{"Name":"櫃石小・中学校","Jusho":"香川県坂出市櫃石585-17","洪水":"◎","がけ崩れ、土石流及び地滑り":"◎","高潮":"","地震":"◎","津波":"◎","大規模な火事":"◎","内水氾濫":"◎","火山現象":"","指定避難所との重複":"◎","備考":""}},
{"type":"Feature","geometry":{"type":"Point","coordinates":[133.9168860000,34.2893590000]},"properties":{"Name":"府中小学校","Jusho":"香川県坂出市府中町1193-3","洪水":"","がけ崩れ、土石流及び地滑り":"◎","高潮":"◎","地震":"◎","津波":"◎","大規模な火事":"◎","内水氾濫":"","火山現象":"","指定避難所との重複":"◎","備考":""}},
{"type":"Feature","geometry":{"type":"Point","coordinates":[133.9191680000,34.2902890000]},"properties":{"Name":"府中公民館","Jusho":"香川県坂出市府中町1145-6","洪水":"","がけ崩れ、土石流及び地滑り":"◎","高潮":"◎","地震":"◎","津波":"◎","大規模な火事":"◎","内水氾濫":"","火山現象":"","指定避難所との重複":"","備考":""}},
{"type":"Feature","geometry":{"type":"Point","coordinates":[133.9205010000,34.2852460000]},"properties":{"Name":"香川県県営水道事務所","Jusho":"香川県坂出市府中町1265-1","洪水":"◎","がけ崩れ、土石流及び地滑り":"◎","高潮":"◎","地震":"◎","津波":"◎","大規模な火事":"◎","内水氾濫":"◎","火山現象":"","指定避難所との重複":"","備考":""}},
{"type":"Feature","geometry":{"type":"Point","coordinates":[133.9163210000,34.2909800000]},"properties":{"Name":"香川県埋蔵文化財センター","Jusho":"香川県坂出市府中町5001-4","洪水":"◎","がけ崩れ、土石流及び地滑り":"◎","高潮":"◎","地震":"◎","津波":"◎","大規模な火事":"◎","内水氾濫":"◎","火山現象":"","指定避難所との重複":"","備考":""}},
{"type":"Feature","geometry":{"type":"Point","coordinates":[133.8531900000,34.2990220000]},"properties":{"Name":"坂出中学校","Jusho":"香川県坂出市小山町2-1","洪水":"◎","がけ崩れ、土石流及び地滑り":"◎","高潮":"◎","地震":"◎","津波":"◎","大規模な火事":"◎","内水氾濫":"◎","火山現象":"","指定避難所との重複":"◎","備考":""}},
{"type":"Feature","geometry":{"type":"Point","coordinates":[133.8571610000,34.2937000000]},"properties":{"Name":"川津小学校","Jusho":"香川県坂出市川津町3093-3","洪水":"◎","がけ崩れ、土石流及び地滑り":"◎","高潮":"◎","地震":"◎","津波":"◎","大規模な火事":"◎","内水氾濫":"◎","火山現象":"","指定避難所との重複":"◎","備考":""}},
{"type":"Feature","geometry":{"type":"Point","coordinates":[133.8516000000,34.2918060000]},"properties":{"Name":"川津公民館","Jusho":"香川県坂出市川津町4939","洪水":"◎","がけ崩れ、土石流及び地滑り":"◎","高潮":"◎","地震":"◎","津波":"◎","大規模な火事":"◎","内水氾濫":"◎","火山現象":"","指定避難所との重複":"","備考":""}},
{"type":"Feature","geometry":{"type":"Point","coordinates":[133.8402120000,34.2861280000]},"properties":{"Name":"川津文化センター","Jusho":"香川県坂出市川津町6100","洪水":"◎","がけ崩れ、土石流及び地滑り":"◎","高潮":"◎","地震":"◎","津波":"◎","大規模な火事":"◎","内水氾濫":"◎","火山現象":"","指定避難所との重複":"","備考":""}},
{"type":"Feature","geometry":{"type":"Point","coordinates":[133.9083390000,34.3384120000]},"properties":{"Name":"松山小学校","Jusho":"香川県坂出市高屋町1050-1","洪水":"◎","がけ崩れ、土石流及び地滑り":"◎","高潮":"","地震":"◎","津波":"","大規模な火事":"◎","内水氾濫":"◎","火山現象":"","指定避難所との重複":"◎","備考":""}},
{"type":"Feature","geometry":{"type":"Point","coordinates":[133.9079140000,34.3392090000]},"properties":{"Name":"松山公民館","Jusho":"香川県坂出市高屋町1100-1","洪水":"◎","がけ崩れ、土石流及び地滑り":"◎","高潮":"","地震":"◎","津波":"","大規模な火事":"◎","内水氾濫":"◎","火山現象":"","指定避難所との重複":"","備考":""}},
{"type":"Feature","geometry":{"type":"Point","coordinates":[133.9162930000,34.3664050000]},"properties":{"Name":"旧王越小学校","Jusho":"香川県坂出市王越町木沢1197-8","洪水":"◎","がけ崩れ、土石流及び地滑り":"","高潮":"◎","地震":"◎","津波":"◎","大規模な火事":"◎","内水氾濫":"◎","火山現象":"","指定避難所との重複":"◎","備考":""}},
{"type":"Feature","geometry":{"type":"Point","coordinates":[133.7808211000,34.2230547000]},"properties":{"Name":"西中学校","Jusho":"香川県善通寺市文京町４-１-１","洪水":"◎","がけ崩れ、土石流及び地滑り":"◎","高潮":"","地震":"◎","津波":"","大規模な火事":"","内水氾濫":"◎","火山現象":"","指定避難所との重複":"◎","備考":""}},
{"type":"Feature","geometry":{"type":"Point","coordinates":[133.7785523000,34.2240584100]},"properties":{"Name":"中央小学校","Jusho":"香川県善通寺市文京町４-５-１","洪水":"◎","がけ崩れ、土石流及び地滑り":"◎","高潮":"","地震":"◎","津波":"","大規模な火事":"","内水氾濫":"◎","火山現象":"","指定避難所との重複":"◎","備考":""}},
{"type":"Feature","geometry":{"type":"Point","coordinates":[133.7865474000,34.2247925000]},"properties":{"Name":"東中学校","Jusho":"香川県善通寺市生野本町２-１４-１","洪水":"◎","がけ崩れ、土石流及び地滑り":"◎","高潮":"","地震":"◎","津波":"","大規模な火事":"","内水氾濫":"◎","火山現象":"","指定避難所との重複":"◎","備考":""}},
{"type":"Feature","geometry":{"type":"Point","coordinates":[133.7897455000,34.2156430100]},"properties":{"Name":"南部小学校","Jusho":"香川県善通寺市生野町２９９０-１","洪水":"◎","がけ崩れ、土石流及び地滑り":"","高潮":"","地震":"◎","津波":"","大規模な火事":"","内水氾濫":"◎","火山現象":"","指定避難所との重複":"◎","備考":""}},
{"type":"Feature","geometry":{"type":"Point","coordinates":[133.7726591000,34.2202784100]},"properties":{"Name":"西部小学校","Jusho":"香川県善通寺市善通寺町１１４６","洪水":"◎","がけ崩れ、土石流及び地滑り":"","高潮":"","地震":"◎","津波":"","大規模な火事":"","内水氾濫":"◎","火山現象":"","指定避難所との重複":"◎","備考":""}},
{"type":"Feature","geometry":{"type":"Point","coordinates":[133.7815948000,34.2348510500]},"properties":{"Name":"東部小学校","Jusho":"香川県善通寺市稲木町４５０-１","洪水":"◎","がけ崩れ、土石流及び地滑り":"◎","高潮":"","地震":"◎","津波":"","大規模な火事":"","内水氾濫":"◎","火山現象":"","指定避難所との重複":"◎","備考":""}},
{"type":"Feature","geometry":{"type":"Point","coordinates":[133.8083241000,34.2330933900]},"properties":{"Name":"与北小学校","Jusho":"香川県善通寺市与北町１２３８","洪水":"◎","がけ崩れ、土石流及び地滑り":"◎","高潮":"","地震":"◎","津波":"","大規模な火事":"","内水氾濫":"◎","火山現象":"","指定避難所との重複":"◎","備考":""}},
{"type":"Feature","geometry":{"type":"Point","coordinates":[133.7926792000,34.2486659500]},"properties":{"Name":"竜川小学校","Jusho":"香川県善通寺市原田町３０６-１","洪水":"◎","がけ崩れ、土石流及び地滑り":"◎","高潮":"","地震":"◎","津波":"","大規模な火事":"◎","内水氾濫":"◎","火山現象":"","指定避難所との重複":"◎","備考":""}},
{"type":"Feature","geometry":{"type":"Point","coordinates":[133.7923188000,34.2390770300]},"properties":{"Name":"市民体育館","Jusho":"香川県善通寺市金蔵寺町３９８-６","洪水":"◎","がけ崩れ、土石流及び地滑り":"◎","高潮":"","地震":"◎","津波":"","大規模な火事":"◎","内水氾濫":"◎","火山現象":"","指定避難所との重複":"◎","備考":""}},
{"type":"Feature","geometry":{"type":"Point","coordinates":[133.7653450000,34.2389578500]},"properties":{"Name":"筆岡小学校","Jusho":"香川県善通寺市中村町１５７５-２","洪水":"◎","がけ崩れ、土石流及び地滑り":"◎","高潮":"","地震":"◎","津波":"","大規模な火事":"","内水氾濫":"◎","火山現象":"","指定避難所との重複":"◎","備考":""}},
{"type":"Feature","geometry":{"type":"Point","coordinates":[133.7506523000,34.2298668300]},"properties":{"Name":"吉原小学校","Jusho":"香川県善通寺市吉原町２８１１","洪水":"◎","がけ崩れ、土石流及び地滑り":"◎","高潮":"","地震":"◎","津波":"","大規模な火事":"◎","内水氾濫":"◎","火山現象":"","指定避難所との重複":"◎","備考":""}},
{"type":"Feature","geometry":{"type":"Point","coordinates":[133.5330682000,34.1280038800]},"properties":{"Name":"伊吹支所","Jusho":"香川県観音寺市伊吹町２０９-２","洪水":"◎","がけ崩れ、土石流及び地滑り":"◎","高潮":"◎","地震":"","津波":"◎","大規模な火事":"◎","内水氾濫":"◎","火山現象":"","指定避難所との重複":"◎","備考":""}},
{"type":"Feature","geometry":{"type":"Point","coordinates":[133.5393520000,34.1290956000]},"properties":{"Name":"伊吹中学校・小学校（体育館）","Jusho":"香川県観音寺市伊吹町５４９","洪水":"◎","がけ崩れ、土石流及び地滑り":"◎","高潮":"◎","地震":"◎","津波":"◎","大規模な火事":"◎","内水氾濫":"◎","火山現象":"","指定避難所との重複":"◎","備考":""}},
{"type":"Feature","geometry":{"type":"Point","coordinates":[133.5394218000,34.1286870700]},"properties":{"Name":"伊吹中学校・小学校（運動場）","Jusho":"香川県観音寺市伊吹町５４９","洪水":"◎","がけ崩れ、土石流及び地滑り":"◎","高潮":"◎","地震":"◎","津波":"◎","大規模な火事":"◎","内水氾濫":"◎","火山現象":"","指定避難所との重複":"","備考":""}},
{"type":"Feature","geometry":{"type":"Point","coordinates":[133.6451974000,34.1533729600]},"properties":{"Name":"蓮光院","Jusho":"香川県観音寺市室本町３１４","洪水":"","がけ崩れ、土石流及び地滑り":"","高潮":"","地震":"","津波":"◎","大規模な火事":"","内水氾濫":"","火山現象":"","指定避難所との重複":"","備考":""}},
{"type":"Feature","geometry":{"type":"Point","coordinates":[133.6545480000,34.1467733700]},"properties":{"Name":"高室小学校 （体育館）","Jusho":"香川県観音寺市高屋町１８７７-１","洪水":"◎","がけ崩れ、土石流及び地滑り":"◎","高潮":"◎","地震":"◎","津波":"◎","大規模な火事":"◎","内水氾濫":"◎","火山現象":"","指定避難所との重複":"◎","備考":""}},
{"type":"Feature","geometry":{"type":"Point","coordinates":[133.6549932000,34.1470353000]},"properties":{"Name":"高室小学校（運動場）","Jusho":"香川県観音寺市高屋町１８７７-１","洪水":"◎","がけ崩れ、土石流及び地滑り":"◎","高潮":"◎","地震":"◎","津波":"◎","大規模な火事":"◎","内水氾濫":"◎","火山現象":"","指定避難所との重複":"","備考":""}},
{"type":"Feature","geometry":{"type":"Point","coordinates":[133.6542851000,34.1457877700]},"properties":{"Name":"高室公民館","Jusho":"香川県観音寺市高屋町８８４","洪水":"◎","がけ崩れ、土石流及び地滑り":"◎","高潮":"◎","地震":"◎","津波":"◎","大規模な火事":"◎","内水氾濫":"◎","火山現象":"","指定避難所との重複":"◎","備考":""}},
{"type":"Feature","geometry":{"type":"Point","coordinates":[133.6494412000,34.1379968400]},"properties":{"Name":"興昌寺山","Jusho":"香川県観音寺市八幡町二丁目７-２","洪水":"","がけ崩れ、土石流及び地滑り":"","高潮":"","地震":"","津波":"◎","大規模な火事":"","内水氾濫":"","火山現象":"","指定避難所との重複":"","備考":""}},
{"type":"Feature","geometry":{"type":"Point","coordinates":[133.6461150000,34.1366308500]},"properties":{"Name":"観音寺中学校（体育館）","Jusho":"香川県観音寺市八幡町二丁目１０-７","洪水":"◎","がけ崩れ、土石流及び地滑り":"◎","高潮":"◎","地震":"◎","津波":"◎","大規模な火事":"◎","内水氾濫":"◎","火山現象":"","指定避難所との重複":"◎","備考":""}},
{"type":"Feature","geometry":{"type":"Point","coordinates":[133.6463993000,34.1360047900]},"properties":{"Name":"観音寺中学校（運動場）","Jusho":"香川県観音寺市八幡町二丁目１０-７","洪水":"◎","がけ崩れ、土石流及び地滑り":"◎","高潮":"◎","地震":"◎","津波":"◎","大規模な火事":"◎","内水氾濫":"◎","火山現象":"","指定避難所との重複":"","備考":""}},
{"type":"Feature","geometry":{"type":"Point","coordinates":[133.6427840000,34.1319459400]},"properties":{"Name":"琴弾荘 （本館２階）","Jusho":"香川県観音寺市有明町１０-２２","洪水":"","がけ崩れ、土石流及び地滑り":"","高潮":"","地震":"","津波":"◎","大規模な火事":"","内水氾濫":"","火山現象":"","指定避難所との重複":"","備考":""}},
{"type":"Feature","geometry":{"type":"Point","coordinates":[133.6462860000,34.1331946100]},"properties":{"Name":"琴弾山","Jusho":"香川県観音寺市八幡町一丁目１-１","洪水":"◎","がけ崩れ、土石流及び地滑り":"◎","高潮":"◎","地震":"◎","津波":"◎","大規模な火事":"◎","内水氾濫":"◎","火山現象":"","指定避難所との重複":"","備考":""}},
{"type":"Feature","geometry":{"type":"Point","coordinates":[133.6513646000,34.1302125200]},"properties":{"Name":"観音寺信用金庫本店（６階大会議室、各階ホール）","Jusho":"香川県観音寺市観音寺町甲３３７７-３","洪水":"","がけ崩れ、土石流及び地滑り":"","高潮":"","地震":"","津波":"◎","大規模な火事":"","内水氾濫":"","火山現象":"","指定避難所との重複":"","備考":""}},
{"type":"Feature","geometry":{"type":"Point","coordinates":[133.6589986000,34.1273747000]},"properties":{"Name":"香川県西讃合同庁舎（３階会議室、２階以上西側外階段）","Jusho":"香川県観音寺市坂本町七丁目３-１８","洪水":"","がけ崩れ、土石流及び地滑り":"","高潮":"","地震":"","津波":"◎","大規模な火事":"","内水氾濫":"","火山現象":"","指定避難所との重複":"","備考":""}},
{"type":"Feature","geometry":{"type":"Point","coordinates":[133.6557791000,34.1257131400]},"properties":{"Name":"市営明星団地 ほか（階段、踊り場）","Jusho":"香川県観音寺市観音寺町甲１０１１-１１","洪水":"","がけ崩れ、土石流及び地滑り":"","高潮":"","地震":"","津波":"◎","大規模な火事":"","内水氾濫":"","火山現象":"","指定避難所との重複":"","備考":""}},
{"type":"Feature","geometry":{"type":"Point","coordinates":[133.6512719000,34.1260841300]},"properties":{"Name":"鶴亀ハウス （階段、踊り場）","Jusho":"香川県観音寺市観音寺町甲２９７２-７","洪水":"","がけ崩れ、土石流及び地滑り":"","高潮":"","地震":"","津波":"◎","大規模な火事":"","内水氾濫":"","火山現象":"","指定避難所との重複":"◎","備考":""}},
{"type":"Feature","geometry":{"type":"Point","coordinates":[133.6477509000,34.1262742100]},"properties":{"Name":"観音寺小学校（校舎２階以上）","Jusho":"香川県観音寺市観音寺町甲２５５８-１","洪水":"◎","がけ崩れ、土石流及び地滑り":"◎","高潮":"◎","地震":"◎","津波":"◎","大規模な火事":"◎","内水氾濫":"◎","火山現象":"","指定避難所との重複":"","備考":""}},
{"type":"Feature","geometry":{"type":"Point","coordinates":[133.6505395000,34.1242445900]},"properties":{"Name":"主要地方道観音寺佐野線 昭和橋歩道","Jusho":"香川県観音寺市観音寺町甲２５７９-１地先","洪水":"","がけ崩れ、土石流及び地滑り":"","高潮":"","地震":"","津波":"◎","大規模な火事":"","内水氾濫":"","火山現象":"","指定避難所との重複":"","備考":""}},
{"type":"Feature","geometry":{"type":"Point","coordinates":[133.6437868000,34.1223244200]},"properties":{"Name":"田代マンション （階段、踊り場）","Jusho":"香川県観音寺市三本松町二丁目７-１５","洪水":"","がけ崩れ、土石流及び地滑り":"","高潮":"","地震":"","津波":"◎","大規模な火事":"","内水氾濫":"","火山現象":"","指定避難所との重複":"","備考":""}},
{"type":"Feature","geometry":{"type":"Point","coordinates":[133.6407937000,34.1230616200]},"properties":{"Name":"旧観音寺競輪場 （管理棟２階）","Jusho":"香川県観音寺市琴浪町二丁目１-３","洪水":"◎","がけ崩れ、土石流及び地滑り":"◎","高潮":"◎","地震":"◎","津波":"◎","大規模な火事":"◎","内水氾濫":"◎","火山現象":"","指定避難所との重複":"◎","備考":""}},
{"type":"Feature","geometry":{"type":"Point","coordinates":[133.6391570000,34.1153370400]},"properties":{"Name":"（一財）阪大微生物病研究会瀬戸センター（管理棟３階研修ホール、９階講堂ホール）","Jusho":"香川県観音寺市瀬戸町四丁目１-７０","洪水":"","がけ崩れ、土石流及び地滑り":"","高潮":"","地震":"","津波":"◎","大規模な火事":"","内水氾濫":"","火山現象":"","指定避難所との重複":"","備考":""}},
{"type":"Feature","geometry":{"type":"Point","coordinates":[133.6495269000,34.1216901000]},"properties":{"Name":"市営下津団地 （階段、踊り場）","Jusho":"香川県観音寺市南町二丁目１番","洪水":"","がけ崩れ、土石流及び地滑り":"","高潮":"","地震":"","津波":"◎","大規模な火事":"","内水氾濫":"","火山現象":"","指定避難所との重複":"","備考":""}},
{"type":"Feature","geometry":{"type":"Point","coordinates":[133.6728197000,34.1373493400]},"properties":{"Name":"コミュニティー 防災センター","Jusho":"香川県観音寺市流岡町４７５","洪水":"◎","がけ崩れ、土石流及び地滑り":"◎","高潮":"◎","地震":"◎","津波":"◎","大規模な火事":"◎","内水氾濫":"◎","火山現象":"","指定避難所との重複":"◎","備考":""}},
{"type":"Feature","geometry":{"type":"Point","coordinates":[133.6759709000,34.1270266800]},"properties":{"Name":"常磐小学校 （体育館）","Jusho":"香川県観音寺市植田町３６５","洪水":"◎","がけ崩れ、土石流及び地滑り":"◎","高潮":"◎","地震":"◎","津波":"◎","大規模な火事":"◎","内水氾濫":"◎","火山現象":"","指定避難所との重複":"◎","備考":""}},
{"type":"Feature","geometry":{"type":"Point","coordinates":[133.6752091000,34.1277149800]},"properties":{"Name":"常磐小学校 （運動場）","Jusho":"香川県観音寺市植田町３６５","洪水":"◎","がけ崩れ、土石流及び地滑り":"◎","高潮":"◎","地震":"◎","津波":"◎","大規模な火事":"◎","内水氾濫":"◎","火山現象":"","指定避難所との重複":"","備考":""}},
{"type":"Feature","geometry":{"type":"Point","coordinates":[133.6658389000,34.1191520700]},"properties":{"Name":"中部中学校 （体育館）","Jusho":"香川県観音寺市柞田町甲１２３７","洪水":"◎","がけ崩れ、土石流及び地滑り":"◎","高潮":"◎","地震":"◎","津波":"◎","大規模な火事":"◎","内水氾濫":"◎","火山現象":"","指定避難所との重複":"◎","備考":""}},
{"type":"Feature","geometry":{"type":"Point","coordinates":[133.6642082000,34.1193252700]},"properties":{"Name":"中部中学校 （運動場）","Jusho":"香川県観音寺市柞田町甲１２３７","洪水":"◎","がけ崩れ、土石流及び地滑り":"◎","高潮":"◎","地震":"◎","津波":"◎","大規模な火事":"◎","内水氾濫":"◎","火山現象":"","指定避難所との重複":"","備考":""}},
{"type":"Feature","geometry":{"type":"Point","coordinates":[133.6602772000,34.1094419400]},"properties":{"Name":"柞田小学校 （体育館）","Jusho":"香川県観音寺市柞田町乙１０００-１","洪水":"◎","がけ崩れ、土石流及び地滑り":"◎","高潮":"◎","地震":"◎","津波":"◎","大規模な火事":"◎","内水氾濫":"◎","火山現象":"","指定避難所との重複":"◎","備考":""}},
{"type":"Feature","geometry":{"type":"Point","coordinates":[133.6596871000,34.1090821700]},"properties":{"Name":"柞田小学校 （運動場）","Jusho":"香川県観音寺市柞田町乙１０００-１","洪水":"◎","がけ崩れ、土石流及び地滑り":"◎","高潮":"◎","地震":"◎","津波":"◎","大規模な火事":"◎","内水氾濫":"◎","火山現象":"","指定避難所との重複":"","備考":""}},
{"type":"Feature","geometry":{"type":"Point","coordinates":[133.6988809000,34.1297241200]},"properties":{"Name":"一ノ谷公民館","Jusho":"香川県観音寺市古川町８５-１","洪水":"◎","がけ崩れ、土石流及び地滑り":"◎","高潮":"◎","地震":"◎","津波":"◎","大規模な火事":"◎","内水氾濫":"◎","火山現象":"","指定避難所との重複":"◎","備考":""}},
{"type":"Feature","geometry":{"type":"Point","coordinates":[133.6977839000,34.1292473200]},"properties":{"Name":"一ノ谷小学校（体育館）","Jusho":"香川県観音寺市古川町１０２-１","洪水":"◎","がけ崩れ、土石流及び地滑り":"◎","高潮":"◎","地震":"◎","津波":"◎","大規模な火事":"◎","内水氾濫":"◎","火山現象":"","指定避難所との重複":"◎","備考":""}},
{"type":"Feature","geometry":{"type":"Point","coordinates":[133.6972421000,34.1294649000]},"properties":{"Name":"一ノ谷小学校（運動場）","Jusho":"香川県観音寺市古川町１０２-１","洪水":"◎","がけ崩れ、土石流及び地滑り":"◎","高潮":"◎","地震":"◎","津波":"◎","大規模な火事":"◎","内水氾濫":"◎","火山現象":"","指定避難所との重複":"","備考":""}},
{"type":"Feature","geometry":{"type":"Point","coordinates":[133.6873652000,34.1109822600]},"properties":{"Name":"総合運動公園","Jusho":"香川県観音寺市池之尻町１０７１","洪水":"◎","がけ崩れ、土石流及び地滑り":"◎","高潮":"◎","地震":"◎","津波":"◎","大規模な火事":"◎","内水氾濫":"◎","火山現象":"","指定避難所との重複":"","備考":""}},
{"type":"Feature","geometry":{"type":"Point","coordinates":[133.6862011000,34.1087836900]},"properties":{"Name":"市立総合体育館","Jusho":"香川県観音寺市池之尻町１０７１","洪水":"◎","がけ崩れ、土石流及び地滑り":"◎","高潮":"◎","地震":"◎","津波":"◎","大規模な火事":"◎","内水氾濫":"◎","火山現象":"","指定避難所との重複":"◎","備考":""}},
{"type":"Feature","geometry":{"type":"Point","coordinates":[133.7025522000,34.1105858400]},"properties":{"Name":"豊田公民館","Jusho":"香川県観音寺市原町２７０-１","洪水":"◎","がけ崩れ、土石流及び地滑り":"◎","高潮":"◎","地震":"","津波":"◎","大規模な火事":"◎","内水氾濫":"◎","火山現象":"","指定避難所との重複":"◎","備考":""}},
{"type":"Feature","geometry":{"type":"Point","coordinates":[133.7022445000,34.1097755400]},"properties":{"Name":"豊田小学校 （体育館）","Jusho":"香川県観音寺市新田町１４１３","洪水":"◎","がけ崩れ、土石流及び地滑り":"◎","高潮":"◎","地震":"◎","津波":"◎","大規模な火事":"◎","内水氾濫":"◎","火山現象":"","指定避難所との重複":"◎","備考":""}},
{"type":"Feature","geometry":{"type":"Point","coordinates":[133.7027488000,34.1098021900]},"properties":{"Name":"豊田小学校 （運動場）","Jusho":"香川県観音寺市新田町１４１３","洪水":"◎","がけ崩れ、土石流及び地滑り":"◎","高潮":"◎","地震":"◎","津波":"◎","大規模な火事":"◎","内水氾濫":"◎","火山現象":"","指定避難所との重複":"","備考":""}},
{"type":"Feature","geometry":{"type":"Point","coordinates":[133.7008616000,34.0955094600]},"properties":{"Name":"粟井小学校 （体育館）","Jusho":"香川県観音寺市粟井町１４５２","洪水":"◎","がけ崩れ、土石流及び地滑り":"◎","高潮":"◎","地震":"◎","津波":"◎","大規模な火事":"◎","内水氾濫":"◎","火山現象":"","指定避難所との重複":"◎","備考":""}},
{"type":"Feature","geometry":{"type":"Point","coordinates":[133.7006148000,34.0959581300]},"properties":{"Name":"粟井小学校 （運動場）","Jusho":"香川県観音寺市粟井町１４５２","洪水":"◎","がけ崩れ、土石流及び地滑り":"◎","高潮":"◎","地震":"◎","津波":"◎","大規模な火事":"◎","内水氾濫":"◎","火山現象":"","指定避難所との重複":"","備考":""}},
{"type":"Feature","geometry":{"type":"Point","coordinates":[133.7009850000,34.0949452900]},"properties":{"Name":"粟井公民館","Jusho":"香川県観音寺市粟井町１５１６","洪水":"◎","がけ崩れ、土石流及び地滑り":"◎","高潮":"◎","地震":"◎","津波":"◎","大規模な火事":"◎","内水氾濫":"◎","火山現象":"","指定避難所との重複":"◎","備考":""}},
{"type":"Feature","geometry":{"type":"Point","coordinates":[133.7151054000,34.0716037600]},"properties":{"Name":"ヤマギシズム 生活館（研鑽室）","Jusho":"香川県観音寺市粟井町４８００-９","洪水":"◎","がけ崩れ、土石流及び地滑り":"◎","高潮":"◎","地震":"◎","津波":"◎","大規模な火事":"◎","内水氾濫":"◎","火山現象":"","指定避難所との重複":"","備考":""}},
{"type":"Feature","geometry":{"type":"Point","coordinates":[133.6988779000,34.0905045300]},"properties":{"Name":"燧望苑（建物）","Jusho":"香川県観音寺市大野原町丸井１１８３","洪水":"◎","がけ崩れ、土石流及び地滑り":"◎","高潮":"◎","地震":"◎","津波":"◎","大規模な火事":"◎","内水氾濫":"◎","火山現象":"","指定避難所との重複":"◎","備考":""}},
{"type":"Feature","geometry":{"type":"Point","coordinates":[133.6984917000,34.0905667200]},"properties":{"Name":"燧望苑（駐車場）","Jusho":"香川県観音寺市大野原町丸井１１８３","洪水":"◎","がけ崩れ、土石流及び地滑り":"◎","高潮":"◎","地震":"◎","津波":"◎","大規模な火事":"◎","内水氾濫":"◎","火山現象":"","指定避難所との重複":"","備考":""}},
{"type":"Feature","geometry":{"type":"Point","coordinates":[133.6904575000,34.0938521500]},"properties":{"Name":"旧紀伊小学校 （体育館）","Jusho":"香川県観音寺市大野原町丸井３１３","洪水":"◎","がけ崩れ、土石流及び地滑り":"◎","高潮":"◎","地震":"◎","津波":"◎","大規模な火事":"◎","内水氾濫":"◎","火山現象":"","指定避難所との重複":"◎","備考":""}},
{"type":"Feature","geometry":{"type":"Point","coordinates":[133.6902322000,34.0946984200]},"properties":{"Name":"旧紀伊小学校 （運動場）","Jusho":"香川県観音寺市大野原町丸井３１３","洪水":"◎","がけ崩れ、土石流及び地滑り":"◎","高潮":"◎","地震":"◎","津波":"◎","大規模な火事":"◎","内水氾濫":"◎","火山現象":"","指定避難所との重複":"","備考":""}},
{"type":"Feature","geometry":{"type":"Point","coordinates":[133.6684743000,34.0875687100]},