var mie={"type":"FeatureCollection","name":"mie","features":[
{"type":"Feature","geometry":{"type":"Point","coordinates":[136.4722835000,34.8078574400]},"properties":{"Name":"豊が丘小学校","Jusho":"三重県津市豊が丘二丁目34-1","Kouzui":"◎","がけ崩れ、土石流及び地滑り":"◎","Takashio":"","地震":"◎","津波":"◎","大規模な火事":"","内水氾濫":"","火山現象":"","指定避難所との重複":"◎","備考":""}},
{"type":"Feature","geometry":{"type":"Point","coordinates":[136.4620800000,34.7932623100]},"properties":{"Name":"高野尾出張所","Jusho":"三重県津市高野尾町5417-1","Kouzui":"◎","がけ崩れ、土石流及び地滑り":"◎","Takashio":"","地震":"◎","津波":"◎","大規模な火事":"","内水氾濫":"","火山現象":"","指定避難所との重複":"◎","備考":""}},
{"type":"Feature","geometry":{"type":"Point","coordinates":[136.4619292000,34.7928131800]},"properties":{"Name":"高野尾小学校","Jusho":"三重県津市高野尾町5266-1","Kouzui":"◎","がけ崩れ、土石流及び地滑り":"◎","Takashio":"","地震":"◎","津波":"◎","大規模な火事":"","内水氾濫":"","火山現象":"","指定避難所との重複":"◎","備考":""}},
{"type":"Feature","geometry":{"type":"Point","coordinates":[136.4907122000,34.7749186200]},"properties":{"Name":"大里出張所","Jusho":"三重県津市大里睦合町1292-1","Kouzui":"◎","がけ崩れ、土石流及び地滑り":"◎","Takashio":"","地震":"◎","津波":"◎","大規模な火事":"","内水氾濫":"","火山現象":"","指定避難所との重複":"◎","備考":""}},
{"type":"Feature","geometry":{"type":"Point","coordinates":[136.4926925000,34.7707344800]},"properties":{"Name":"大里小学校","Jusho":"三重県津市大里窪田町1821","Kouzui":"◎","がけ崩れ、土石流及び地滑り":"◎","Takashio":"","地震":"◎","津波":"◎","大規模な火事":"","内水氾濫":"","火山現象":"","指定避難所との重複":"◎","備考":""}},
{"type":"Feature","geometry":{"type":"Point","coordinates":[136.4841723000,34.7771491300]},"properties":{"Name":"豊里中学校","Jusho":"三重県津市大里睦合町820-1","Kouzui":"◎","がけ崩れ、土石流及び地滑り":"◎","Takashio":"","地震":"◎","津波":"◎","大規模な火事":"","内水氾濫":"","火山現象":"","指定避難所との重複":"◎","備考":""}},
{"type":"Feature","geometry":{"type":"Point","coordinates":[136.5094028000,34.7702012100]},"properties":{"Name":"高田短期大学","Jusho":"三重県津市一身田豊野195","Kouzui":"◎","がけ崩れ、土石流及び地滑り":"◎","Takashio":"","地震":"◎","津波":"◎","大規模な火事":"","内水氾濫":"","火山現象":"","指定避難所との重複":"◎","備考":""}},
{"type":"Feature","geometry":{"type":"Point","coordinates":[136.5036739000,34.7644624500]},"properties":{"Name":"高田中・高等学校","Jusho":"三重県津市一身田町2843","Kouzui":"◎","がけ崩れ、土石流及び地滑り":"◎","Takashio":"","地震":"◎","津波":"","大規模な火事":"","内水氾濫":"","火山現象":"","指定避難所との重複":"◎","備考":""}},
{"type":"Feature","geometry":{"type":"Point","coordinates":[136.5054888000,34.7542001500]},"properties":{"Name":"一身田中学校","Jusho":"三重県津市一身田中野880-1","Kouzui":"◎","がけ崩れ、土石流及び地滑り":"◎","Takashio":"","地震":"◎","津波":"◎","大規模な火事":"","内水氾濫":"","火山現象":"","指定避難所との重複":"◎","備考":""}},
{"type":"Feature","geometry":{"type":"Point","coordinates":[136.5078245000,34.7601739100]},"properties":{"Name":"一身田公民館（一身田出張所）","Jusho":"三重県津市一身田町293-3","Kouzui":"◎","がけ崩れ、土石流及び地滑り":"◎","Takashio":"","地震":"◎","津波":"","大規模な火事":"","内水氾濫":"","火山現象":"","指定避難所との重複":"◎","備考":""}},
{"type":"Feature","geometry":{"type":"Point","coordinates":[136.5019523000,34.7600280200]},"properties":{"Name":"一身田小学校","Jusho":"三重県津市一身田大古曽355","Kouzui":"◎","がけ崩れ、土石流及び地滑り":"◎","Takashio":"","地震":"◎","津波":"◎","大規模な火事":"","内水氾濫":"","火山現象":"","指定避難所との重複":"◎","備考":""}},
{"type":"Feature","geometry":{"type":"Point","coordinates":[136.5118248000,34.7487967900]},"properties":{"Name":"三重短期大学","Jusho":"三重県津市一身田中野157","Kouzui":"◎","がけ崩れ、土石流及び地滑り":"◎","Takashio":"","地震":"◎","津波":"◎","大規模な火事":"","内水氾濫":"","火山現象":"","指定避難所との重複":"◎","備考":""}},
{"type":"Feature","geometry":{"type":"Point","coordinates":[136.5019690000,34.7447282200]},"properties":{"Name":"三重県総合文化センター","Jusho":"三重県津市一身田上津部田1234","Kouzui":"◎","がけ崩れ、土石流及び地滑り":"◎","Takashio":"","地震":"◎","津波":"◎","大規模な火事":"","内水氾濫":"","火山現象":"","指定避難所との重複":"◎","備考":""}},
{"type":"Feature","geometry":{"type":"Point","coordinates":[136.5282668000,34.7606647500]},"properties":{"Name":"白塚小学校","Jusho":"三重県津市白塚町4463","Kouzui":"◎","がけ崩れ、土石流及び地滑り":"◎","Takashio":"","地震":"◎","津波":"◎","大規模な火事":"","内水氾濫":"","火山現象":"","指定避難所との重複":"◎","備考":""}},
{"type":"Feature","geometry":{"type":"Point","coordinates":[136.5291485000,34.7590691200]},"properties":{"Name":"白塚公民館（白塚出張所）","Jusho":"三重県津市白塚町5205","Kouzui":"◎","がけ崩れ、土石流及び地滑り":"◎","Takashio":"","地震":"◎","津波":"","大規模な火事":"","内水氾濫":"","火山現象":"","指定避難所との重複":"◎","備考":""}},
{"type":"Feature","geometry":{"type":"Point","coordinates":[136.5225557000,34.7609948400]},"properties":{"Name":"栗真小学校","Jusho":"三重県津市栗真中山町452","Kouzui":"◎","がけ崩れ、土石流及び地滑り":"◎","Takashio":"","地震":"◎","津波":"◎","大規模な火事":"","内水氾濫":"","火山現象":"","指定避難所との重複":"◎","備考":""}},
{"type":"Feature","geometry":{"type":"Point","coordinates":[136.5231329000,34.7511808900]},"properties":{"Name":"町屋会館","Jusho":"三重県津市栗真町屋町714-1","Kouzui":"◎","がけ崩れ、土石流及び地滑り":"◎","Takashio":"","地震":"◎","津波":"","大規模な火事":"","内水氾濫":"","火山現象":"","指定避難所との重複":"◎","備考":""}},
{"type":"Feature","geometry":{"type":"Point","coordinates":[136.5232979000,34.7478278000]},"properties":{"Name":"三重県立国児学園","Jusho":"三重県津市栗真町屋町524","Kouzui":"◎","がけ崩れ、土石流及び地滑り":"◎","Takashio":"","地震":"◎","津波":"","大規模な火事":"","内水氾濫":"","火山現象":"","指定避難所との重複":"◎","備考":""}},
{"type":"Feature","geometry":{"type":"Point","coordinates":[136.5173902000,34.7446796400]},"properties":{"Name":"北立誠小学校","Jusho":"三重県津市江戸橋一丁目30","Kouzui":"◎","がけ崩れ、土石流及び地滑り":"◎","Takashio":"","地震":"◎","津波":"◎","大規模な火事":"","内水氾濫":"","火山現象":"","指定避難所との重複":"◎","備考":""}},
{"type":"Feature","geometry":{"type":"Point","coordinates":[136.5110255000,34.7345678100]},"properties":{"Name":"アストプラザ","Jusho":"三重県津市羽所町700","Kouzui":"◎","がけ崩れ、土石流及び地滑り":"◎","Takashio":"","地震":"◎","津波":"◎","大規模な火事":"","内水氾濫":"","火山現象":"","指定避難所との重複":"◎","備考":""}},
{"type":"Feature","geometry":{"type":"Point","coordinates":[136.5182169000,34.7316769800]},"properties":{"Name":"橋北中学校","Jusho":"三重県津市桜橋二丁目38-1","Kouzui":"◎","がけ崩れ、土石流及び地滑り":"◎","Takashio":"","地震":"◎","津波":"◎","大規模な火事":"","内水氾濫":"","火山現象":"","指定避難所との重複":"◎","備考":""}},
{"type":"Feature","geometry":{"type":"Point","coordinates":[136.5170400000,34.7318030200]},"properties":{"Name":"南立誠小学校","Jusho":"三重県津市桜橋二丁目39","Kouzui":"◎","がけ崩れ、土石流及び地滑り":"◎","Takashio":"","地震":"◎","津波":"◎","大規模な火事":"","内水氾濫":"","火山現象":"","指定避難所との重複":"◎","備考":""}},
{"type":"Feature","geometry":{"type":"Point","coordinates":[136.4986287000,34.7326137300]},"properties":{"Name":"観音寺保育園","Jusho":"三重県津市観音寺町604-74","Kouzui":"◎","がけ崩れ、土石流及び地滑り":"◎","Takashio":"","地震":"◎","津波":"◎","大規模な火事":"","内水氾濫":"","火山現象":"","指定避難所との重複":"◎","備考":""}},
{"type":"Feature","geometry":{"type":"Point","coordinates":[136.5024940000,34.7269238700]},"properties":{"Name":"三重大学教育学部附属小学校","Jusho":"三重県津市観音寺町359","Kouzui":"◎","がけ崩れ、土石流及び地滑り":"◎","Takashio":"","地震":"◎","津波":"◎","大規模な火事":"","内水氾濫":"","火山現象":"","指定避難所との重複":"◎","備考":""}},
{"type":"Feature","geometry":{"type":"Point","coordinates":[136.4917821000,34.7446668600]},"properties":{"Name":"西が丘小学校","Jusho":"三重県津市長岡町800-437","Kouzui":"◎","がけ崩れ、土石流及び地滑り":"◎","Takashio":"","地震":"◎","津波":"◎","大規模な火事":"","内水氾濫":"","火山現象":"","指定避難所との重複":"◎","備考":""}},
{"type":"Feature","geometry":{"type":"Point","coordinates":[136.4863245000,34.7331071300]},"properties":{"Name":"安東小学校","Jusho":"三重県津市納所町245","Kouzui":"◎","がけ崩れ、土石流及び地滑り":"◎","Takashio":"","地震":"◎","津波":"◎","大規模な火事":"","内水氾濫":"","火山現象":"","指定避難所との重複":"◎","備考":""}},
{"type":"Feature","geometry":{"type":"Point","coordinates":[136.4855999000,34.7334753000]},"properties":{"Name":"安東出張所","Jusho":"三重県津市納所町249-6","Kouzui":"◎","がけ崩れ、土石流及び地滑り":"◎","Takashio":"","地震":"◎","津波":"◎","大規模な火事":"","内水氾濫":"","火山現象":"","指定避難所との重複":"◎","備考":""}},
{"type":"Feature","geometry":{"type":"Point","coordinates":[136.4866176000,34.7266015200]},"properties":{"Name":"中勢用水中央管理事務所","Jusho":"三重県津市納所町524","Kouzui":"◎","がけ崩れ、土石流及び地滑り":"◎","Takashio":"","地震":"◎","津波":"◎","大規模な火事":"","内水氾濫":"","火山現象":"","指定避難所との重複":"◎","備考":""}},
{"type":"Feature","geometry":{"type":"Point","coordinates":[136.4641975000,34.7386307400]},"properties":{"Name":"櫛形市民館","Jusho":"三重県津市分部262-1","Kouzui":"◎","がけ崩れ、土石流及び地滑り":"◎","Takashio":"","地震":"◎","津波":"◎","大規模な火事":"","内水氾濫":"","火山現象":"","指定避難所との重複":"◎","備考":""}},
{"type":"Feature","geometry":{"type":"Point","coordinates":[136.4569984000,34.7316053300]},"properties":{"Name":"櫛形出張所","Jusho":"三重県津市分部1192-1","Kouzui":"◎","がけ崩れ、土石流及び地滑り":"◎","Takashio":"","地震":"◎","津波":"◎","大規模な火事":"","内水氾濫":"","火山現象":"","指定避難所との重複":"◎","備考":""}},
{"type":"Feature","geometry":{"type":"Point","coordinates":[136.4560975000,34.7295146400]},"properties":{"Name":"櫛形小学校","Jusho":"三重県津市分部1211-1","Kouzui":"◎","がけ崩れ、土石流及び地滑り":"◎","Takashio":"","地震":"◎","津波":"◎","大規模な火事":"","内水氾濫":"","火山現象":"","指定避難所との重複":"◎","備考":""}},
{"type":"Feature","geometry":{"type":"Point","coordinates":[136.4768131000,34.7305572200]},"properties":{"Name":"西郊中学校","Jusho":"三重県津市一色町219","Kouzui":"◎","がけ崩れ、土石流及び地滑り":"◎","Takashio":"","地震":"◎","津波":"◎","大規模な火事":"","内水氾濫":"","火山現象":"","指定避難所との重複":"◎","備考":""}},
{"type":"Feature","geometry":{"type":"Point","coordinates":[136.4423938000,34.7113647700]},"properties":{"Name":"片田小学校","Jusho":"三重県津市片田井戸町22","Kouzui":"◎","がけ崩れ、土石流及び地滑り":"◎","Takashio":"","地震":"◎","津波":"◎","大規模な火事":"","内水氾濫":"","火山現象":"","指定避難所との重複":"◎","備考":""}},
{"type":"Feature","geometry":{"type":"Point","coordinates":[136.4429774000,34.7103254300]},"properties":{"Name":"片田出張所","Jusho":"三重県津市片田井戸町16-1","Kouzui":"◎","がけ崩れ、土石流及び地滑り":"◎","Takashio":"","地震":"◎","津波":"◎","大規模な火事":"","内水氾濫":"","火山現象":"","指定避難所との重複":"◎","備考":""}},
{"type":"Feature","geometry":{"type":"Point","coordinates":[136.4794962000,34.7119131700]},"properties":{"Name":"神戸出張所","Jusho":"三重県津市神戸739-1","Kouzui":"◎","がけ崩れ、土石流及び地滑り":"◎","Takashio":"","地震":"◎","津波":"","大規模な火事":"","内水氾濫":"","火山現象":"","指定避難所との重複":"◎","備考":""}},
{"type":"Feature","geometry":{"type":"Point","coordinates":[136.4821266000,34.7146578700]},"properties":{"Name":"神戸小学校","Jusho":"三重県津市神戸332-1","Kouzui":"◎","がけ崩れ、土石流及び地滑り":"◎","Takashio":"","地震":"◎","津波":"◎","大規模な火事":"","内水氾濫":"","火山現象":"","指定避難所との重複":"◎","備考":""}},
{"type":"Feature","geometry":{"type":"Point","coordinates":[136.4776854000,34.7111344300]},"properties":{"Name":"津市青少年野外活動センター体育館","Jusho":"三重県津市神戸1680-1","Kouzui":"◎","がけ崩れ、土石流及び地滑り":"◎","Takashio":"","地震":"◎","津波":"◎","大規模な火事":"","内水氾濫":"","火山現象":"","指定避難所との重複":"◎","備考":""}},
{"type":"Feature","geometry":{"type":"Point","coordinates":[136.4924036000,34.7208322500]},"properties":{"Name":"新町小学校","Jusho":"三重県津市八町三丁目3-1","Kouzui":"◎","がけ崩れ、土石流及び地滑り":"◎","Takashio":"","地震":"◎","津波":"◎","大規模な火事":"","内水氾濫":"","火山現象":"","指定避難所との重複":"◎","備考":""}},
{"type":"Feature","geometry":{"type":"Point","coordinates":[136.4999928000,34.7206963700]},"properties":{"Name":"西橋内中学校","Jusho":"三重県津市東古河町7-1","Kouzui":"◎","がけ崩れ、土石流及び地滑り":"◎","Takashio":"","地震":"◎","津波":"◎","大規模な火事":"","内水氾濫":"","火山現象":"","指定避難所との重複":"◎","備考":""}},
{"type":"Feature","geometry":{"type":"Point","coordinates":[136.5062651000,34.7219132900]},"properties":{"Name":"養正小学校","Jusho":"三重県津市丸之内養正町14-1","Kouzui":"◎","がけ崩れ、土石流及び地滑り":"◎","Takashio":"","地震":"◎","津波":"◎","大規模な火事":"","内水氾濫":"","火山現象":"","指定避難所との重複":"◎","備考":""}},
{"type":"Feature","geometry":{"type":"Point","coordinates":[136.5133833000,34.7260133200]},"properties":{"Name":"中央市民館","Jusho":"三重県津市愛宕町233","Kouzui":"◎","がけ崩れ、土石流及び地滑り":"◎","Takashio":"","地震":"◎","津波":"","大規模な火事":"","内水氾濫":"","火山現象":"","指定避難所との重複":"◎","備考":""}},
{"type":"Feature","geometry":{"type":"Point","coordinates":[136.5222334000,34.7123113400]},"properties":{"Name":"贄崎地区防災コミュニティセンター","Jusho":"三重県津市港町1-23","Kouzui":"◎","がけ崩れ、土石流及び地滑り":"◎","Takashio":"","地震":"◎","津波":"◎","大規模な火事":"","内水氾濫":"","火山現象":"","指定避難所との重複":"◎","備考":""}},
{"type":"Feature","geometry":{"type":"Point","coordinates":[136.5251769000,34.7258565200]},"properties":{"Name":"高洲町教育集会所","Jusho":"三重県津市高洲町15-30","Kouzui":"◎","がけ崩れ、土石流及び地滑り":"◎","Takashio":"","地震":"◎","津波":"","大規模な火事":"","内水氾濫":"","火山現象":"","指定避難所との重複":"◎","備考":""}},
{"type":"Feature","geometry":{"type":"Point","coordinates":[136.5175812000,34.7265392900]},"properties":{"Name":"さくら児童館","Jusho":"三重県津市中河原2075","Kouzui":"◎","がけ崩れ、土石流及び地滑り":"◎","Takashio":"","地震":"◎","津波":"◎","大規模な火事":"","内水氾濫":"","火山現象":"","指定避難所との重複":"◎","備考":""}},
{"type":"Feature","geometry":{"type":"Point","coordinates":[136.5188555000,34.7211071600]},"properties":{"Name":"東橋内中学校","Jusho":"三重県津市中河原356-2","Kouzui":"◎","がけ崩れ、土石流及び地滑り":"◎","Takashio":"","地震":"◎","津波":"◎","大規模な火事":"","内水氾濫":"","火山現象":"","指定避難所との重複":"◎","備考":""}},
{"type":"Feature","geometry":{"type":"Point","coordinates":[136.5201322000,34.7209396100]},"properties":{"Name":"敬和小学校","Jusho":"三重県津市中河原445","Kouzui":"◎","がけ崩れ、土石流及び地滑り":"◎","Takashio":"","地震":"◎","津波":"◎","大規模な火事":"","内水氾濫":"","火山現象":"","指定避難所との重複":"◎","備考":""}},
{"type":"Feature","geometry":{"type":"Point","coordinates":[136.5155981000,34.7165197800]},"properties":{"Name":"敬和公民館","Jusho":"三重県津市寿町21-22","Kouzui":"◎","がけ崩れ、土石流及び地滑り":"◎","Takashio":"","地震":"◎","津波":"◎","大規模な火事":"","内水氾濫":"","火山現象":"","指定避難所との重複":"◎","備考":""}},
{"type":"Feature","geometry":{"type":"Point","coordinates":[136.5012867000,34.7100733800]},"properties":{"Name":"修成小学校","Jusho":"三重県津市修成町9-1","Kouzui":"◎","がけ崩れ、土石流及び地滑り":"◎","Takashio":"","地震":"◎","津波":"◎","大規模な火事":"","内水氾濫":"","火山現象":"","指定避難所との重複":"◎","備考":""}},
{"type":"Feature","geometry":{"type":"Point","coordinates":[136.4976914000,34.7034026800]},"properties":{"Name":"学校法人セントヨゼフ女子学園（第一体育館・第二体育館）","Jusho":"三重県津市半田1330","Kouzui":"◎","がけ崩れ、土石流及び地滑り":"◎","Takashio":"","地震":"◎","津波":"◎","大規模な火事":"","内水氾濫":"","火山現象":"","指定避難所との重複":"◎","備考":""}},
{"type":"Feature","geometry":{"type":"Point","coordinates":[136.4977023000,34.7096979400]},"properties":{"Name":"三重県立津工業高等学校","Jusho":"三重県津市半田534","Kouzui":"◎","がけ崩れ、土石流及び地滑り":"◎","Takashio":"","地震":"◎","津波":"◎","大規模な火事":"","内水氾濫":"","火山現象":"","指定避難所との重複":"◎","備考":""}},
{"type":"Feature","geometry":{"type":"Point","coordinates":[136.5172062000,34.7079582500]},"properties":{"Name":"阿漕塚記念館","Jusho":"三重県津市柳山津興632","Kouzui":"","がけ崩れ、土石流及び地滑り":"◎","Takashio":"","地震":"◎","津波":"","大規模な火事":"","内水氾濫":"","火山現象":"","指定避難所との重複":"◎","備考":""}},
{"type":"Feature","geometry":{"type":"Point","coordinates":[136.5136494000,34.7057173900]},"properties":{"Name":"三重県立みえ夢学園高等学校","Jusho":"三重県津市柳山津興1239","Kouzui":"◎","がけ崩れ、土石流及び地滑り":"◎","Takashio":"","地震":"◎","津波":"◎","大規模な火事":"","内水氾濫":"","火山現象":"","指定避難所との重複":"◎","備考":""}},
{"type":"Feature","geometry":{"type":"Point","coordinates":[136.5147819000,34.7044610500]},"properties":{"Name":"育生小学校","Jusho":"三重県津市下弁財町津興1350","Kouzui":"◎","がけ崩れ、土石流及び地滑り":"◎","Takashio":"","地震":"◎","津波":"◎","大規模な火事":"","内水氾濫":"","火山現象":"","指定避難所との重複":"◎","備考":""}},
{"type":"Feature","geometry":{"type":"Point","coordinates":[136.5107820000,34.7027511800]},"properties":{"Name":"橋南中学校","Jusho":"三重県津市上弁財町津興2537-4","Kouzui":"◎","がけ崩れ、土石流及び地滑り":"◎","Takashio":"","地震":"◎","津波":"◎","大規模な火事":"","内水氾濫":"","火山現象":"","指定避難所との重複":"◎","備考":""}},
{"type":"Feature","geometry":{"type":"Point","coordinates":[136.5176993000,34.6940749100]},"properties":{"Name":"三重県立聾学校","Jusho":"三重県津市藤方2304-2","Kouzui":"◎","がけ崩れ、土石流及び地滑り":"◎","Takashio":"","地震":"◎","津波":"◎","大規模な火事":"","内水氾濫":"","火山現象":"","指定避難所との重複":"◎","備考":""}},
{"type":"Feature","geometry":{"type":"Point","coordinates":[136.5120419000,34.6897911500]},"properties":{"Name":"藤水小学校","Jusho":"三重県津市藤方1627","Kouzui":"◎","がけ崩れ、土石流及び地滑り":"◎","Takashio":"","地震":"◎","津波":"◎","大規模な火事":"","内水氾濫":"","火山現象":"","指定避難所との重複":"◎","備考":""}},
{"type":"Feature","geometry":{"type":"Point","coordinates":[136.5100494000,34.6854879900]},"properties":{"Name":"藤水出張所","Jusho":"三重県津市藤方1491-2","Kouzui":"◎","がけ崩れ、土石流及び地滑り":"◎","Takashio":"","地震":"◎","津波":"","大規模な火事":"","内水氾濫":"","火山現象":"","指定避難所との重複":"◎","備考":""}},
{"type":"Feature","geometry":{"type":"Point","coordinates":[136.4956366000,34.6900888400]},"properties":{"Name":"南が丘小学校","Jusho":"三重県津市垂水2538-1","Kouzui":"◎","がけ崩れ、土石流及び地滑り":"◎","Takashio":"","地震":"◎","津波":"◎","大規模な火事":"","内水氾濫":"","火山現象":"","指定避難所との重複":"◎","備考":""}},
{"type":"Feature","geometry":{"type":"Point","coordinates":[136.4944618000,34.6887391000]},"properties":{"Name":"南が丘中学校","Jusho":"三重県津市垂水2622-1","Kouzui":"◎","がけ崩れ、土石流及び地滑り":"◎","Takashio":"","地震":"◎","津波":"◎","大規模な火事":"","内水氾濫":"","火山現象":"","指定避難所との重複":"◎","備考":""}},
{"type":"Feature","geometry":{"type":"Point","coordinates":[136.5003110000,34.6973181100]},"properties":{"Name":"南が丘会館","Jusho":"三重県津市垂水2882-1","Kouzui":"◎","がけ崩れ、土石流及び地滑り":"◎","Takashio":"","地震":"◎","津波":"◎","大規模な火事":"","内水氾濫":"","火山現象":"","指定避難所との重複":"◎","備考":""}},
{"type":"Feature","geometry":{"type":"Point","coordinates":[136.5093218000,34.6729601100]},"properties":{"Name":"南郊公民館（高茶屋出張所）","Jusho":"三重県津市高茶屋三丁目25-6","Kouzui":"◎","がけ崩れ、土石流及び地滑り":"◎","Takashio":"","地震":"◎","津波":"◎","大規模な火事":"","内水氾濫":"","火山現象":"","指定避難所との重複":"◎","備考":""}},
{"type":"Feature","geometry":{"type":"Point","coordinates":[136.5088837000,34.6716799000]},"properties":{"Name":"高茶屋小学校","Jusho":"三重県津市高茶屋三丁目1-1","Kouzui":"◎","がけ崩れ、土石流及び地滑り":"◎","Takashio":"","地震":"◎","津波":"◎","大規模な火事":"","内水氾濫":"","火山現象":"","指定避難所との重複":"◎","備考":""}},
{"type":"Feature","geometry":{"type":"Point","coordinates":[136.5090631000,34.6693402100]},"properties":{"Name":"南郊中学校","Jusho":"三重県津市高茶屋四丁目44-1","Kouzui":"◎","がけ崩れ、土石流及び地滑り":"◎","Takashio":"","地震":"◎","津波":"◎","大規模な火事":"","内水氾濫":"","火山現象":"","指定避難所との重複":"◎","備考":""}},
{"type":"Feature","geometry":{"type":"Point","coordinates":[136.5044109000,34.6691739300]},"properties":{"Name":"高茶屋市民センター","Jusho":"三重県津市高茶屋四丁目37-59","Kouzui":"◎","がけ崩れ、土石流及び地滑り":"◎","Takashio":"","地震":"◎","津波":"◎","大規模な火事":"","内水氾濫":"","火山現象":"","指定避難所との重複":"◎","備考":""}},
{"type":"Feature","geometry":{"type":"Point","coordinates":[136.5010509000,34.6650524700]},"properties":{"Name":"三重県立津高等技術学校","Jusho":"三重県津市高茶屋小森町1176-2","Kouzui":"◎","がけ崩れ、土石流及び地滑り":"◎","Takashio":"","地震":"◎","津波":"◎","大規模な火事":"","内水氾濫":"","火山現象":"","指定避難所との重複":"◎","備考":""}},
{"type":"Feature","geometry":{"type":"Point","coordinates":[136.5220940000,34.6656353000]},"properties":{"Name":"雲出出張所","Jusho":"三重県津市雲出本郷町1388-1","Kouzui":"","がけ崩れ、土石流及び地滑り":"◎","Takashio":"","地震":"◎","津波":"","大規模な火事":"","内水氾濫":"","火山現象":"","指定避難所との重複":"◎","備考":""}},
{"type":"Feature","geometry":{"type":"Point","coordinates":[136.5240207000,34.6625542800]},"properties":{"Name":"雲出小学校","Jusho":"三重県津市雲出本郷町1164","Kouzui":"◎","がけ崩れ、土石流及び地滑り":"◎","Takashio":"","地震":"◎","津波":"◎","大規模な火事":"","内水氾濫":"","火山現象":"","指定避難所との重複":"◎","備考":""}},
{"type":"Feature","geometry":{"type":"Point","coordinates":[136.5217527000,34.6654099300]},"properties":{"Name":"雲出市民センター","Jusho":"三重県津市雲出本郷町1389","Kouzui":"","がけ崩れ、土石流及び地滑り":"◎","Takashio":"","地震":"◎","津波":"","大規模な火事":"","内水氾濫":"","火山現象":"","指定避難所との重複":"◎","備考":""}},
{"type":"Feature","geometry":{"type":"Point","coordinates":[136.5135443000,34.6555695400]},"properties":{"Name":"雲出市民館","Jusho":"三重県津市雲出島貫町488-7","Kouzui":"","がけ崩れ、土石流及び地滑り":"◎","Takashio":"","地震":"◎","津波":"","大規模な火事":"","内水氾濫":"","火山現象":"","指定避難所との重複":"◎","備考":""}},
{"type":"Feature","geometry":{"type":"Point","coordinates":[136.5136306000,34.6555319700]},"properties":{"Name":"殿木集会所","Jusho":"三重県津市雲出島貫町488-1","Kouzui":"◎","がけ崩れ、土石流及び地滑り":"◎","Takashio":"","地震":"◎","津波":"◎","大規模な火事":"","内水氾濫":"","火山現象":"","指定避難所との重複":"◎","備考":""}},
{"type":"Feature","geometry":{"type":"Point","coordinates":[136.5365205000,34.6639344800]},"properties":{"Name":"津市防災物流施設","Jusho":"三重県津市雲出伊倉津町792-1","Kouzui":"◎","がけ崩れ、土石流及び地滑り":"◎","Takashio":"","地震":"◎","津波":"◎","大規模な火事":"","内水氾濫":"","火山現象":"","指定避難所との重複":"◎","備考":""}},
{"type":"Feature","geometry":{"type":"Point","coordinates":[136.4843036000,34.6800655400]},"properties":{"Name":"久居体育館","Jusho":"三重県津市久居野村町877-1","Kouzui":"","がけ崩れ、土石流及び地滑り":"◎","Takashio":"","地震":"◎","津波":"◎","大規模な火事":"","内水氾濫":"","火山現象":"","指定避難所との重複":"◎","備考":""}},
{"type":"Feature","geometry":{"type":"Point","coordinates":[136.4891925000,34.6775571200]},"properties":{"Name":"立成小学校","Jusho":"三重県津市久居野村町560","Kouzui":"◎","がけ崩れ、土石流及び地滑り":"◎","Takashio":"","地震":"◎","津波":"◎","大規模な火事":"","内水氾濫":"","火山現象":"","指定避難所との重複":"◎","備考":""}},
{"type":"Feature","geometry":{"type":"Point","coordinates":[136.4772552000,34.6774682400]},"properties":{"Name":"成美小学校","Jusho":"三重県津市久居新町737","Kouzui":"◎","がけ崩れ、土石流及び地滑り":"◎","Takashio":"","地震":"◎","津波":"◎","大規模な火事":"","内水氾濫":"","火山現象":"","指定避難所との重複":"◎","備考":""}},
{"type":"Feature","geometry":{"type":"Point","coordinates":[136.4728201000,34.6811828300]},"properties":{"Name":"北口文化会館デイサービスセンター","Jusho":"三重県津市久居烏木町464-4","Kouzui":"◎","がけ崩れ、土石流及び地滑り":"◎","Takashio":"","地震":"◎","津波":"◎","大規模な火事":"","内水氾濫":"","火山現象":"","指定避難所との重複":"◎","備考":""}},
{"type":"Feature","geometry":{"type":"Point","coordinates":[136.4851532000,34.6687586700]},"properties":{"Name":"久居東中学校","Jusho":"三重県津市久居井戸山町721-1","Kouzui":"◎","がけ崩れ、土石流及び地滑り":"◎","Takashio":"","地震":"◎","津波":"◎","大規模な火事":"","内水氾濫":"","火山現象":"","指定避難所との重複":"◎","備考":""}},
{"type":"Feature","geometry":{"type":"Point","coordinates":[136.4862905000,34.6603291600]},"properties":{"Name":"桃園小学校","Jusho":"三重県津市新家町1350","Kouzui":"◎","がけ崩れ、土石流及び地滑り":"◎","Takashio":"","地震":"◎","津波":"◎","大規模な火事":"","内水氾濫":"","火山現象":"","指定避難所との重複":"◎","備考":""}},
{"type":"Feature","geometry":{"type":"Point","coordinates":[136.4730772000,34.6712070200]},"properties":{"Name":"久居公民館","Jusho":"三重県津市久居元町2354","Kouzui":"◎","がけ崩れ、土石流及び地滑り":"◎","Takashio":"","地震":"◎","津波":"◎","大規模な火事":"","内水氾濫":"","火山現象":"","指定避難所との重複":"◎","備考":""}},
{"type":"Feature","geometry":{"type":"Point","coordinates":[136.4657795000,34.6739251600]},"properties":{"Name":"三重県立久居農林高等学校体育館","Jusho":"三重県津市久居東鷹跡町105","Kouzui":"◎","がけ崩れ、土石流及び地滑り":"◎","Takashio":"","地震":"◎","津波":"◎","大規模な火事":"","内水氾濫":"","火山現象":"","指定避難所との重複":"◎","備考":""}},
{"type":"Feature","geometry":{"type":"Point","coordinates":[136.4602782000,34.6751732600]},"properties":{"Name":"久居中学校","Jusho":"三重県津市久居西鷹跡町494","Kouzui":"◎","がけ崩れ、土石流及び地滑り":"◎","Takashio":"","地震":"◎","津波":"◎","大規模な火事":"","内水氾濫":"","火山現象":"","指定避難所との重複":"◎","備考":""}},
{"type":"Feature","geometry":{"type":"Point","coordinates":[136.4623232000,34.6947268500]},"properties":{"Name":"三重県立久居高等学校体育館","Jusho":"三重県津市戸木町3569-1","Kouzui":"◎","がけ崩れ、土石流及び地滑り":"◎","Takashio":"","地震":"◎","津波":"◎","大規模な火事":"","内水氾濫":"","火山現象":"","指定避難所との重複":"◎","備考":""}},
{"type":"Feature","geometry":{"type":"Point","coordinates":[136.4109290000,34.6791526500]},"properties":{"Name":"栗葉小学校","Jusho":"三重県津市森町270","Kouzui":"","がけ崩れ、土石流及び地滑り":"◎","Takashio":"","地震":"◎","津波":"◎","大規模な火事":"","内水氾濫":"","火山現象":"","指定避難所との重複":"◎","備考":""}},
{"type":"Feature","geometry":{"type":"Point","coordinates":[136.4064479000,34.6876160200]},"properties":{"Name":"久居西中学校","Jusho":"三重県津市久居一色町940","Kouzui":"◎","がけ崩れ、土石流及び地滑り":"◎","Takashio":"","地震":"◎","津波":"◎","大規模な火事":"","内水氾濫":"","火山現象":"","指定避難所との重複":"◎","備考":""}},
{"type":"Feature","geometry":{"type":"Point","coordinates":[136.3723842000,34.7053534700]},"properties":{"Name":"榊原小学校","Jusho":"三重県津市榊原町5848","Kouzui":"◎","がけ崩れ、土石流及び地滑り":"◎","Takashio":"","地震":"◎","津波":"◎","大規模な火事":"","内水氾濫":"","火山現象":"","指定避難所との重複":"◎","備考":""}},
{"type":"Feature","geometry":{"type":"Point","coordinates":[136.4649972000,34.6750427700]},"properties":{"Name":"誠之小学校","Jusho":"三重県津市久居西鷹跡町424","Kouzui":"◎","がけ崩れ、土石流及び地滑り":"◎","Takashio":"","地震":"◎","津波":"◎","大規模な火事":"","内水氾濫":"","火山現象":"","指定避難所との重複":"◎","備考":""}},
{"type":"Feature","geometry":{"type":"Point","coordinates":[136.4688939000,34.6729187800]},"properties":{"Name":"久居総合福祉会館","Jusho":"三重県津市久居東鷹跡町20-2","Kouzui":"◎","がけ崩れ、土石流及び地滑り":"◎","Takashio":"","地震":"◎","津波":"◎","大規模な火事":"","内水氾濫":"","火山現象":"","指定避難所との重複":"◎","備考":""}},
{"type":"Feature","geometry":{"type":"Point","coordinates":[136.4527407000,34.6761652300]},"properties":{"Name":"戸木小学校","Jusho":"三重県津市戸木町880","Kouzui":"◎","がけ崩れ、土石流及び地滑り":"◎","Takashio":"","地震":"◎","津波":"◎","大規模な火事":"","内水氾濫":"","火山現象":"","指定避難所との重複":"◎","備考":""}},
{"type":"Feature","geometry":{"type":"Point","coordinates":[136.5337839000,34.7849607300]},"properties":{"Name":"河芸公民館","Jusho":"三重県津市河芸町浜田742","Kouzui":"◎","がけ崩れ、土石流及び地滑り":"◎","Takashio":"","地震":"◎","津波":"◎","大規模な火事":"","内水氾濫":"","火山現象":"","指定避難所との重複":"◎","備考":""}},
{"type":"Feature","geometry":{"type":"Point","coordinates":[136.5351070000,34.7863882300]},"properties":{"Name":"河芸体育館","Jusho":"三重県津市河芸町浜田774","Kouzui":"◎","がけ崩れ、土石流及び地滑り":"◎","Takashio":"","地震":"◎","津波":"◎","大規模な火事":"","内水氾濫":"","火山現象":"","指定避難所との重複":"◎","備考":""}},
{"type":"Feature","geometry":{"type":"Point","coordinates":[136.5361606000,34.7843166700]},"properties":{"Name":"朝陽中学校","Jusho":"三重県津市河芸町上野2010","Kouzui":"◎","がけ崩れ、土石流及び地滑り":"◎","Takashio":"","地震":"◎","津波":"◎","大規模な火事":"","内水氾濫":"","火山現象":"","指定避難所との重複":"◎","備考":""}},
{"type":"Feature","geometry":{"type":"Point","coordinates":[136.5439370000,34.7835675900]},"properties":{"Name":"豊津小学校","Jusho":"三重県津市河芸町一色1680","Kouzui":"◎","がけ崩れ、土石流及び地滑り":"◎","Takashio":"","地震":"◎","津波":"◎","大規模な火事":"","内水氾濫":"","火山現象":"","指定避難所との重複":"◎","備考":""}},
{"type":"Feature","geometry":{"type":"Point","coordinates":[136.5486238000,34.7948466600]},"properties":{"Name":"上野小学校","Jusho":"三重県津市河芸町上野2963","Kouzui":"◎","がけ崩れ、土石流及び地滑り":"◎","Takashio":"","地震":"◎","津波":"◎","大規模な火事":"","内水氾濫":"","火山現象":"","指定避難所との重複":"◎","備考":""}},
{"type":"Feature","geometry":{"type":"Point","coordinates":[136.5207618000,34.7888963600]},"properties":{"Name":"黒田小学校","Jusho":"三重県津市河芸町北黒田109-1","Kouzui":"◎","がけ崩れ、土石流及び地滑り":"◎","Takashio":"","地震":"◎","津波":"◎","大規模な火事":"","内水氾濫":"","火山現象":"","指定避難所との重複":"◎","備考":""}},
{"type":"Feature","geometry":{"type":"Point","coordinates":[136.5486259000,34.8051162600]},"properties":{"Name":"千里ヶ丘小学校","Jusho":"三重県津市河芸町千里ヶ丘13","Kouzui":"◎","がけ崩れ、土石流及び地滑り":"◎","Takashio":"","地震":"◎","津波":"◎","大規模な火事":"","内水氾濫":"","火山現象":"","指定避難所との重複":"◎","備考":""}},
{"type":"Feature","geometry":{"type":"Point","coordinates":[136.4277100000,34.8107184000]},"properties":{"Name":"芸濃小学校","Jusho":"三重県津市芸濃町椋本5047","Kouzui":"◎","がけ崩れ、土石流及び地滑り":"◎","Takashio":"","地震":"◎","津波":"◎","大規模な火事":"","内水氾濫":"","火山現象":"","指定避難所との重複":"◎","備考":""}},
{"type":"Feature","geometry":{"type":"Point","coordinates":[136.4243717000,34.8125947100]},"properties":{"Name":"芸濃総合文化センター","Jusho":"三重県津市芸濃町椋本6824","Kouzui":"◎","がけ崩れ、土石流及び地滑り":"◎","Takashio":"","地震":"◎","津波":"◎","大規模な火事":"","内水氾濫":"","火山現象":"","指定避難所との重複":"◎","備考":""}},
{"type":"Feature","geometry":{"type":"Point","coordinates":[136.4251485000,34.8118085900]},"properties":{"Name":"芸濃中学校","Jusho":"三重県津市芸濃町椋本5147","Kouzui":"◎","がけ崩れ、土石流及び地滑り":"◎","Takashio":"","地震":"◎","津波":"◎","大規模な火事":"","内水氾濫":"","火山現象":"","指定避難所との重複":"◎","備考":""}},
{"type":"Feature","geometry":{"type":"Point","coordinates":[136.4205971000,34.8283002200]},"properties":{"Name":"明小学校","Jusho":"三重県津市芸濃町林325","Kouzui":"◎","がけ崩れ、土石流及び地滑り":"◎","Takashio":"","地震":"◎","津波":"◎","大規模な火事":"","内水氾濫":"","火山現象":"","指定避難所との重複":"◎","備考":""}},
{"type":"Feature","geometry":{"type":"Point","coordinates":[136.4278900000,34.7978200400]},"properties":{"Name":"（旧）安西小学校","Jusho":"三重県津市芸濃町北神山310","Kouzui":"◎","がけ崩れ、土石流及び地滑り":"◎","Takashio":"","地震":"◎","津波":"◎","大規模な火事":"","内水氾濫":"","火山現象":"","指定避難所との重複":"◎","備考":""}},
{"type":"Feature","geometry":{"type":"Point","coordinates":[136.4067703000,34.8071723500]},"properties":{"Name":"（旧）雲林院小学校","Jusho":"三重県津市芸濃町雲林院566","Kouzui":"◎","がけ崩れ、土石流及び地滑り":"◎","Takashio":"","地震":"◎","津波":"◎","大規模な火事":"","内水氾濫":"","火山現象":"","指定避難所との重複":"◎","備考":""}},
{"type":"Feature","geometry":{"type":"Point","coordinates":[136.3678197000,34.8096166400]},"properties":{"Name":"錫杖湖水荘","Jusho":"三重県津市芸濃町河内679","Kouzui":"◎","がけ崩れ、土石流及び地滑り":"","Takashio":"","地震":"◎","津波":"◎","大規模な火事":"","内水氾濫":"","火山現象":"","指定避難所との重複":"◎","備考":""}},
{"type":"Feature","geometry":{"type":"Point","coordinates":[136.3867355000,34.7220639500]},"properties":{"Name":"美里社会福祉センター","Jusho":"三重県津市美里町三郷46-3","Kouzui":"◎","がけ崩れ、土石流及び地滑り":"◎","Takashio":"","地震":"◎","津波":"◎","大規模な火事":"","内水氾濫":"","火山現象":"","指定避難所との重複":"◎","備考":""}},
{"type":"Feature","geometry":{"type":"Point","coordinates":[136.3624585000,34.7449813200]},"properties":{"Name":"（旧）長野小学校","Jusho":"三重県津市美里町北長野1435","Kouzui":"◎","がけ崩れ、土石流及び地滑り":"◎","Takashio":"","地震":"◎","津波":"◎","大規模な火事":"","内水氾濫":"","火山現象":"","指定避難所との重複":"◎","備考":""}},
{"type":"Feature","geometry":{"type":"Point","coordinates":[136.3917199000,34.7204482200]},"properties":{"Name":"（旧）高宮小学校","Jusho":"三重県津市美里町足坂585","Kouzui":"◎","がけ崩れ、土石流及び地滑り":"","Takashio":"","地震":"◎","津波":"◎","大規模な火事":"","内水氾濫":"","火山現象":"","指定避難所との重複":"◎","備考":""}},
{"type":"Feature","geometry":{"type":"Point","coordinates":[136.4090783000,34.7341679600]},"properties":{"Name":"（旧）辰水小学校","Jusho":"三重県津市美里町家所2045","Kouzui":"◎","がけ崩れ、土石流及び地滑り":"◎","Takashio":"","地震":"◎","津波":"◎","大規模な火事":"","内水氾濫":"","火山現象":"","指定避難所との重複":"◎","備考":""}},
{"type":"Feature","geometry":{"type":"Point","coordinates":[136.3873200000,34.7188939100]},"properties":{"Name":"みさとの丘学園","Jusho":"三重県津市美里町三郷84","Kouzui":"◎","がけ崩れ、土石流及び地滑り":"◎","Takashio":"","地震":"◎","津波":"◎","大規模な火事":"","内水氾濫":"","火山現象":"","指定避難所との重複":"◎","備考":""}},
{"type":"Feature","geometry":{"type":"Point","coordinates":[136.4268559000,34.7640210400]},"properties":{"Name":"草生小学校","Jusho":"三重県津市安濃町草生4209","Kouzui":"◎","がけ崩れ、土石流及び地滑り":"◎","Takashio":"","地震":"◎","津波":"◎","大規模な火事":"","内水氾濫":"","火山現象":"","指定避難所との重複":"◎","備考":""}},
{"type":"Feature","geometry":{"type":"Point","coordinates":[136.4263373000,34.7634436500]},"properties":{"Name":"草生公民館","Jusho":"三重県津市安濃町草生4249-1","Kouzui":"◎","がけ崩れ、土石流及び地滑り":"◎","Takashio":"","地震":"◎","津波":"◎","大規模な火事":"","内水氾濫":"","火山現象":"","指定避難所との重複":"◎","備考":""}},
{"type":"Feature","geometry":{"type":"Point","coordinates":[136.4513008000,34.7501052500]},"properties":{"Name":"村主小学校","Jusho":"三重県津市安濃町連部68","Kouzui":"◎","がけ崩れ、土石流及び地滑り":"◎","Takashio":"","地震":"◎","津波":"◎","大規模な火事":"","内水氾濫":"","火山現象":"","指定避難所との重複":"◎","備考":""}},
{"type":"Feature","geometry":{"type":"Point","coordinates":[136.4507309000,34.7500854800]},"properties":{"Name":"村主公民館","Jusho":"三重県津市安濃町連部69-1","Kouzui":"","がけ崩れ、土石流及び地滑り":"◎","Takashio":"","地震":"◎","津波":"◎","大規模な火事":"","内水氾濫":"","火山現象":"","指定避難所との重複":"◎","備考":""}},
{"type":"Feature","geometry":{"type":"Point","coordinates":[136.4591956000,34.7589777200]},"properties":{"Name":"安濃小学校","Jusho":"三重県津市安濃町内多451","Kouzui":"◎","がけ崩れ、土石流及び地滑り":"◎","Takashio":"","地震":"◎","津波":"◎","大規模な火事":"","内水氾濫":"","火山現象":"","指定避難所との重複":"◎","備考":""}},
{"type":"Feature","geometry":{"type":"Point","coordinates":[136.4598875000,34.7595627300]},"properties":{"Name":"安濃公民館","Jusho":"三重県津市安濃町内多3653","Kouzui":"","がけ崩れ、土石流及び地滑り":"◎","Takashio":"","地震":"◎","津波":"◎","大規模な火事":"","内水氾濫":"","火山現象":"","指定避難所との重複":"◎","備考":""}},
{"type":"Feature","geometry":{"type":"Point","coordinates":[136.4373224000,34.7770209100]},"properties":{"Name":"明合小学校","Jusho":"三重県津市安濃町粟加978","Kouzui":"◎","がけ崩れ、土石流及び地滑り":"◎","Takashio":"","地震":"◎","津波":"◎","大規模な火事":"","内水氾濫":"","火山現象":"","指定避難所との重複":"◎","備考":""}},
{"type":"Feature","geometry":{"type":"Point","coordinates":[136.4367710000,34.7770550000]},"properties":{"Name":"明合公民館","Jusho":"三重県津市安濃町粟加978","Kouzui":"◎","がけ崩れ、土石流及び地滑り":"◎","Takashio":"","地震":"◎","津波":"◎","大規模な火事":"","内水氾濫":"","火山現象":"","指定避難所との重複":"◎","備考":""}},
{"type":"Feature","geometry":{"type":"Point","coordinates":[136.4460370000,34.7607990000]},"properties":{"Name":"東観中学校","Jusho":"三重県津市安濃町東観音寺494-1","Kouzui":"◎","がけ崩れ、土石流及び地滑り":"◎","Takashio":"","地震":"◎","津波":"◎","大規模な火事":"","内水氾濫":"","火山現象":"","指定避難所との重複":"◎","備考":""}},
{"type":"Feature","geometry":{"type":"Point","coordinates":[136.4360564000,34.7690165300]},"properties":{"Name":"安濃中央総合公園内体育館","Jusho":"三重県津市安濃町田端上野818","Kouzui":"◎","がけ崩れ、土石流及び地滑り":"◎","Takashio":"","地震":"◎","津波":"◎","大規模な火事":"","内水氾濫":"","火山現象":"","指定避難所との重複":"◎","備考":""}},
{"type":"Feature","geometry":{"type":"Point","coordinates":[136.4453646000,34.7592588600]},"properties":{"Name":"安濃交流会館","Jusho":"三重県津市安濃町東観音寺51-3","Kouzui":"◎","がけ崩れ、土石流及び地滑り":"◎","Takashio":"","地震":"◎","津波":"◎","大規模な火事":"","内水氾濫":"","火山現象":"","指定避難所との重複":"◎","備考":""}},
{"type":"Feature","geometry":{"type":"Point","coordinates":[136.4440905000,34.7621292800]},"properties":{"Name":"サンヒルズ安濃","Jusho":"三重県津市安濃町東観音寺418","Kouzui":"◎","がけ崩れ、土石流及び地滑り":"◎","Takashio":"","地震":"◎","津波":"◎","大規模な火事":"","内水氾濫":"","火山現象":"","指定避難所との重複":"◎","備考":""}},
{"type":"Feature","geometry":{"type":"Point","coordinates":[136.5422253000,34.6456691700]},"properties":{"Name":"香良洲小学校","Jusho":"三重県津市香良洲町2190-1","Kouzui":"◎","がけ崩れ、土石流及び地滑り":"◎","Takashio":"","地震":"◎","津波":"◎","大規模な火事":"","内水氾濫":"","火山現象":"","指定避難所との重複":"◎","備考":""}},
{"type":"Feature","geometry":{"type":"Point","coordinates":[136.5313488000,34.6516063400]},"properties":{"Name":"香海中学校","Jusho":"三重県津市香良洲町128","Kouzui":"◎","がけ崩れ、土石流及び地滑り":"◎","Takashio":"","地震":"◎","津波":"◎","大規模な火事":"","内水氾濫":"","火山現象":"","指定避難所との重複":"◎","備考":""}},
{"type":"Feature","geometry":{"type":"Point","coordinates":[136.5394866000,34.6439694900]},"properties":{"Name":"香良洲公民館","Jusho":"三重県津市香良洲町1876-1","Kouzui":"","がけ崩れ、土石流及び地滑り":"◎","Takashio":"","地震":"◎","津波":"","大規模な火事":"","内水氾濫":"","火山現象":"","指定避難所との重複":"◎","備考":""}},
{"type":"Feature","geometry":{"type":"Point","coordinates":[136.5436301000,34.6460335900]},"properties":{"Name":"香良洲歴史資料館（若桜会館）","Jusho":"三重県津市香良洲町6320","Kouzui":"◎","がけ崩れ、土石流及び地滑り":"◎","Takashio":"","地震":"◎","津波":"◎","大規模な火事":"","内水氾濫":"","火山現象":"","指定避難所との重複":"◎","備考":""}},
{"type":"Feature","geometry":{"type":"Point","coordinates":[136.5403425000,34.6470076000]},"properties":{"Name":"まつぼっくり作業所","Jusho":"三重県津市香良洲町5722","Kouzui":"◎","がけ崩れ、土石流及び地滑り":"◎","Takashio":"","地震":"◎","津波":"◎","大規模な火事":"","内水氾濫":"","火山現象":"","指定避難所との重複":"◎","備考":""}},
{"type":"Feature","geometry":{"type":"Point","coordinates":[136.5455372000,34.6450899000]},"properties":{"Name":"香良洲体育館","Jusho":"三重県津市香良洲町3952-90","Kouzui":"","がけ崩れ、土石流及び地滑り":"◎","Takashio":"","地震":"◎","津波":"","大規模な火事":"","内水氾濫":"","火山現象":"","指定避難所との重複":"◎","備考":""}},
{"type":"Feature","geometry":{"type":"Point","coordinates":[136.5425284000,34.6438317000]},"properties":{"Name":"サンデルタ香良洲","Jusho":"三重県津市香良洲町2167","Kouzui":"","がけ崩れ、土石流及び地滑り":"◎","Takashio":"","地震":"◎","津波":"","大規模な火事":"","内水氾濫":"","火山現象":"","指定避難所との重複":"◎","備考":""}},
{"type":"Feature","geometry":{"type":"Point","coordinates":[136.4106745000,34.6455262000]},"properties":{"Name":"（旧）大井小学校","Jusho":"三重県津市一志町大仰326","Kouzui":"◎","がけ崩れ、土石流及び地滑り":"◎","Takashio":"","地震":"◎","津波":"◎","大規模な火事":"","内水氾濫":"","火山現象":"","指定避難所との重複":"◎","備考":""}},
{"type":"Feature","geometry":{"type":"Point","coordinates":[136.4462357000,34.6527197300]},"properties":{"Name":"一志東小学校","Jusho":"三重県津市一志町八太785-1","Kouzui":"◎","がけ崩れ、土石流及び地滑り":"◎","Takashio":"","地震":"◎","津波":"◎","大規模な火事":"","内水氾濫":"","火山現象":"","指定避難所との重複":"◎","備考":""}},
{"type":"Feature","geometry":{"type":"Point","coordinates":[136.4269445000,34.6559657500]},"properties":{"Name":"一志西小学校","Jusho":"三重県津市一志町田尻353-1","Kouzui":"◎","がけ崩れ、土石流及び地滑り":"◎","Takashio":"","地震":"◎","津波":"◎","大規模な火事":"","内水氾濫":"","火山現象":"","指定避難所との重複":"◎","備考":""}},
{"type":"Feature","geometry":{"type":"Point","coordinates":[136.3901233000,34.6239882900]},"properties":{"Name":"（旧）波瀬小学校","Jusho":"三重県津市一志町波瀬2236","Kouzui":"◎","がけ崩れ、土石流及び地滑り":"◎","Takashio":"","地震":"◎","津波":"◎","大規模な火事":"","内水氾濫":"","火山現象":"","指定避難所との重複":"◎","備考":""}},
{"type":"Feature","geometry":{"type":"Point","coordinates":[136.4222896000,34.6567497100]},"properties":{"Name":"一志中学校","Jusho":"三重県津市一志町高野2609","Kouzui":"◎","がけ崩れ、土石流及び地滑り":"◎","Takashio":"","地震":"◎","津波":"◎","大規模な火事":"","内水氾濫":"","火山現象":"","指定避難所との重複":"◎","備考":""}},
{"type":"Feature","geometry":{"type":"Point","coordinates":[136.4116965000,34.6453716500]},"properties":{"Name":"大井公民館","Jusho":"三重県津市一志町大仰217-1","Kouzui":"","がけ崩れ、土石流及び地滑り":"","Takashio":"","地震":"◎","津波":"◎","大規模な火事":"","内水氾濫":"","火山現象":"","指定避難所との重複":"◎","備考":""}},
{"type":"Feature","geometry":{"type":"Point","coordinates":[136.4482902000,34.6516033900]},"properties":{"Name":"コミュニティプラザ川合（川合公民館）","Jusho":"三重県津市一志町八太1008-1","Kouzui":"","がけ崩れ、土石流及び地滑り":"◎","Takashio":"","地震":"◎","津波":"◎","大規模な火事":"","内水氾濫":"","火山現象":"","指定避難所との重複":"◎","備考":""}},
{"type":"Feature","geometry":{"type":"Point","coordinates":[136.4343648000,34.6557920700]},"properties":{"Name":"一志高岡公民館","Jusho":"三重県津市一志町田尻605-2","Kouzui":"◎","がけ崩れ、土石流及び地滑り":"◎","Takashio":"","地震":"◎","津波":"◎","大規模な火事":"","内水氾濫":"","火山現象":"","指定避難所との重複":"◎","備考":""}},
{"type":"Feature","geometry":{"type":"Point","coordinates":[136.3912384000,34.6234957300]},"properties":{"Name":"波瀬ふれあい会館","Jusho":"三重県津市一志町波瀬2232-2","Kouzui":"◎","がけ崩れ、土石流及び地滑り":"◎","Takashio":"","地震":"◎","津波":"◎","大規模な火事":"","内水氾濫":"","火山現象":"","指定避難所との重複":"◎","備考":""}},
{"type":"Feature","geometry":{"type":"Point","coordinates":[136.4207316000,34.6547822400]},"properties":{"Name":"とことめの里一志","Jusho":"三重県津市一志町井関1792","Kouzui":"◎","がけ崩れ、土石流及び地滑り":"◎","Takashio":"","地震":"◎","津波":"◎","大規模な火事":"","内水氾濫":"","火山現象":"","指定避難所との重複":"◎","備考":""}},
{"type":"Feature","geometry":{"type":"Point","coordinates":[136.4244222000,34.6585597000]},"properties":{"Name":"一志体育館","Jusho":"三重県津市一志町高野160-728","Kouzui":"◎","がけ崩れ、土石流及び地滑り":"◎","Takashio":"","地震":"◎","津波":"◎","大規模な火事":"","内水氾濫":"","火山現象":"","指定避難所との重複":"◎","備考":""}},
{"type":"Feature","geometry":{"type":"Point","coordinates":[136.3138258000,34.6274062100]},"properties":{"Name":"家城小学校","Jusho":"三重県津市白山町南家城647","Kouzui":"◎","がけ崩れ、土石流及び地滑り":"◎","Takashio":"","地震":"◎","津波":"◎","大規模な火事":"","内水氾濫":"","火山現象":"","指定避難所との重複":"◎","備考":""}},
{"type":"Feature","geometry":{"type":"Point","coordinates":[136.3215360000,34.6265813100]},"properties":{"Name":"家城公民館","Jusho":"三重県津市白山町南家城851-3","Kouzui":"◎","がけ崩れ、土石流及び地滑り":"◎","Takashio":"","地震":"◎","津波":"◎","大規模な火事":"","内水氾濫":"","火山現象":"","指定避難所との重複":"◎","備考":""}},
{"type":"Feature","geometry":{"type":"Point","coordinates":[136.2852558000,34.6251069300]},"properties":{"Name":"元取公民館","Jusho":"三重県津市白山町城立305","Kouzui":"◎","がけ崩れ、土石流及び地滑り":"","Takashio":"","地震":"◎","津波":"◎","大規模な火事":"","内水氾濫":"","火山現象":"","指定避難所との重複":"◎","備考":""}},
{"type":"Feature","geometry":{"type":"Point","coordinates":[136.3731826000,34.6640319100]},"properties":{"Name":"大三小学校","Jusho":"三重県津市白山町二本木296","Kouzui":"◎","がけ崩れ、土石流及び地滑り":"◎","Takashio":"","地震":"◎","津波":"◎","大規模な火事":"","内水氾濫":"","火山現象":"","指定避難所との重複":"◎","備考":""}},
{"type":"Feature","geometry":{"type":"Point","coordinates":[136.3707257000,34.6659952900]},"properties":{"Name":"大三公民館","Jusho":"三重県津市白山町二本木1001-253","Kouzui":"◎","がけ崩れ、土石流及び地滑り":"◎","Takashio":"","地震":"◎","津波":"◎","大規模な火事":"","内水氾濫":"","火山現象":"","指定避難所との重複":"◎","備考":""}},
{"type":"Feature","geometry":{"type":"Point","coordinates":[136.3367550000,34.6442917000]},"properties":{"Name":"白山中学校","Jusho":"三重県津市白山町川口471-6","Kouzui":"◎","がけ崩れ、土石流及び地滑り":"◎","Takashio":"","地震":"◎","津波":"◎","大規模な火事":"","内水氾濫":"","火山現象":"","指定避難所との重複":"◎","備考":""}},
{"type":"Feature","geometry":{"type":"Point","coordinates":[136.3401883000,34.6390239000]},"properties":{"Name":"白山公民館","Jusho":"三重県津市白山町川口897","Kouzui":"◎","がけ崩れ、土石流及び地滑り":"◎","Takashio":"","地震":"◎","津波":"◎","大規模な火事":"","内水氾濫":"","火山現象":"","指定避難所との重複":"◎","備考":""}},
{"type":"Feature","geometry":{"type":"Point","coordinates":[136.3479619000,34.6425532300]},"properties":{"Name":"川口小学校","Jusho":"三重県津市白山町川口1991","Kouzui":"◎","がけ崩れ、土石流及び地滑り":"◎","Takashio":"","地震":"◎","津波":"◎","大規模な火事":"","内水氾濫":"","火山現象":"","指定避難所との重複":"◎","備考":""}},
{"type":"Feature","geometry":{"type":"Point","coordinates":[136.3353938000,34.6674369400]},"properties":{"Name":"倭小学校","Jusho":"三重県津市白山町上ノ村183","Kouzui":"◎","がけ崩れ、土石流及び地滑り":"◎","Takashio":"","地震":"◎","津波":"◎","大規模な火事":"","内水氾濫":"","火山現象":"","指定避難所との重複":"◎","備考":""}},
{"type":"Feature","geometry":{"type":"Point","coordinates":[136.3437381000,34.6686204800]},"properties":{"Name":"倭公民館","Jusho":"三重県津市白山町中ノ村581","Kouzui":"◎","がけ崩れ、土石流及び地滑り":"◎","Takashio":"","地震":"◎","津波":"◎","大規模な火事":"","内水氾濫":"","火山現象":"","指定避難所との重複":"◎","備考":""}},
{"type":"Feature","geometry":{"type":"Point","coordinates":[136.3269779000,34.6491378600]},"properties":{"Name":"八ツ山小学校","Jusho":"三重県津市白山町八対野2480","Kouzui":"◎","がけ崩れ、土石流及び地滑り":"◎","Takashio":"","地震":"◎","津波":"◎","大規模な火事":"","内水氾濫":"","火山現象":"","指定避難所との重複":"◎","備考":""}},
{"type":"Feature","geometry":{"type":"Point","coordinates":[136.3293061000,34.6493377600]},"properties":{"Name":"八ツ山公民館","Jusho":"三重県津市白山町八対野994-1","Kouzui":"◎","がけ崩れ、土石流及び地滑り":"◎","Takashio":"","地震":"◎","津波":"◎","大規模な火事":"","内水氾濫":"","火山現象":"","指定避難所との重複":"◎","備考":""}},
{"type":"Feature","geometry":{"type":"Point","coordinates":[136.3408258000,34.6508820700]},"properties":{"Name":"白山体育館","Jusho":"三重県津市白山町古市808","Kouzui":"◎","がけ崩れ、土石流及び地滑り":"◎","Takashio":"","地震":"◎","津波":"◎","大規模な火事":"","内水氾濫":"","火山現象":"","指定避難所との重複":"◎","備考":""}},
{"type":"Feature","geometry":{"type":"Point","coordinates":[136.3050400000,34.5943164800]},"properties":{"Name":"竹原地域住民センター","Jusho":"三重県津市美杉町竹原2777","Kouzui":"◎","がけ崩れ、土石流及び地滑り":"◎","Takashio":"","地震":"◎","津波":"◎","大規模な火事":"","内水氾濫":"","火山現象":"","指定避難所との重複":"◎","備考":""}},
{"type":"Feature","geometry":{"type":"Point","coordinates":[136.3099925000,34.6008855500]},"properties":{"Name":"竹原コミュニティ防災センター","Jusho":"三重県津市美杉町竹原241-1","Kouzui":"◎","がけ崩れ、土石流及び地滑り":"","Takashio":"","地震":"◎","津波":"◎","大規模な火事":"","内水氾濫":"","火山現象":"","指定避難所との重複":"◎","備考":""}},
{"type":"Feature","geometry":{"type":"Point","coordinates":[136.3054925000,34.5947206200]},"properties":{"Name":"竹原多目的集会所","Jusho":"三重県津市美杉町竹原2821","Kouzui":"◎","がけ崩れ、土石流及び地滑り":"◎","Takashio":"","地震":"◎","津波":"◎","大規模な火事":"","内水氾濫":"","火山現象":"","指定避難所との重複":"◎","備考":""}},
{"type":"Feature","geometry":{"type":"Point","coordinates":[136.3054962000,34.5938308600]},"properties":{"Name":"美杉竹原体育館","Jusho":"三重県津市美杉町竹原2796","Kouzui":"◎","がけ崩れ、土石流及び地滑り":"◎","Takashio":"","地震":"◎","津波":"◎","大規模な火事":"","内水氾濫":"","火山現象":"","指定避難所との重複":"◎","備考":""}},
{"type":"Feature","geometry":{"type":"Point","coordinates":[136.2623599000,34.5559385400]},"properties":{"Name":"美杉総合文化センター","Jusho":"三重県津市美杉町八知5580-2","Kouzui":"◎","がけ崩れ、土石流及び地滑り":"","Takashio":"","地震":"◎","津波":"◎","大規模な火事":"","内水氾濫":"","火山現象":"","指定避難所との重複":"◎","備考":""}},
{"type":"Feature","geometry":{"type":"Point","coordinates":[136.2647516000,34.5549840500]},"properties":{"Name":"美杉中学校","Jusho":"三重県津市美杉町八知5800","Kouzui":"◎","がけ崩れ、土石流及び地滑り":"◎","Takashio":"","地震":"◎","津波":"◎","大規模な火事":"","内水氾濫":"","火山現象":"","指定避難所との重複":"◎","備考":""}},
{"type":"Feature","geometry":{"type":"Point","coordinates":[136.1939196000,34.5352961300]},"properties":{"Name":"太郎生多目的集会所","Jusho":"三重県津市美杉町太郎生2120","Kouzui":"◎","がけ崩れ、土石流及び地滑り":"◎","Takashio":"","地震":"◎","津波":"◎","大規模な火事":"","内水氾濫":"","火山現象":"","指定避難所との重複":"◎","備考":""}},
{"type":"Feature","geometry":{"type":"Point","coordinates":[136.1945881000,34.5345151700]},"properties":{"Name":"（旧）太郎生小学校","Jusho":"三重県津市美杉町太郎生2128-1","Kouzui":"◎","がけ崩れ、土石流及び地滑り":"◎","Takashio":"","地震":"◎","津波":"◎","大規模な火事":"","内水氾濫":"","火山現象":"","指定避難所との重複":"◎","備考":""}},
{"type":"Feature","geometry":{"type":"Point","coordinates":[136.2388827000,34.5135513700]},"properties":{"Name":"伊勢地地域住民センター","Jusho":"三重県津市美杉町石名原1681","Kouzui":"◎","がけ崩れ、土石流及び地滑り":"","Takashio":"","地震":"◎","津波":"◎","大規模な火事":"","内水氾濫":"","火山現象":"","指定避難所との重複":"◎","備考":""}},
{"type":"Feature","geometry":{"type":"Point","coordinates":[136.2378675000,34.5137738100]},"properties":{"Name":"伊勢地多目的集会所","Jusho":"三重県津市美杉町石名原1583","Kouzui":"◎","がけ崩れ、土石流及び地滑り":"","Takashio":"","地震":"◎","津波":"◎","大規模な火事":"","内水氾濫":"","火山現象":"","指定避難所との重複":"◎","備考":""}},
{"type":"Feature","geometry":{"type":"Point","coordinates":[136.2383033000,34.5135469500]},"properties":{"Name":"美杉伊勢地体育館","Jusho":"三重県津市美杉町石名原1581-2","Kouzui":"◎","がけ崩れ、土石流及び地滑り":"","Takashio":"","地震":"◎","津波":"◎","大規模な火事":"","内水氾濫":"","火山現象":"","指定避難所との重複":"◎","備考":""}},
{"type":"Feature","geometry":{"type":"Point","coordinates":[136.2601413000,34.5120880400]},"properties":{"Name":"八幡地域住民センター","Jusho":"三重県津市美杉町奥津1288-8","Kouzui":"◎","がけ崩れ、土石流及び地滑り":"","Takashio":"","地震":"◎","津波":"◎","大規模な火事":"","内水氾濫":"","火山現象":"","指定避難所との重複":"◎","備考":""}},
{"type":"Feature","geometry":{"type":"Point","coordinates":[136.2606401000,34.5113896300]},"properties":{"Name":"八幡生活改善センター","Jusho":"三重県津市美杉町奥津1294","Kouzui":"◎","がけ崩れ、土石流及び地滑り":"","Takashio":"","地震":"","津波":"","大規模な火事":"","内水氾濫":"","火山現象":"","指定避難所との重複":"◎","備考":""}},
{"type":"Feature","geometry":{"type":"Point","coordinates":[136.2658192000,34.4794766100]},"properties":{"Name":"美杉高齢者婦人センター「しゃくなげ会館」","Jusho":"三重県津市美杉町川上3372","Kouzui":"◎","がけ崩れ、土石流及び地滑り":"","Takashio":"","地震":"◎","津波":"◎","大規模な火事":"","内水氾濫":"","火山現象":"","指定避難所との重複":"◎","備考":""}},
{"type":"Feature","geometry":{"type":"Point","coordinates":[136.2689960000,34.5114089100]},"properties":{"Name":"美杉高齢者生活福祉センター","Jusho":"三重県津市美杉町奥津929","Kouzui":"◎","がけ崩れ、土石流及び地滑り":"◎","Takashio":"","地震":"◎","津波":"◎","大規模な火事":"","内水氾濫":"","火山現象":"","指定避難所との重複":"◎","備考":""}},
{"type":"Feature","geometry":{"type":"Point","coordinates":[136.2664024000,34.5117910700]},"properties":{"Name":"美杉小学校","Jusho":"三重県津市美杉町奥津1025","Kouzui":"◎","がけ崩れ、土石流及び地滑り":"","Takashio":"","地震":"◎","津波":"◎","大規模な火事":"","内水氾濫":"","火山現象":"","指定避難所との重複":"◎","備考":""}},
{"type":"Feature","geometry":{"type":"Point","coordinates":[136.3001163000,34.5166435800]},"properties":{"Name":"多気地域住民センター","Jusho":"三重県津市美杉町上多気1031","Kouzui":"◎","がけ崩れ、土石流及び地滑り":"","Takashio":"","地震":"◎","津波":"◎","大規模な火事":"","内水氾濫":"","火山現象":"","指定避難所との重複":"◎","備考":""}},
{"type":"Feature","geometry":{"type":"Point","coordinates":[136.3032529000,34.4891887100]},"properties":{"Name":"丹生俣多目的集会所","Jusho":"三重県津市美杉町丹生俣1360-2","Kouzui":"◎","がけ崩れ、土石流及び地滑り":"","Takashio":"","地震":"◎","津波":"◎","大規模な火事":"","内水氾濫":"","火山現象":"","指定避難所との重複":"◎","備考":""}},
{"type":"Feature","geometry":{"type":"Point","coordinates":[136.3000031000,34.5168402600]},"properties":{"Name":"美杉多気体育館","Jusho":"三重県津市美杉町上多気1042-5","Kouzui":"◎","がけ崩れ、土石流及び地滑り":"","Takashio":"","地震":"◎","津波":"◎","大規模な火事":"","内水氾濫":"","火山現象":"","指定避難所との重複":"◎","備考":""}},
{"type":"Feature","geometry":{"type":"Point","coordinates":[136.3419460000,34.5573071600]},"properties":{"Name":"下之川地域住民センター","Jusho":"三重県津市美杉町下之川6115","Kouzui":"◎","がけ崩れ、土石流及び地滑り":"◎","Takashio":"","地震":"◎","津波":"◎","大規模な火事":"","内水氾濫":"","火山現象":"","指定避難所との重複":"◎","備考":""}},
{"type":"Feature","geometry":{"type":"Point","coordinates":[136.3400792000,34.5550672500]},"properties":{"Name":"下之川生活改善センター","Jusho":"三重県津市美杉町下之川1875","Kouzui":"◎","がけ崩れ、土石流及び地滑り":"","Takashio":"","地震":"◎","津波":"◎","大規模な火事":"","内水氾濫":"","火山現象":"","指定避難所との重複":"◎","備考":""}},
{"type":"Feature","geometry":{"type":"Point","coordinates":[136.3425254000,34.5576429200]},"properties":{"Name":"美杉下之川体育館","Jusho":"三重県津市美杉町下之川6098-2","Kouzui":"◎","がけ崩れ、土石流及び地滑り":"◎","Takashio":"","地震":"◎","津波":"◎","大規模な火事":"","内水氾濫":"","火山現象":"","指定避難所との重複":"◎","備考":""}},
{"type":"Feature","geometry":{"type":"Point","coordinates":[136.4703872000,34.8038128300]},"properties":{"Name":"豊が丘すばる公園","Jusho":"三重県津市豊が丘一丁目3175-454","Kouzui":"","がけ崩れ、土石流及び地滑り":"","Takashio":"","地震":"◎","津波":"◎","大規模な火事":"","内水氾濫":"","火山現象":"","指定避難所との重複":"","備考":""}},
{"type":"Feature","geometry":{"type":"Point","coordinates":[136.4729461000,34.8040903300]},"properties":{"Name":"豊が丘あすなろ公園","Jusho":"三重県津市豊が丘一丁目3175-455","Kouzui":"","がけ崩れ、土石流及び地滑り":"","Takashio":"","地震":"◎","津波":"◎","大規模な火事":"","内水氾濫":"","火山現象":"","指定避難所との重複":"","備考":""}},
{"type":"Feature","geometry":{"type":"Point","coordinates":[136.4734074000,34.8018879100]},"properties":{"Name":"豊が丘げんき公園","Jusho":"三重県津市豊が丘一丁目3340-177","Kouzui":"","がけ崩れ、土石流及び地滑り":"","Takashio":"","地震":"◎","津波":"◎","大規模な火事":"","内水氾濫":"","火山現象":"","指定避難所との重複":"","備考":""}},
{"type":"Feature","geometry":{"type":"Point","coordinates":[136.4709344000,34.8016015900]},"properties":{"Name":"豊が丘さわやか公園","Jusho":"三重県津市豊が丘一丁目3351-162","Kouzui":"","がけ崩れ、土石流及び地滑り":"","Takashio":"","地震":"◎","津波":"◎","大規模な火事":"","内水氾濫":"","火山現象":"","指定避難所との重複":"","備考":""}},
{"type":"Feature","geometry":{"type":"Point","coordinates":[136.4677211000,34.8076096600]},"properties":{"Name":"豊が丘おおぞら公園","Jusho":"三重県津市豊が丘二丁目3006-430","Kouzui":"","がけ崩れ、土石流及び地滑り":"","Takashio":"","地震":"◎","津波":"◎","大規模な火事":"","内水氾濫":"","火山現象":"","指定避難所との重複":"","備考":""}},
{"type":"Feature","geometry":{"type":"Point","coordinates":[136.4720019000,34.8066406500]},"properties":{"Name":"豊が丘どんぐり公園","Jusho":"三重県津市豊が丘二丁目3006-431","Kouzui":"","がけ崩れ、土石流及び地滑り":"","Takashio":"","地震":"◎","津波":"◎","大規模な火事":"","内水氾濫":"","火山現象":"","指定避難所との重複":"","備考":""}},
{"type":"Feature","geometry":{"type":"Point","coordinates":[136.4754405000,34.8072396800]},"properties":{"Name":"豊が丘みどり公園","Jusho":"三重県津市豊が丘二丁目3214-130","Kouzui":"","がけ崩れ、土石流及び地滑り":"","Takashio":"","地震":"◎","津波":"◎","大規模な火事":"","内水氾濫":"","火山現象":"","指定避難所との重複":"","備考":""}},
{"type":"Feature","geometry":{"type":"Point","coordinates":[136.4682468000,34.8042312800]},"properties":{"Name":"豊が丘たけのこ公園","Jusho":"三重県津市豊が丘三丁目2996-118","Kouzui":"","がけ崩れ、土石流及び地滑り":"","Takashio":"","地震":"◎","津波":"◎","大規模な火事":"","内水氾濫":"","火山現象":"","指定避難所との重複":"","備考":""}},
{"type":"Feature","geometry":{"type":"Point","coordinates":[136.4686116000,34.8015443300]},"properties":{"Name":"豊が丘にっこり公園","Jusho":"三重県津市豊が丘三丁目3351-212","Kouzui":"","がけ崩れ、土石流及び地滑り":"","Takashio":"","地震":"◎","津波":"◎","大規模な火事":"","内水氾濫":"","火山現象":"","指定避難所との重複":"","備考":""}},
{"type":"Feature","geometry":{"type":"Point","coordinates":[136.4638641000,34.8084641500]},"properties":{"Name":"豊が丘のびのび公園","Jusho":"三重県津市豊が丘四丁目2992-240","Kouzui":"","がけ崩れ、土石流及び地滑り":"","Takashio":"","地震":"◎","津波":"◎","大規模な火事":"","内水氾濫":"","火山現象":"","指定避難所との重複":"","備考":""}},
{"type":"Feature","geometry":{"type":"Point","coordinates":[136.4654788000,34.8077506100]},"properties":{"Name":"豊が丘わかば公園","Jusho":"三重県津市豊が丘四丁目2996-292","Kouzui":"","がけ崩れ、土石流及び地滑り":"","Takashio":"","地震":"◎","津波":"◎","大規模な火事":"","内水氾濫":"","火山現象":"","指定避難所との重複":"","備考":""}},
{"type":"Feature","geometry":{"type":"Point","coordinates":[136.4588484000,34.8104417600]},"properties":{"Name":"豊が丘なかよし公園","Jusho":"三重県津市豊が丘五丁目2386-282","Kouzui":"","がけ崩れ、土石流及び地滑り":"","Takashio":"","地震":"◎","津波":"◎","大規模な火事":"","内水氾濫":"","火山現象":"","指定避難所との重複":"","備考":""}},
{"type":"Feature","geometry":{"type":"Point","coordinates":[136.4648351000,34.8101819000]},"properties":{"Name":"豊が丘わんぱく公園","Jusho":"三重県津市豊が丘五丁目3080-157","Kouzui":"","がけ崩れ、土石流及び地滑り":"","Takashio":"","地震":"◎","津波":"◎","大規模な火事":"","内水氾濫":"","火山現象":"","指定避難所との重複":"","備考":""}},
{"type":"Feature","geometry":{"type":"Point","coordinates":[136.4661423000,34.7916115700]},"properties":{"Name":"中町公民館","Jusho":"三重県津市高野尾町1431-1","Kouzui":"◎","がけ崩れ、土石流及び地滑り":"◎","Takashio":"","地震":"◎","津波":"◎","大規模な火事":"","内水氾濫":"","火山現象":"","指定避難所との重複":"","備考":""}},
{"type":"Feature","geometry":{"type":"Point","coordinates":[136.4607319000,34.7969495700]},"properties":{"Name":"新町公民館","Jusho":"三重県津市高野尾町1784-2","Kouzui":"◎","がけ崩れ、土石流及び地滑り":"◎","Takashio":"","地震":"","津波":"◎","大規模な火事":"","内水氾濫":"","火山現象":"","指定避難所との重複":"","備考":""}},
{"type":"Feature","geometry":{"type":"Point","coordinates":[136.4695405000,34.7939096900]},"properties":{"Name":"里区集会所","Jusho":"三重県津市高野尾町4209-1","Kouzui":"◎","がけ崩れ、土石流及び地滑り":"◎","Takashio":"","地震":"◎","津波":"◎","大規模な火事":"","内水氾濫":"","火山現象":"","指定避難所との重複":"","備考":""}},
{"type":"Feature","geometry":{"type":"Point","coordinates":[136.4861278000,34.7863811200]},"properties":{"Name":"山室町センター","Jusho":"三重県津市大里山室町3655-1","Kouzui":"◎","がけ崩れ、土石流及び地滑り":"◎","Takashio":"","地震":"◎","津波":"◎","大規模な火事":"","内水氾濫":"","火山現象":"","指定避難所との重複":"","備考":""}},
{"type":"Feature","geometry":{"type":"Point","coordinates":[136.4906746000,34.7779834300]},"properties":{"Name":"小野田集会所","Jusho":"三重県津市大里小野田町17","Kouzui":"◎","がけ崩れ、土石流及び地滑り":"◎","Takashio":"","地震":"◎","津波":"◎","大規模な火事":"","内水氾濫":"","火山現象":"","指定避難所との重複":"","備考":""}},
{"type":"Feature","geometry":{"type":"Point","coordinates":[136.5004130000,34.7706577200]},"properties":{"Name":"川北公民館","Jusho":"三重県津市大里川北町273-1","Kouzui":"","がけ崩れ、土石流及び地滑り":"◎","Takashio":"","地震":"","津波":"","大規模な火事":"","内水氾濫":"","火山現象":"","指定避難所との重複":"","備考":""}},
{"type":"Feature","geometry":{"type":"Point","coordinates":[136.5038933000,34.7708764300]},"properties":{"Name":"かわきた公園","Jusho":"三重県津市大里川北町295-104","Kouzui":"","がけ崩れ、土石流及び地滑り":"","Takashio":"","地震":"◎","津波":"◎","大規模な火事":"","内水氾濫":"","火山現象":"","指定避難所との重複":"","備考":""}},
{"type":"Feature","geometry":{"type":"Point","coordinates":[136.4871201000,34.7809407300]},"properties":{"Name":"野田会館","Jusho":"三重県津市大里野田町401-1","Kouzui":"◎","がけ崩れ、土石流及び地滑り":"◎","Takashio":"","地震":"◎","津波":"◎","大規模な火事":"","内水氾濫":"","火山現象":"","指定避難所との重複":"","備考":""}},
{"type":"Feature","geometry":{"type":"Point","coordinates":[136.4864385000,34.7724194800]},"properties":{"Name":"豊里公民館","Jusho":"三重県津市大里睦合町610-1","Kouzui":"◎","がけ崩れ、土石流及び地滑り":"","Takashio":"","地震":"◎","津波":"◎","大規模な火事":"","内水氾濫":"","火山現象":"","指定避難所との重複":"","備考":""}},
{"type":"Feature","geometry":{"type":"Point","coordinates":[136.4837432000,34.7766159800]},"properties":{"Name":"豊里中学校グラウンド","Jusho":"三重県津市大里睦合町820-1","Kouzui":"","がけ崩れ、土石流及び地滑り":"","Takashio":"","地震":"◎","津波":"◎","大規模な火事":"","内水氾濫":"","火山現象":"","指定避難所との重複":"","備考":""}},
{"type":"Feature","geometry":{"type":"Point","coordinates":[136.5013641000,34.7626540800]},"properties":{"Name":"高田本山駐車場","Jusho":"三重県津市大里窪田町2710-1","Kouzui":"◎","がけ崩れ、土石流及び地滑り":"◎","Takashio":"","地震":"◎","津波":"","大規模な火事":"","内水氾濫":"","火山現象":"","指定避難所との重複":"","備考":""}},
{"type":"Feature","geometry":{"type":"Point","coordinates":[136.4889545000,34.7603232500]},"properties":{"Name":"三重県立看護大学","Jusho":"三重県津市夢が丘一丁目1-1","Kouzui":"◎","がけ崩れ、土石流及び地滑り":"◎","Takashio":"","地震":"◎","津波":"◎","大規模な火事":"","内水氾濫":"","火山現象":"","指定避難所との重複":"","備考":""}},
{"type":"Feature","geometry":{"type":"Point","coordinates":[136.5063987000,34.7697914000]},"properties":{"Name":"高田短期大学駐車場","Jusho":"三重県津市一身田豊野195","Kouzui":"","がけ崩れ、土石流及び地滑り":"","Takashio":"","地震":"◎","津波":"◎","大規模な火事":"","内水氾濫":"","火山現象":"","指定避難所との重複":"","備考":""}},
{"type":"Feature","geometry":{"type":"Point","coordinates":[136.5036113000,34.7620981800]},"properties":{"Name":"高田本山専修寺","Jusho":"三重県津市一身田町2819","Kouzui":"◎","がけ崩れ、土石流及び地滑り":"◎","Takashio":"","地震":"","津波":"","大規模な火事":"","内水氾濫":"","火山現象":"","指定避難所との重複":"","備考":""}},
{"type":"Feature","geometry":{"type":"Point","coordinates":[136.5047682000,34.7640724400]},"properties":{"Name":"高田高等学校グラウンド","Jusho":"三重県津市一身田町2843","Kouzui":"","がけ崩れ、土石流及び地滑り":"","Takashio":"","地震":"◎","津波":"","大規模な火事":"","内水氾濫":"","火山現象":"","指定避難所との重複":"","備考":""}},
{"type":"Feature","geometry":{"type":"Point","coordinates":[136.5155879000,34.7548830900]},"properties":{"Name":"平野公園","Jusho":"三重県津市一身田平野374","Kouzui":"","がけ崩れ、土石流及び地滑り":"","Takashio":"","地震":"◎","津波":"","大規模な火事":"","内水氾濫":"","火山現象":"","指定避難所との重複":"","備考":""}},
{"type":"Feature","geometry":{"type":"Point","coordinates":[136.5172175000,34.7539600100]},"properties":{"Name":"志登茂園団地西公園","Jusho":"三重県津市一身田平野430-56","Kouzui":"","がけ崩れ、土石流及び地滑り":"","Takashio":"","地震":"◎","津波":"","大規模な火事":"","内水氾濫":"","火山現象":"","指定避難所との重複":"","備考":""}},
{"type":"Feature","geometry":{"type":"Point","coordinates":[136.5153400000,34.7509452600]},"properties":{"Name":"志登茂園団地南公園","Jusho":"三重県津市一身田平野767-3","Kouzui":"","がけ崩れ、土石流及び地滑り":"","Takashio":"","地震":"◎","津波":"","大規模な火事":"","内水氾濫":"","火山現象":"","指定避難所との重複":"","備考":""}},
{"type":"Feature","geometry":{"type":"Point","coordinates":[136.4980653000,34.7563733600]},"properties":{"Name":"三重県身体障害者総合福祉センター駐車場","Jusho":"三重県津市一身田大古曽670-2","Kouzui":"","がけ崩れ、土石流及び地滑り":"","Takashio":"","地震":"◎","津波":"","大規模な火事":"","内水氾濫":"","火山現象":"","指定避難所との重複":"","備考":""}},
{"type":"Feature","geometry":{"type":"Point","coordinates":[136.4954358000,34.7408814200]},"properties":{"Name":"三重県立津東高等学校（体育館・グラウンド）","Jusho":"三重県津市一身田上津部田1470","Kouzui":"◎","がけ崩れ、土石流及び地滑り":"◎","Takashio":"","地震":"◎","津波":"◎","大規模な火事":"","内水氾濫":"","火山現象":"","指定避難所との重複":"","備考":""}},
{"type":"Feature","geometry":{"type":"Point","coordinates":[136.4948661000,34.7454386400]},"properties":{"Name":"上津台中央公園","Jusho":"三重県津市一身田上津部田1488-86","Kouzui":"","がけ崩れ、土石流及び地滑り":"","Takashio":"","地震":"◎","津波":"◎","大規模な火事":"","内水氾濫":"","火山現象":"","指定避難所との重複":"","備考":""}},
{"type":"Feature","geometry":{"type":"Point","coordinates":[136.5332160000,34.7675181600]},"properties":{"Name":"白塚公園","Jusho":"三重県津市白塚町2496-3","Kouzui":"","がけ崩れ、土石流及び地滑り":"","Takashio":"","地震":"◎","津波":"","大規模な火事":"","内水氾濫":"","火山現象":"","指定避難所との重複":"","備考":""}},
{"type":"Feature","geometry":{"type":"Point","coordinates":[136.5263114000,34.7588202600]},"properties":{"Name":"長安寺","Jusho":"三重県津市白塚町5291","Kouzui":"◎","がけ崩れ、土石流及び地滑り":"◎","Takashio":"","地震":"","津波":"","大規模な火事":"","内水氾濫":"","火山現象":"","指定避難所との重複":"","備考":""}},
{"type":"Feature","geometry":{"type":"Point","coordinates":[136.5354906000,34.7728541800]},"properties":{"Name":"近鉄白塚駅グラウンド","Jusho":"三重県津市白塚町957ほか","Kouzui":"","がけ崩れ、土石流及び地滑り":"","Takashio":"","地震":"◎","津波":"","大規模な火事":"","内水氾濫":"","火山現象":"","指定避難所との重複":"","備考":""}},
{"type":"Feature","geometry":{"type":"Point","coordinates":[136.5227946000,34.7664763600]},"properties":{"Name":"善行寺（境内）","Jusho":"三重県津市栗真小川町1608","Kouzui":"","がけ崩れ、土石流及び地滑り":"","Takashio":"","地震":"◎","津波":"","大規模な火事":"","内水氾濫":"","火山現象":"","指定避難所との重複":"","備考":""}},
{"type":"Feature","geometry":{"type":"Point","coordinates":[136.5291627000,34.7760900700]},"properties":{"Name":"小川園児童遊び場","Jusho":"三重県津市栗真小川町863-60","Kouzui":"","がけ崩れ、土石流及び地滑り":"","Takashio":"","地震":"◎","津波":"","大規模な火事":"","内水氾濫":"","火山現象":"","指定避難所との重複":"","備考":""}},
{"type":"Feature","geometry":{"type":"Point","coordinates":[136.5192921000,34.7512622300]},"properties":{"Name":"志登茂園団地東公園","Jusho":"三重県津市栗真町屋町50-61","Kouzui":"","がけ崩れ、土石流及び地滑り":"","Takashio":"","地震":"◎","津波":"","大規模な火事":"","内水氾濫":"","火山現象":"","指定避難所との重複":"","備考":""}},
{"type":"Feature","geometry":{"type":"Point","coordinates":[136.5251574000,34.7539613900]},"properties":{"Name":"専称寺（境内）","Jusho":"三重県津市栗真町屋町872","Kouzui":"","がけ崩れ、土石流及び地滑り":"","Takashio":"","地震":"◎","津波":"","大規模な火事":"","内水氾濫":"","火山現象":"","指定避難所との重複":"","備考":""}},
{"type":"Feature","geometry":{"type":"Point","coordinates":[136.5234188000,34.7541363100]},"properties":{"Name":"栗真出張所","Jusho":"三重県津市栗真町屋町836-1","Kouzui":"◎","がけ崩れ、土石流及び地滑り":"◎","Takashio":"","地震":"◎","津波":"","大規模な火事":"","内水氾濫":"","火山現象":"","指定避難所との重複":"","備考":""}},
{"type":"Feature","geometry":{"type":"Point","coordinates":[136.5128228000,34.7405164200]},"properties":{"Name":"上浜町二丁目チビッコ広場","Jusho":"三重県津市上浜町二丁目42、43、44、45","Kouzui":"","がけ崩れ、土石流及び地滑り":"◎","Takashio":"","地震":"◎","津波":"","大規模な火事":"","内水氾濫":"","火山現象":"","指定避難所との重複":"","備考":""}},
{"type":"Feature","geometry":{"type":"Point","coordinates":[136.5053295000,34.7389952900]},"properties":{"Name":"ひょうたん池公園","Jusho":"三重県津市上浜町六丁目3-2","Kouzui":"","がけ崩れ、土石流及び地滑り":"","Takashio":"","地震":"◎","津波":"◎","大規模な火事":"","内水氾濫":"","火山現象":"","指定避難所との重複":"","備考":""}},
{"type":"Feature","geometry":{"type":"Point","coordinates":[136.5177244000,34.7338615200]},"properties":{"Name":"旭町公園","Jusho":"三重県津市桜橋三丁目198","Kouzui":"","がけ崩れ、土石流及び地滑り":"","Takashio":"","地震":"◎","津波":"","大規模な火事":"","内水氾濫":"","火山現象":"","指定避難所との重複":"","備考":""}},
{"type":"Feature","geometry":{"type":"Point","coordinates":[136.5166628000,34.7368778400]},"properties":{"Name":"創価学会三重文化会館","Jusho":"三重県津市桜橋三丁目446-40","Kouzui":"◎","がけ崩れ、土石流及び地滑り":"◎","Takashio":"","地震":"◎","津波":"","大規模な火事":"","内水氾濫":"","火山現象":"","指定避難所との重複":"","備考":""}},
{"type":"Feature","geometry":{"type":"Point","coordinates":[136.5155008000,34.7334272600]},"properties":{"Name":"三重県教育文化会館（本館・駐車場）","Jusho":"三重県津市桜橋二丁目142","Kouzui":"◎","がけ崩れ、土石流及び地滑り":"◎","Takashio":"","地震":"◎","津波":"◎","大規模な火事":"","内水氾濫":"","火山現象":"","指定避難所との重複":"","備考":""}},
{"type":"Feature","geometry":{"type":"Point","coordinates":[136.5170990000,34.7311240900]},"properties":{"Name":"南立誠小学校グラウンド","Jusho":"三重県津市桜橋二丁目39","Kouzui":"","がけ崩れ、土石流及び地滑り":"","Takashio":"","地震":"◎","津波":"","大規模な火事":"","内水氾濫":"","火山現象":"","指定避難所との重複":"","備考":""}},
{"type":"Feature","geometry":{"type":"Point","coordinates":[136.5209608000,34.7307955800]},"properties":{"Name":"三重県建設技術センター","Jusho":"三重県津市島崎町56","Kouzui":"◎","がけ崩れ、土石流及び地滑り":"◎","Takashio":"","地震":"◎","津波":"","大規模な火事":"","内水氾濫":"","火山現象":"","指定避難所との重複":"","備考":""}},
{"type":"Feature","geometry":{"type":"Point","coordinates":[136.5214649000,34.7328281000]},"properties":{"Name":"島崎町公園","Jusho":"三重県津市島崎町272","Kouzui":"","がけ崩れ、土石流及び地滑り":"","Takashio":"","地震":"◎","津波":"","大規模な火事":"","内水氾濫":"","火山現象":"","指定避難所との重複":"","備考":""}},
{"type":"Feature","geometry":{"type":"Point","coordinates":[136.5096936000,34.7292609000]},"properties":{"Name":"県庁前公園","Jusho":"三重県津市栄町一丁目956","Kouzui":"","がけ崩れ、土石流及び地滑り":"","Takashio":"","地震":"◎","津波":"","大規模な火事":"","内水氾濫":"","火山現象":"","指定避難所との重複":"","備考":""}},
{"type":"Feature","geometry":{"type":"Point","coordinates":[136.5063315000,34.7316208900]},"properties":{"Name":"津偕楽公園","Jusho":"三重県津市広明町147-1","Kouzui":"","がけ崩れ、土石流及び地滑り":"","Takashio":"","地震":"◎","津波":"◎","大規模な火事":"","内水氾濫":"","火山現象":"","指定避難所との重複":"","備考":""}},
{"type":"Feature","geometry":{"type":"Point","coordinates":[136.5069816000,34.7247304300]},"properties":{"Name":"鳥居町児童遊び場","Jusho":"三重県津市鳥居町88-43","Kouzui":"","がけ崩れ、土石流及び地滑り":"","Takashio":"","地震":"◎","津波":"","大規模な火事":"","内水氾濫":"","火山現象":"","指定避難所との重複":"","備考":""}},
{"type":"Feature","geometry":{"type":"Point","coordinates":[136.5026557000,34.7337293000]},"properties":{"Name":"彰見寺(境内)","Jusho":"三重県津市大谷町1","Kouzui":"","がけ崩れ、土石流及び地滑り":"","Takashio":"","地震":"◎","津波":"◎","大規模な火事":"","内水氾濫":"","火山現象":"","指定避難所との重複":"","備考":""}},
{"type":"Feature","geometry":{"type":"Point","coordinates":[136.5033679000,34.7356062200]},"properties":{"Name":"三重県総合教育センター駐車場","Jusho":"三重県津市大谷町12","Kouzui":"","がけ崩れ、土石流及び地滑り":"","Takashio":"","地震":"◎","津波":"◎","大規模な火事":"","内水氾濫":"","火山現象":"","指定避難所との重複":"","備考":""}},
{"type":"Feature","geometry":{"type":"Point","coordinates":[136.5253540000,34.7264169400]},"properties":{"Name":"高洲会館","Jusho":"三重県津市高洲町18","Kouzui":"◎","がけ崩れ、土石流及び地滑り":"◎","Takashio":"","地震":"◎","津波":"◎","大規模な火事":"","内水氾濫":"","火山現象":"","指定避難所との重複":"","備考":""}},
{"type":"Feature","geometry":{"type":"Point","coordinates":[136.5169138000,34.7251815000]},"properties":{"Name":"相生町公園","Jusho":"三重県津市相生町5","Kouzui":"","がけ崩れ、土石流及び地滑り":"","Takashio":"","地震":"◎","津波":"","大規模な火事":"","内水氾濫":"","火山現象":"","指定避難所との重複":"","備考":""}},
{"type":"Feature","geometry":{"type":"Point","coordinates":[136.5163154000,34.7182708300]},"properties":{"Name":"寺町公園","Jusho":"三重県津市乙部5","Kouzui":"","がけ崩れ、土石流及び地滑り":"","Takashio":"","地震":"◎","津波":"","大規模な火事":"","内水氾濫":"","火山現象":"","指定避難所との重複":"","備考":""}},
{"type":"Feature","geometry":{"type":"Point","coordinates":[136.5137807000,34.7204228500]},"properties":{"Name":"観音公園","Jusho":"三重県津市大門5-1","Kouzui":"","がけ崩れ、土石流及び地滑り":"","Takashio":"","地震":"◎","津波":"","大規模な火事":"","内水氾濫":"","火山現象":"","指定避難所との重複":"","備考":""}},
{"type":"Feature","geometry":{"type":"Point","coordinates":[136.5094582000,34.7211754800]},"properties":{"Name":"検校公園","Jusho":"三重県津市中央5","Kouzui":"","がけ崩れ、土石流及び地滑り":"","Takashio":"","地震":"◎","津波":"","大規模な火事":"","内水氾濫":"","火山現象":"","指定避難所との重複":"","備考":""}},
{"type":"Feature","geometry":{"type":"Point","coordinates":[136.5154982000,34.7151305100]},"properties":{"Name":"乙部公園","Jusho":"三重県津市寿町14","Kouzui":"","がけ崩れ、土石流及び地滑り":"","Takashio":"","地震":"◎","津波":"","大規模な火事":"","内水氾濫":"","火山現象":"","指定避難所との重複":"","備考":""}},
{"type":"Feature","geometry":{"type":"Point","coordinates":[136.5053795000,34.7217676200]},"properties":{"Name":"玉置町公園","Jusho":"三重県津市丸之内養正町5","Kouzui":"","がけ崩れ、土石流及び地滑り":"","Takashio":"","地震":"◎","津波":"","大規模な火事":"","内水氾濫":"","火山現象":"","指定避難所との重複":"","備考":""}},
{"type":"Feature","geometry":{"type":"Point","coordinates":[136.4973998000,34.7303580800]},"properties":{"Name":"観音寺町集会所","Jusho":"三重県津市観音寺町666","Kouzui":"◎","がけ崩れ、土石流及び地滑り":"","Takashio":"","地震":"◎","津波":"◎","大規模な火事":"","内水氾濫":"","火山現象":"","指定避難所との重複":"","備考":""}},
{"type":"Feature","geometry":{"type":"Point","coordinates":[136.4920461000,34.7353475000]},"properties":{"Name":"渋見町集会所","Jusho":"三重県津市渋見町418","Kouzui":"◎","がけ崩れ、土石流及び地滑り":"◎","Takashio":"","地震":"◎","津波":"◎","大規模な火事":"","内水氾濫":"","火山現象":"","指定避難所との重複":"","備考":""}},
{"type":"Feature","geometry":{"type":"Point","coordinates":[136.4980317000,34.7369194700]},"properties":{"Name":"三重県立津商業高等学校グラウンド","Jusho":"三重県津市渋見町699-1","Kouzui":"","がけ崩れ、土石流及び地滑り":"","Takashio":"","地震":"◎","津波":"◎","大規模な火事":"","内水氾濫":"","火山現象":"","指定避難所との重複":"","備考":""}},
{"type":"Feature","geometry":{"type":"Point","coordinates":[136.4874583000,34.7385475400]},"properties":{"Name":"近縁寺","Jusho":"三重県津市長岡町552","Kouzui":"◎","がけ崩れ、土石流及び地滑り":"◎","Takashio":"","地震":"","津波":"","大規模な火事":"","内水氾濫":"","火山現象":"","指定避難所との重複":"","備考":""}},
{"type":"Feature","geometry":{"type":"Point","coordinates":[136.4793410000,34.7450356200]},"properties":{"Name":"善休寺","Jusho":"三重県津市河辺町2015","Kouzui":"◎","がけ崩れ、土石流及び地滑り":"◎","Takashio":"","地震":"","津波":"","大規模な火事":"","内水氾濫":"","火山現象":"","指定避難所との重複":"","備考":""}},
{"type":"Feature","geometry":{"type":"Point","coordinates":[136.4801165000,34.7505524500]},"properties":{"Name":"津西ハイタウンセントラルパーク","Jusho":"三重県津市河辺町3022","Kouzui":"","がけ崩れ、土石流及び地滑り":"","Takashio":"","地震":"◎","津波":"◎","大規模な火事":"","内水氾濫":"","火山現象":"","指定避難所との重複":"","備考":""}},
{"type":"Feature","geometry":{"type":"Point","coordinates":[136.5055901000,34.7193202900]},"properties":{"Name":"お城西公園","Jusho":"三重県津市西丸之内335-2","Kouzui":"","がけ崩れ、土石流及び地滑り":"","Takashio":"","地震":"◎","津波":"","大規模な火事":"","内水氾濫":"","火山現象":"","指定避難所との重複":"","備考":""}},
{"type":"Feature","geometry":{"type":"Point","coordinates":[136.4996705000,34.7195762300]},"properties":{"Name":"古河公園","Jusho":"三重県津市東古河町5","Kouzui":"","がけ崩れ、土石流及び地滑り":"","Takashio":"","地震":"◎","津波":"","大規模な火事":"","内水氾濫":"","火山現象":"","指定避難所との重複":"","備考":""}},
{"type":"Feature","geometry":{"type":"Point","coordinates":[136.4959634000,34.7195092300]},"properties":{"Name":"新町会館","Jusho":"三重県津市八町二丁目5-16","Kouzui":"◎","がけ崩れ、土石流及び地滑り":"◎","Takashio":"","地震":"◎","津波":"","大規模な火事":"","内水氾濫":"","火山現象":"","指定避難所との重複":"","備考":""}},
{"type":"Feature","geometry":{"type":"Point","coordinates":[136.4906898000,34.7183396700]},"properties":{"Name":"三重県立津高等学校グラウンド","Jusho":"三重県津市新町三丁目1-1","Kouzui":"","がけ崩れ、土石流及び地滑り":"","Takashio":"","地震":"◎","津波":"","大規模な火事":"","内水氾濫":"","火山現象":"","指定避難所との重複":"","備考":""}},
{"type":"Feature","geometry":{"type":"Point","coordinates":[136.4950481000,34.7117393700]},"properties":{"Name":"一本橋住宅児童遊び場","Jusho":"三重県津市川添町34-19","Kouzui":"","がけ崩れ、土石流及び地滑り":"","Takashio":"","地震":"◎","津波":"","大規模な火事":"","内水氾濫":"","火山現象":"","指定避難所との重複":"","備考":""}},
{"type":"Feature","geometry":{"type":"Point","coordinates":[136.4951429000,34.7115853600]},"properties":{"Name":"川添町集会所","Jusho":"三重県津市川添町6-32","Kouzui":"","がけ崩れ、土石流及び地滑り":"◎","Takashio":"","地震":"◎","津波":"","大規模な火事":"","内水氾濫":"","火山現象":"","指定避難所との重複":"","備考":""}},
{"type":"Feature","geometry":{"type":"Point","coordinates":[136.4765754000,34.7238041300]},"properties":{"Name":"西念寺","Jusho":"三重県津市北河路町538","Kouzui":"◎","がけ崩れ、土石流及び地滑り":"◎","Takashio":"","地震":"","津波":"","大規模な火事":"","内水氾濫":"","火山現象":"","指定避難所との重複":"","備考":""}},
{"type":"Feature","geometry":{"type":"Point","coordinates":[136.4765853000,34.7239116400]},"properties":{"Name":"北河路集会所","Jusho":"三重県津市北河路町547","Kouzui":"◎","がけ崩れ、土石流及び地滑り":"◎","Takashio":"","地震":"","津波":"","大規模な火事":"","内水氾濫":"","火山現象":"","指定避難所との重複":"","備考":""}},
{"type":"Feature","geometry":{"type":"Point","coordinates":[136.4766200000,34.7299400000]},"properties":{"Name":"西郊中学校グラウンド","Jusho":"三重県津市一色町219","Kouzui":"","がけ崩れ、土石流及び地滑り":"","Takashio":"","地震":"◎","津波":"◎","大規模な火事":"","内水氾濫":"","火山現象":"","指定避難所との重複":"","備考":""}},
{"type":"Feature","geometry":{"type":"Point","coordinates":[136.4722297000,34.7286601700]},"properties":{"Name":"正源寺","Jusho":"三重県津市一色町525","Kouzui":"◎","がけ崩れ、土石流及び地滑り":"◎","Takashio":"","地震":"","津波":"","大規模な火事":"","内水氾濫":"","火山現象":"","指定避難所との重複":"","備考":""}},
{"type":"Feature","geometry":{"type":"Point","coordinates":[136.4690328000,34.7348712700]},"properties":{"Name":"東光寺","Jusho":"三重県津市安東町1289","Kouzui":"◎","がけ崩れ、土石流及び地滑り":"◎","Takashio":"","地震":"","津波":"","大規模な火事":"","内水氾濫":"","火山現象":"","指定避難所との重複":"","備考":""}},
{"type":"Feature","geometry":{"type":"Point","coordinates":[136.4673954000,34.7421856500]},"properties":{"Name":"西光寺","Jusho":"三重県津市安東町1942","Kouzui":"◎","がけ崩れ、土石流及び地滑り":"◎","Takashio":"","地震":"","津波":"","大規模な火事":"","内水氾濫":"","火山現象":"","指定避難所との重複":"","備考":""}},
{"type":"Feature","geometry":{"type":"Point","coordinates":[136.4750516000,34.7369572800]},"properties":{"Name":"正圓寺","Jusho":"三重県津市安東町294","Kouzui":"","がけ崩れ、土石流及び地滑り":"◎","Takashio":"","地震":"","津波":"","大規模な火事":"","内水氾濫":"","火山現象":"","指定避難所との重複":"","備考":""}},
{"type":"Feature","geometry":{"type":"Point","coordinates":[136.4482353000,34.7332483900]},"properties":{"Name":"長谷山集会所","Jusho":"三重県津市分部1699-14","Kouzui":"◎","がけ崩れ、土石流及び地滑り":"◎","Takashio":"","地震":"◎","津波":"◎","大規模な火事":"","内水氾濫":"","火山現象":"","指定避難所との重複":"","備考":""}},
{"type":"Feature","geometry":{"type":"Point","coordinates":[136.4480772000,34.7325036800]},"properties":{"Name":"長谷山市民館駐車場","Jusho":"三重県津市分部1712-1","Kouzui":"","がけ崩れ、土石流及び地滑り":"","Takashio":"","地震":"◎","津波":"◎","大規模な火事":"","内水氾濫":"","火山現象":"","指定避難所との重複":"","備考":""}},
{"type":"Feature","geometry":{"type":"Point","coordinates":[136.5073408000,34.7132042900]},"properties":{"Name":"天理教津大教会","Jusho":"三重県津市岩田22-18","Kouzui":"◎","がけ崩れ、土石流及び地滑り":"◎","Takashio":"","地震":"","津波":"","大規模な火事":"","内水氾濫":"","火山現象":"","指定避難所との重複":"","備考":""}},
{"type":"Feature","geometry":{"type":"Point","coordinates":[136.5068181000,34.7105657100]},"properties":{"Name":"佐伯町公園","Jusho":"三重県津市岩田5","Kouzui":"","がけ崩れ、土石流及び地滑り":"","Takashio":"","地震":"◎","津波":"","大規模な火事":"","内水氾濫":"","火山現象":"","指定避難所との重複":"","備考":""}},
{"type":"Feature","geometry":{"type":"Point","coordinates":[136.5056433000,34.7078657100]},"properties":{"Name":"橋南公民館","Jusho":"三重県津市幸町18-22","Kouzui":"◎","がけ崩れ、土石流及び地滑り":"◎","Takashio":"","地震":"◎","津波":"","大規模な火事":"","内水氾濫":"","火山現象":"","指定避難所との重複":"","備考":""}},
{"type":"Feature","geometry":{"type":"Point","coordinates":[136.5060690000,34.7060111700]},"properties":{"Name":"岩田公園","Jusho":"三重県津市幸町2005","Kouzui":"","がけ崩れ、土石流及び地滑り":"","Takashio":"","地震":"◎","津波":"","大規模な火事":"","内水氾濫":"","火山現象":"","指定避難所との重複":"","備考":""}},
{"type":"Feature","geometry":{"type":"Point","coordinates":[136.4969672000,34.7032042300]},"properties":{"Name":"セントヨゼフ女子学園グラウンド","Jusho":"三重県津市半田1330","Kouzui":"","がけ崩れ、土石流及び地滑り":"","Takashio":"","地震":"◎","津波":"◎","大規模な火事":"","内水氾濫":"","火山現象":"","指定避難所との重複":"","備考":""}},
{"type":"Feature","geometry":{"type":"Point","coordinates":[136.4978934000,34.7054545700]},"properties":{"Name":"半田児童遊び場（高松スポーツ公園）","Jusho":"三重県津市半田1396-1","Kouzui":"","がけ崩れ、土石流及び地滑り":"","Takashio":"","地震":"◎","津波":"","大規模な火事":"","内水氾濫":"","火山現象":"","指定避難所との重複":"","備考":""}},
{"type":"Feature","geometry":{"type":"Point","coordinates":[136.4907011000,34.7066230000]},"properties":{"Name":"高西寺","Jusho":"三重県津市半田1936","Kouzui":"◎","がけ崩れ、土石流及び地滑り":"◎","Takashio":"","地震":"","津波":"","大規模な火事":"","内水氾濫":"","火山現象":"","指定避難所との重複":"","備考":""}},
{"type":"Feature","geometry":{"type":"Point","coordinates":[136.4977023000,34.7091114300]},"properties":{"Name":"三重県立津工業高等学校グラウンド","Jusho":"三重県津市半田534","Kouzui":"","がけ崩れ、土石流及び地滑り":"","Takashio":"","地震":"◎","津波":"","大規模な火事":"","内水氾濫":"","火山現象":"","指定避難所との重複":"","備考":""}},
{"type":"Feature","geometry":{"type":"Point","coordinates":[136.4779446000,34.7104765000]},"properties":{"Name":"神戸公園","Jusho":"三重県津市神戸1621-2","Kouzui":"","がけ崩れ、土石流及び地滑り":"","Takashio":"","地震":"◎","津波":"◎","大規模な火事":"","内水氾濫":"","火山現象":"","指定避難所との重複":"","備考":""}},
{"type":"Feature","geometry":{"type":"Point","coordinates":[136.4648055000,34.7169561500]},"properties":{"Name":"智円寺","Jusho":"三重県津市野田1501","Kouzui":"◎","がけ崩れ、土石流及び地滑り":"◎","Takashio":"","地震":"","津波":"","大規模な火事":"","内水氾濫":"","火山現象":"","指定避難所との重複":"","備考":""}},
{"type":"Feature","geometry":{"type":"Point","coordinates":[136.4599272000,34.7131898300]},"properties":{"Name":"泉ヶ丘団地中央公園","Jusho":"三重県津市野田21-818","Kouzui":"","がけ崩れ、土石流及び地滑り":"","Takashio":"","地震":"◎","津波":"◎","大規模な火事":"","内水氾濫":"","火山現象":"","指定避難所との重複":"","備考":""}},
{"type":"Feature","geometry":{"type":"Point","coordinates":[136.4693079000,34.7113246000]},"properties":{"Name":"緑が丘サンベール公園","Jusho":"三重県津市緑ヶ丘二丁目4-3","Kouzui":"","がけ崩れ、土石流及び地滑り":"","Takashio":"","地震":"◎","津波":"◎","大規模な火事":"","内水氾濫":"","火山現象":"","指定避難所との重複":"","備考":""}},
{"type":"Feature","geometry":{"type":"Point","coordinates":[136.4431212000,34.7104766600]},"properties":{"Name":"片田公民館","Jusho":"三重県津市片田井戸町17-2","Kouzui":"◎","がけ崩れ、土石流及び地滑り":"◎","Takashio":"","地震":"◎","津波":"◎","大規模な火事":"","内水氾濫":"","火山現象":"","指定避難所との重複":"","備考":""}},
{"type":"Feature","geometry":{"type":"Point","coordinates":[136.4392524000,34.6980088300]},"properties":{"Name":"片田工業団地北公園","Jusho":"三重県津市片田町594-6","Kouzui":"","がけ崩れ、土石流及び地滑り":"","Takashio":"","地震":"◎","津波":"◎","大規模な火事":"","内水氾濫":"","火山現象":"","指定避難所との重複":"","備考":""}},
{"type":"Feature","geometry":{"type":"Point","coordinates":[136.4462334000,34.7122974600]},"properties":{"Name":"片田田中公園","Jusho":"三重県津市片田田中町1834-4","Kouzui":"","がけ崩れ、土石流及び地滑り":"","Takashio":"","地震":"◎","津波":"◎","大規模な火事":"","内水氾濫":"","火山現象":"","指定避難所との重複":"","備考":""}},
{"type":"Feature","geometry":{"type":"Point","coordinates":[136.5143921000,34.7098164000]},"properties":{"Name":"橋南会館","Jusho":"三重県津市柳山津興1535-27","Kouzui":"◎","がけ崩れ、土石流及び地滑り":"◎","Takashio":"","地震":"◎","津波":"","大規模な火事":"","内水氾濫":"","火山現象":"","指定避難所との重複":"","備考":""}},
{"type":"Feature","geometry":{"type":"Point","coordinates":[136.5121506000,34.7051104100]},"properties":{"Name":"津興公園","Jusho":"三重県津市下弁財町津興3005","Kouzui":"","がけ崩れ、土石流及び地滑り":"","Takashio":"","地震":"◎","津波":"","大規模な火事":"","内水氾濫":"","火山現象":"","指定避難所との重複":"","備考":""}},
{"type":"Feature","geometry":{"type":"Point","coordinates":[136.5091030000,34.7065539000]},"properties":{"Name":"ぼだいじ保育園グラウンド","Jusho":"三重県津市南中央10-18","Kouzui":"","がけ崩れ、土石流及び地滑り":"","Takashio":"","地震":"◎","津波":"","大規模な火事":"","内水氾濫":"","火山現象":"","指定避難所との重複":"","備考":""}},
{"type":"Feature","geometry":{"type":"Point","coordinates":[136.5082636000,34.7047797200]},"properties":{"Name":"古道公園","Jusho":"三重県津市南中央5","Kouzui":"","がけ崩れ、土石流及び地滑り":"","Takashio":"","地震":"◎","津波":"","大規模な火事":"","内水氾濫":"","火山現象":"","指定避難所との重複":"","備考":""}},
{"type":"Feature","geometry":{"type":"Point","coordinates":[136.5143525000,34.6968532000]},"properties":{"Name":"津八幡宮","Jusho":"三重県津市藤方2339","Kouzui":"","がけ崩れ、土石流及び地滑り":"","Takashio":"","地震":"◎","津波":"","大規模な火事":"","内水氾濫":"","火山現象":"","指定避難所との重複":"","備考":""}},
{"type":"Feature","geometry":{"type":"Point","coordinates":[136.5152054000,34.6977044200]},"properties":{"Name":"結城神社","Jusho":"三重県津市藤方2341","Kouzui":"","がけ崩れ、土石流及び地滑り":"","Takashio":"","地震":"◎","津波":"","大規模な火事":"","内水氾濫":"","火山現象":"","指定避難所との重複":"","備考":""}},
{"type":"Feature","geometry":{"type":"Point","coordinates":[136.5080058000,34.6742997100]},"properties":{"Name":"三重県立こころの医療センター駐車場","Jusho":"三重県津市城山一丁目12-1","Kouzui":"","がけ崩れ、土石流及び地滑り":"","Takashio":"","地震":"◎","津波":"◎","大規模な火事":"","内水氾濫":"","火山現象":"","指定避難所との重複":"","備考":""}},
{"type":"Feature","geometry":{"type":"Point","coordinates":[136.5049142000,34.6781909000]},"properties":{"Name":"城山会館","Jusho":"三重県津市城山二丁目20-3","Kouzui":"◎","がけ崩れ、土石流及び地滑り":"◎","Takashio":"","地震":"◎","津波":"◎","大規模な火事":"","内水氾濫":"","火山現象":"","指定避難所との重複":"","備考":""}},
{"type":"Feature","geometry":{"type":"Point","coordinates":[136.5099503000,34.6788072500]},"properties":{"Name":"小森宮の前児童遊び場","Jusho":"三重県津市高茶屋二丁目833","Kouzui":"","がけ崩れ、土石流及び地滑り":"","Takashio":"","地震":"◎","津波":"◎","大規模な火事":"","内水氾濫":"","火山現象":"","指定避難所との重複":"","備考":""}},
{"type":"Feature","geometry":{"type":"Point","coordinates":[136.4988552000,34.6682921400]},"properties":{"Name":"三重県工業研究所駐車場","Jusho":"三重県津市高茶屋五丁目5-45","Kouzui":"","がけ崩れ、土石流及び地滑り":"","Takashio":"","地震":"◎","津波":"◎","大規模な火事":"","内水氾濫":"","火山現象":"","指定避難所との重複":"","備考":""}},
{"type":"Feature","geometry":{"type":"Point","coordinates":[136.5061805000,34.6656395100]},"properties":{"Name":"日本板硝子(株)津事業所南グラウンド","Jusho":"三重県津市高茶屋小森町1018-1","Kouzui":"","がけ崩れ、土石流及び地滑り":"","Takashio":"","地震":"◎","津波":"◎","大規模な火事":"","内水氾濫":"","火山現象":"","指定避難所との重複":"","備考":""}},
{"type":"Feature","geometry":{"type":"Point","coordinates":[136.4920816000,34.6675727400]},"properties":{"Name":"小森向山苑自治会集会所","Jusho":"三重県津市高茶屋小森町1675-1","Kouzui":"◎","がけ崩れ、土石流及び地滑り":"◎","Takashio":"","地震":"◎","津波":"◎","大規模な火事":"","内水氾濫":"","火山現象":"","指定避難所との重複":"","備考":""}},
{"type":"Feature","geometry":{"type":"Point","coordinates":[136.4876925000,34.6694403500]},"properties":{"Name":"高茶屋小森山自治会集会所","Jusho":"三重県津市高茶屋小森町1733-4","Kouzui":"◎","がけ崩れ、土石流及び地滑り":"◎","Takashio":"","地震":"◎","津波":"◎","大規模な火事":"","内水氾濫":"","火山現象":"","指定避難所との重複":"","備考":""}},
{"type":"Feature","geometry":{"type":"Point","coordinates":[136.4954735000,34.6695288400]},"properties":{"Name":"南部緑地公園","Jusho":"三重県津市高茶屋小森町4000","Kouzui":"","がけ崩れ、土石流及び地滑り":"","Takashio":"","地震":"◎","津波":"◎","大規模な火事":"","内水氾濫":"","火山現象":"","指定避難所との重複":"","備考":""}},
{"type":"Feature","geometry":{"type":"Point","coordinates":[136.5307839000,34.6658525600]},"properties":{"Name":"くもづホテル＆コンファレンス","Jusho":"三重県津市雲出長常町626-10","Kouzui":"◎","がけ崩れ、土石流及び地滑り":"◎","Takashio":"","地震":"◎","津波":"◎","大規模な火事":"","内水氾濫":"","火山現象":"","指定避難所との重複":"","備考":""}},
{"type":"Feature","geometry":{"type":"Point","coordinates":[136.5385802000,34.6735089200]},"properties":{"Name":"津健保体育館(ＪＦＥエンジニアリング敷地内)","Jusho":"三重県津市雲出鋼管町1","Kouzui":"◎","がけ崩れ、土石流及び地滑り":"◎","Takashio":"","地震":"","津波":"","大規模な火事":"","内水氾濫":"","火山現象":"","指定避難所との重複":"","備考":""}},
{"type":"Feature","geometry":{"type":"Point","coordinates":[136.4838530000,34.6796949900]},"properties":{"Name":"久居体育館駐車場","Jusho":"三重県津市久居野村町877-1","Kouzui":"","がけ崩れ、土石流及び地滑り":"","Takashio":"","地震":"◎","津波":"◎","大規模な火事":"","内水氾濫":"","火山現象":"","指定避難所との重複":"","備考":""}},
{"type":"Feature","geometry":{"type":"Point","coordinates":[136.4892847000,34.6763885200]},"properties":{"Name":"野村保育園","Jusho":"三重県津市久居野村町568-4","Kouzui":"◎","がけ崩れ、土石流及び地滑り":"◎","Takashio":"","地震":"◎","津波":"◎","大規模な火事":"","内水氾濫":"","火山現象":"","指定避難所との重複":"","備考":""}},
{"type":"Feature","geometry":{"type":"Point","coordinates":[136.4880601000,34.6777419400]},"properties":{"Name":"のむら幼稚園","Jusho":"三重県津市久居野村町542-3","Kouzui":"◎","がけ崩れ、土石流及び地滑り":"◎","Takashio":"","地震":"◎","津波":"◎","大規模な火事":"","内水氾濫":"","火山現象":"","指定避難所との重複":"","備考":""}},
{"type":"Feature","geometry":{"type":"Point","coordinates":[136.4890744000,34.6771027300]},"properties":{"Name":"立成小学校グラウンド","Jusho":"三重県津市久居野村町560","Kouzui":"","がけ崩れ、土石流及び地滑り":"","Takashio":"","地震":"◎","津波":"◎","大規模な火事":"","内水氾濫":"","火山現象":"","指定避難所との重複":"","備考":""}},
{"type":"Feature","geometry":{"type":"Point","coordinates":[136.4807306000,34.6782633800]},"properties":{"Name":"新町中央集会所","Jusho":"三重県津市久居野村町372-212","Kouzui":"◎","がけ崩れ、土石流及び地滑り":"◎","Takashio":"","地震":"◎","津波":"◎","大規模な火事":"","内水氾濫":"","火山現象":"","指定避難所との重複":"","備考":""}},
{"type":"Feature","geometry":{"type":"Point","coordinates":[136.4842790000,34.6772662400]},"properties":{"Name":"久居団地・東町地区集会所","Jusho":"三重県津市久居野村町372-264","Kouzui":"","がけ崩れ、土石流及び地滑り":"◎","Takashio":"","地震":"◎","津波":"◎","大規模な火事":"","内水氾濫":"","火山現象":"","指定避難所との重複":"","備考":""}},
{"type":"Feature","geometry":{"type":"Point","coordinates":[136.4839607000,34.6791122800]},"properties":{"Name":"立成コミュニティセンター","Jusho":"三重県津市久居野村町874-8","Kouzui":"◎","がけ崩れ、土石流及び地滑り":"◎","Takashio":"","地震":"◎","津波":"◎","大規模な火事":"","内水氾濫":"","火山現象":"","指定避難所との重複":"","備考":""}},
{"type":"Feature","geometry":{"type":"Point","coordinates":[136.4869057000,34.6842155200]},"properties":{"Name":"相川地区集会所","Jusho":"三重県津市久居野村町1976-22","Kouzui":"◎","がけ崩れ、土石流及び地滑り":"◎","Takashio":"","地震":"◎","津波":"◎","大規模な火事":"","内水氾濫":"","火山現象":"","指定避難所との重複":"","備考":""}},
{"type":"Feature","geometry":{"type":"Point","coordinates":[136.4824992000,34.6712099500]},"properties":{"Name":"井戸山地区集会所","Jusho":"三重県津市久居井戸山町153-6","Kouzui":"◎","がけ崩れ、土石流及び地滑り":"◎","Takashio":"","地震":"◎","津波":"◎","大規模な火事":"","内水氾濫":"","火山現象":"","指定避難所との重複":"","備考":""}},
{"type":"Feature","geometry":{"type":"Point","coordinates":[136.4853624000,34.6682336400]},"properties":{"Name":"久居東中学校グラウンド","Jusho":"三重県津市久居井戸山町721-1","Kouzui":"","がけ崩れ、土石流及び地滑り":"","Takashio":"","地震":"◎","津波":"◎","大規模な火事":"","内水氾濫":"","火山現象":"","指定避難所との重複":"","備考":""}},
{"type":"Feature","geometry":{"type":"Point","coordinates":[136.4799483000,34.6908488500]},"properties":{"Name":"明神地区集会所","Jusho":"三重県津市久居明神町1180-259","Kouzui":"◎","がけ崩れ、土石流及び地滑り":"◎","Takashio":"","地震":"◎","津波":"◎","大規模な火事":"","内水氾濫":"","火山現象":"","指定避難所との重複":"","備考":""}},
{"type":"Feature","geometry":{"type":"Point","coordinates":[136.4620221000,34.6896680600]},"properties":{"Name":"明神教育集会所","Jusho":"三重県津市久居明神町1463-1","Kouzui":"◎","がけ崩れ、土石流及び地滑り":"◎","Takashio":"","地震":"","津波":"","大規模な火事":"","内水氾濫":"","火山現象":"","指定避難所との重複":"","備考":""}},
{"type":"Feature","geometry":{"type":"Point","coordinates":[136.4620704000,34.6894872100]},"properties":{"Name":"明神教育集会所前広場","Jusho":"三重県津市久居明神町1463-1","Kouzui":"","がけ崩れ、土石流及び地滑り":"","Takashio":"","地震":"◎","津波":"◎","大規模な火事":"","内水氾濫":"","火山現象":"","指定避難所との重複":"","備考":""}},
{"type":"Feature","geometry":{"type":"Point","coordinates":[136.4655562000,34.6926367900]},"properties":{"Name":"諸戸山・横山地区集会所","Jusho":"三重県津市久居明神町1530-27","Kouzui":"◎","がけ崩れ、土石流及び地滑り":"◎","Takashio":"","地震":"◎","津波":"◎","大規模な火事":"","内水氾濫":"","火山現象":"","指定避難所との重複":"","備考":""}},
{"type":"Feature","geometry":{"type":"Point","coordinates":[136.4788175000,34.6841594500]},"properties":{"Name":"久居北口市民館","Jusho":"三重県津市久居北口町2709-6","Kouzui":"◎","がけ崩れ、土石流及び地滑り":"◎","Takashio":"","地震":"◎","津波":"◎","大規模な火事":"","内水氾濫":"","火山現象":"","指定避難所との重複":"","備考":""}},
{"type":"Feature","geometry":{"type":"Point","coordinates":[136.4771090000,34.6839970000]},"properties":{"Name":"北部保育園","Jusho":"三重県津市久居北口町859-3","Kouzui":"◎","がけ崩れ、土石流及び地滑り":"◎","Takashio":"","地震":"◎","津波":"◎","大規模な火事":"","内水氾濫":"","火山現象":"","指定避難所との重複":"","備考":""}},
{"type":"Feature","geometry":{"type":"Point","coordinates":[136.4774366000,34.6841730700]},"properties":{"Name":"久居児童センター","Jusho":"三重県津市久居北口町862-5","Kouzui":"◎","がけ崩れ、土石流及び地滑り":"◎","Takashio":"","地震":"◎","津波":"◎","大規模な火事":"","内水氾濫":"","火山現象":"","指定避難所との重複":"","備考":""}},
{"type":"Feature","geometry":{"type":"Point","coordinates":[136.4741799000,34.6806584000]},"properties":{"Name":"北口保育園","Jusho":"三重県津市久居北口町554","Kouzui":"◎","がけ崩れ、土石流及び地滑り":"◎","Takashio":"","地震":"◎","津波":"◎","大規模な火事":"","内水氾濫":"","火山現象":"","指定避難所との重複":"","備考":""}},
{"type":"Feature","geometry":{"type":"Point","coordinates":[136.4748815000,34.6802922900]},"properties":{"Name":"密柑山幼稚園","Jusho":"三重県津市久居北口町554-2","Kouzui":"◎","がけ崩れ、土石流及び地滑り":"◎","Takashio":"","地震":"◎","津波":"◎","大規模な火事":"","内水氾濫":"","火山現象":"","指定避難所との重複":"","備考":""}},
{"type":"Feature","geometry":{"type":"Point","coordinates":[136.4732036000,34.6810137000]},"properties":{"Name":"久居北口文化会館","Jusho":"三重県津市久居北口町560-5","Kouzui":"◎","がけ崩れ、土石流及び地滑り":"◎","Takashio":"","地震":"","津波":"◎","大規模な火事":"","内水氾濫":"","火山現象":"","指定避難所との重複":"","備考":""}},
{"type":"Feature","geometry":{"type":"Point","coordinates":[136.4768529000,34.6771859000]},"properties":{"Name":"成美小学校グラウンド","Jusho":"三重県津市久居新町737","Kouzui":"","がけ崩れ、土石流及び地滑り":"","Takashio":"","地震":"◎","津波":"◎","大規模な火事":"","内水氾濫":"","火山現象":"","指定避難所との重複":"","備考":""}},
{"type":"Feature","geometry":{"type":"Point","coordinates":[136.4784607000,34.6826423900]},"properties":{"Name":"企業庁職員運動施設","Jusho":"三重県津市久居新町2721-1","Kouzui":"","がけ崩れ、土石流及び地滑り":"","Takashio":"","地震":"◎","津波":"◎","大規模な火事":"","内水氾濫":"","火山現象":"","指定避難所との重複":"","備考":""}},
{"type":"Feature","geometry":{"type":"Point","coordinates":[136.4818925000,34.6838231500]},"properties":{"Name":"新町三角公園","Jusho":"三重県津市久居新町2819","Kouzui":"","がけ崩れ、土石流及び地滑り":"","Takashio":"","地震":"◎","津波":"◎","大規模な火事":"","内水氾濫":"","火山現象":"","指定避難所との重複":"","備考":""}},
{"type":"Feature","geometry":{"type":"Point","coordinates":[136.4727825000,34.6826495900]},"properties":{"Name":"北口第一公園","Jusho":"三重県津市久居烏木町486-1","Kouzui":"","がけ崩れ、土石流及び地滑り":"","Takashio":"","地震":"◎","津波":"◎","大規模な火事":"","内水氾濫":"","火山現象":"","指定避難所との重複":"","備考":""}},
{"type":"Feature","geometry":{"type":"Point","coordinates":[136.4674202000,34.6819409000]},"properties":{"Name":"万町・中町・射場町地区集会所","Jusho":"三重県津市久居射場町43","Kouzui":"◎","がけ崩れ、土石流及び地滑り":"◎","Takashio":"","地震":"◎","津波":"◎","大規模な火事":"","内水氾濫":"","火山現象":"","指定避難所との重複":"","備考":""}},
{"type":"Feature","geometry":{"type":"Point","coordinates":[136.4679867000,34.6794201100]},"properties":{"Name":"中町第二公園","Jusho":"三重県津市久居射場町87","Kouzui":"","がけ崩れ、土石流及び地滑り":"","Takashio":"","地震":"◎","津波":"◎","大規模な火事":"","内水氾濫":"","火山現象":"","指定避難所との重複":"","備考":""}},
{"type":"Feature","geometry":{"type":"Point","coordinates":[136.4665144000,34.6732942900]},"properties":{"Name":"久居農林高等学校グラウンド","Jusho":"三重県津市久居東鷹跡町105","Kouzui":"","がけ崩れ、土石流及び地滑り":"","Takashio":"","地震":"◎","津波":"◎","大規模な火事":"","内水氾濫":"","火山現象":"","指定避難所との重複":"","備考":""}},
{"type":"Feature","geometry":{"type":"Point","coordinates":[136.4699905000,34.6735148700]},"properties":{"Name":"東鷹跡地区集会所","Jusho":"三重県津市久居東鷹跡町1-12","Kouzui":"◎","がけ崩れ、土石流及び地滑り":"◎","Takashio":"","地震":"◎","津波":"◎","大規模な火事":"","内水氾濫":"","火山現象":"","指定避難所との重複":"","備考":""}},
{"type":"Feature","geometry":{"type":"Point","coordinates":[136.4662481000,34.6750171500]},"properties":{"Name":"巽ヶ丘幼稚園","Jusho":"三重県津市久居東鷹跡町177-5","Kouzui":"◎","がけ崩れ、土石流及び地滑り":"◎","Takashio":"","地震":"◎","津波":"◎","大規模な火事":"","内水氾濫":"","火山現象":"","指定避難所との重複":"","備考":""}},
{"type":"Feature","geometry":{"type":"Point","coordinates":[136.4684439000,34.6722790900]},"properties":{"Name":"久居総合福祉会館駐車場","Jusho":"三重県津市久居東鷹跡町20-17","Kouzui":"","がけ崩れ、土石流及び地滑り":"","Takashio":"","地震":"◎","津波":"◎","大規模な火事":"","内水氾濫":"","火山現象":"","指定避難所との重複":"","備考":""}},
{"type":"Feature","geometry":{"type":"Point","coordinates":[136.4650189000,34.6773528200]},"properties":{"Name":"久居老人福祉センター","Jusho":"三重県津市久居西鷹跡町365-1","Kouzui":"◎","がけ崩れ、土石流及び地滑り":"◎","Takashio":"","地震":"◎","津波":"◎","大規模な火事":"","内水氾濫":"","火山現象":"","指定避難所との重複":"","備考":""}},
{"type":"Feature","geometry":{"type":"Point","coordinates":[136.4593206000,34.6756878800]},"properties":{"Name":"西鷹跡地区集会所","Jusho":"三重県津市久居西鷹跡町498-17","Kouzui":"◎","がけ崩れ、土石流及び地滑り":"◎","Takashio":"","地震":"◎","津波":"◎","大規模な火事":"","内水氾濫":"","火山現象":"","指定避難所との重複":"","備考":""}},
{"type":"Feature","geometry":{"type":"Point","coordinates":[136.4648470000,34.6746677800]},"properties":{"Name":"誠之小学校グラウンド","Jusho":"三重県津市久居西鷹跡町424","Kouzui":"","がけ崩れ、土石流及び地滑り":"","Takashio":"","地震":"◎","津波":"◎","大規模な火事":"","内水氾濫":"","火山現象":"","指定避難所との重複":"","備考":""}},
{"type":"Feature","geometry":{"type":"Point","coordinates":[136.4612330000,34.6756453100]},"properties":{"Name":"久居中学校グラウンド","Jusho":"三重県津市久居西鷹跡町494","Kouzui":"","がけ崩れ、土石流及び地滑り":"","Takashio":"","地震":"◎","津波":"◎","大規模な火事":"","内水氾濫":"","火山現象":"","指定避難所との重複":"","備考":""}},
{"type":"Feature","geometry":{"type":"Point","coordinates":[136.4584723000,34.6760895000]},"properties":{"Name":"久居グラウンド","Jusho":"三重県津市久居西鷹跡町1-2","Kouzui":"","がけ崩れ、土石流及び地滑り":"","Takashio":"","地震":"◎","津波":"◎","大規模な火事":"","内水氾濫":"","火山現象":"","指定避難所との重複":"","備考":""}},
{"type":"Feature","geometry":{"type":"Point","coordinates":[136.4731360000,34.6685911300]},"properties":{"Name":"こべき保育園","Jusho":"三重県津市久居元町2314-17","Kouzui":"◎","がけ崩れ、土石流及び地滑り":"◎","Takashio":"","地震":"◎","津波":"◎","大規模な火事":"","内水氾濫":"","火山現象":"","指定避難所との重複":"","備考":""}},
{"type":"Feature","geometry":{"type":"Point","coordinates":[136.4678644000,34.6688994300]},"properties":{"Name":"元町地区集会所","Jusho":"三重県津市久居元町2099-2","Kouzui":"◎","がけ崩れ、土石流及び地滑り":"◎","Takashio":"","地震":"◎","津波":"◎","大規模な火事":"","内水氾濫":"","火山現象":"","指定避難所との重複":"","備考":""}},
{"type":"Feature","geometry":{"type":"Point","coordinates":[136.4724978000,34.6713217300]},"properties":{"Name":"久居公民館駐車場","Jusho":"三重県津市久居元町2354","Kouzui":"","がけ崩れ、土石流及び地滑り":"","Takashio":"","地震":"◎","津波":"◎","大規模な火事":"","内水氾濫":"","火山現象":"","指定避難所との重複":"","備考":""}},
{"type":"Feature","geometry":{"type":"Point","coordinates":[136.4658374000,34.6566320900]},"properties":{"Name":"須ヶ瀬地区構造改善センター","Jusho":"三重県津市須ヶ瀬町1610-7","Kouzui":"","がけ崩れ、土石流及び地滑り":"◎","Takashio":"","地震":"◎","津波":"◎","大規模な火事":"","内水氾濫":"","火山現象":"","指定避難所との重複":"","備考":""}},
{"type":"Feature","geometry":{"type":"Point","coordinates":[136.4999174000,34.6567214900]},"properties":{"Name":"木造区集会所","Jusho":"三重県津市木造町1581","Kouzui":"","がけ崩れ、土石流及び地滑り":"◎","Takashio":"","地震":"◎","津波":"◎","大規模な火事":"","内水氾濫":"","火山現象":"","指定避難所との重複":"","備考":""}},
{"type":"Feature","geometry":{"type":"Point","coordinates":[136.5085604000,34.6523839200]},"properties":{"Name":"コミュニティセンター桃園","Jusho":"三重県津市木造町2160-1","Kouzui":"","がけ崩れ、土石流及び地滑り":"◎","Takashio":"","地震":"◎","津波":"","大規模な火事":"","内水氾濫":"","火山現象":"","指定避難所との重複":"","備考":""}},
{"type":"Feature","geometry":{"type":"Point","coordinates":[136.4861296000,34.6599761600]},"properties":{"Name":"桃園小学校グラウンド","Jusho":"三重県津市新家町1350","Kouzui":"","がけ崩れ、土石流及び地滑り":"","Takashio":"","地震":"◎","津波":"◎","大規模な火事":"","内水氾濫":"","火山現象":"","指定避難所との重複":"","備考":""}},
{"type":"Feature","geometry":{"type":"Point","coordinates":[136.4856163000,34.6607567900]},"properties":{"Name":"桃園情報センター","Jusho":"三重県津市新家町1365-5","Kouzui":"◎","がけ崩れ、土石流及び地滑り":"◎","Takashio":"","地震":"◎","津波":"◎","大規模な火事":"","内水氾濫":"","火山現象":"","指定避難所との重複":"","備考":""}},
{"type":"Feature","geometry":{"type":"Point","coordinates":[136.4739773000,34.6640475600]},"properties":{"Name":"桃園地区集会所","Jusho":"三重県津市川方町475-2","Kouzui":"◎","がけ崩れ、土石流及び地滑り":"◎","Takashio":"","地震":"◎","津波":"◎","大規模な火事":"","内水氾濫":"","火山現象":"","指定避難所との重複":"","備考":""}},
{"type":"Feature","geometry":{"type":"Point","coordinates":[136.4578167000,34.6894135700]},"properties":{"Name":"狐塚地区集会所","Jusho":"三重県津市戸木町3504-3","Kouzui":"◎","がけ崩れ、土石流及び地滑り":"◎","Takashio":"","地震":"◎","津波":"◎","大規模な火事":"","内水氾濫":"","火山現象":"","指定避難所との重複":"","備考":""}},
{"type":"Feature","geometry":{"type":"Point","coordinates":[136.4499024000,34.6788412500]},"properties":{"Name":"戸木幼稚園","Jusho":"三重県津市戸木町2337","Kouzui":"◎","がけ崩れ、土石流及び地滑り":"◎","Takashio":"","地震":"◎","津波":"◎","大規模な火事":"","内水氾濫":"","火山現象":"","指定避難所との重複":"","備考":""}},
{"type":"Feature","geometry":{"type":"Point","coordinates":[136.4499614000,34.6783648100]},"properties":{"Name":"戸木地区集会所","Jusho":"三重県津市戸木町2056-1","Kouzui":"◎","がけ崩れ、土石流及び地滑り":"◎","Takashio":"","地震":"◎","津波":"◎","大規模な火事":"","内水氾濫":"","火山現象":"","指定避難所との重複":"","備考":""}},
{"type":"Feature","geometry":{"type":"Point","coordinates":[136.4502887000,34.6777736700]},"properties":{"Name":"戸木公民館","Jusho":"三重県津市戸木町1782","Kouzui":"◎","がけ崩れ、土石流及び地滑り":"◎","Takashio":"","地震":"◎","津波":"◎","大規模な火事":"","内水氾濫":"","火山現象":"","指定避難所との重複":"","備考":""}},
{"type":"Feature","geometry":{"type":"Point","coordinates":[136.4616956000,34.6935315600]},"properties":{"Name":"久居高等学校グラウンド","Jusho":"三重県津市戸木町3569-1","Kouzui":"","がけ崩れ、土石流及び地滑り":"","Takashio":"","地震":"◎","津波":"◎","大規模な火事":"","内水氾濫":"","火山現象":"","指定避難所との重複":"","備考":""}},
{"type":"Feature","geometry":{"type":"Point","coordinates":[136.4496632000,34.6814719200]},"properties":{"Name":"風早地区集会所","Jusho":"三重県津市戸木町4152-359","Kouzui":"◎","がけ崩れ、土石流及び地滑り":"◎","Takashio":"","地震":"◎","津波":"◎","大規模な火事":"","内水氾濫":"","火山現象":"","指定避難所との重複":"","備考":""}},
{"type":"Feature","geometry":{"type":"Point","coordinates":[136.4362550000,34.6773593600]},"properties":{"Name":"羽野地区集会所","Jusho":"三重県津市戸木町5578-13","Kouzui":"◎","がけ崩れ、土石流及び地滑り":"◎","Takashio":"","地震":"◎","津波":"◎","大規模な火事":"","内水氾濫":"","火山現象":"","指定避難所との重複":"","備考":""}},
{"type":"Feature","geometry":{"type":"Point","coordinates":[136.4371079000,34.6813252300]},"properties":{"Name":"久居中央スポーツ公園","Jusho":"三重県津市戸木町5252","Kouzui":"","がけ崩れ、土石流及び地滑り":"","Takashio":"","地震":"◎","津波":"◎","大規模な火事":"","内水氾濫":"","火山現象":"","指定避難所との重複":"","備考":""}},
{"type":"Feature","geometry":{"type":"Point","coordinates":[136.4528963000,34.6757814200]},"properties":{"Name":"戸木小学校グラウンド","Jusho":"三重県津市戸木町880","Kouzui":"","がけ崩れ、土石流及び地滑り":"","Takashio":"","地震":"◎","津波":"◎","大規模な火事":"","内水氾濫":"","火山現象":"","指定避難所との重複":"","備考":""}},
{"type":"Feature","geometry":{"type":"Point","coordinates":[136.4415330000,34.6761444200]},"properties":{"Name":"戸木墓園前グラウンド","Jusho":"三重県津市戸木町5641-1","Kouzui":"","がけ崩れ、土石流及び地滑り":"","Takashio":"","地震":"◎","津波":"◎","大規模な火事":"","内水氾濫":"","火山現象":"","指定避難所との重複":"","備考":""}},
{"type":"Feature","geometry":{"type":"Point","coordinates":[136.4072093000,34.7053105700]},"properties":{"Name":"稲葉農村集落多目的共同利用施設","Jusho":"三重県津市稲葉町1905-3","Kouzui":"◎","がけ崩れ、土石流及び地滑り":"◎","Takashio":"","地震":"◎","津波":"◎","大規模な火事":"","内水氾濫":"","火山現象":"","指定避難所との重複":"","備考":""}},
{"type":"Feature","geometry":{"type":"Point","coordinates":[136.4050523000,34.6879536600]},"properties":{"Name":"ひとみね保育園","Jusho":"三重県津市久居一色町934","Kouzui":"◎","がけ崩れ、土石流及び地滑り":"◎","Takashio":"","地震":"◎","津波":"◎","大規模な火事":"","内水氾濫":"","火山現象":"","指定避難所との重複":"","備考":""}},
{"type":"Feature","geometry":{"type":"Point","coordinates":[136.4061314000,34.6870558200]},"properties":{"Name":"久居西中学校グラウンド","Jusho":"三重県津市久居一色町940","Kouzui":"","がけ崩れ、土石流及び地滑り":"","Takashio":"","地震":"◎","津波":"◎","大規模な火事":"","内水氾濫":"","火山現象":"","指定避難所との重複":"","備考":""}},
{"type":"Feature","geometry":{"type":"Point","coordinates":[136.4187864000,34.6881726200]},"properties":{"Name":"森教育集会所","Jusho":"三重県津市森町1910-1","Kouzui":"◎","がけ崩れ、土石流及び地滑り":"◎","Takashio":"","地震":"","津波":"◎","大規模な火事":"","内水氾濫":"","火山現象":"","指定避難所との重複":"","備考":""}},
{"type":"Feature","geometry":{"type":"Point","coordinates":[136.4111382000,34.6787512100]},"properties":{"Name":"栗葉小学校グラウンド","Jusho":"三重県津市森町270","Kouzui":"","がけ崩れ、土石流及び地滑り":"","Takashio":"","地震":"◎","津波":"◎","大規模な火事":"","内水氾濫":"","火山現象":"","指定避難所との重複":"","備考":""}},
{"type":"Feature","geometry":{"type":"Point","coordinates":[136.4115673000,34.6782836000]},"properties":{"Name":"栗葉幼稚園","Jusho":"三重県津市森町284-1","Kouzui":"","がけ崩れ、土石流及び地滑り":"◎","Takashio":"","地震":"◎","津波":"◎","大規模な火事":"","内水氾濫":"","火山現象":"","指定避難所との重複":"","備考":""}},
{"type":"Feature","geometry":{"type":"Point","coordinates":[136.4117128000,34.6785230500]},"properties":{"Name":"七栗公民館","Jusho":"三重県津市森町286","Kouzui":"","がけ崩れ、土石流及び地滑り":"◎","Takashio":"","地震":"◎","津波":"◎","大規模な火事":"","内水氾濫":"","火山現象":"","指定避難所との重複":"","備考":""}},
{"type":"Feature","geometry":{"type":"Point","coordinates":[136.4138650000,34.6800643800]},"properties":{"Name":"森町集会所","Jusho":"三重県津市森町850-1","Kouzui":"◎","がけ崩れ、土石流及び地滑り":"◎","Takashio":"","地震":"◎","津波":"◎","大規模な火事":"","内水氾濫":"","火山現象":"","指定避難所との重複":"","備考":""}},
{"type":"Feature","geometry":{"type":"Point","coordinates":[136.4103669000,34.6767332700]},"properties":{"Name":"森集会所","Jusho":"三重県津市森町148-1","Kouzui":"◎","がけ崩れ、土石流及び地滑り":"◎","Takashio":"","地震":"","津波":"◎","大規模な火事":"","内水氾濫":"","火山現象":"","指定避難所との重複":"","備考":""}},
{"type":"Feature","geometry":{"type":"Point","coordinates":[136.4205189000,34.6735750500]},"properties":{"Name":"七栗産業会館","Jusho":"三重県津市庄田町517-2","Kouzui":"◎","がけ崩れ、土石流及び地滑り":"◎","Takashio":"","地震":"◎","津波":"◎","大規模な火事":"","内水氾濫":"","火山現象":"","指定避難所との重複":"","備考":""}},
{"type":"Feature","geometry":{"type":"Point","coordinates":[136.3549938000,34.7014772300]},"properties":{"Name":"落合小遊園地（榊原市民館広場）","Jusho":"三重県津市榊原町10020-1","Kouzui":"","がけ崩れ、土石流及び地滑り":"","Takashio":"","地震":"◎","津波":"◎","大規模な火事":"","内水氾濫":"","火山現象":"","指定避難所との重複":"","備考":""}},
{"type":"Feature","geometry":{"type":"Point","coordinates":[136.3546934000,34.7015918900]},"properties":{"Name":"榊原市民館","Jusho":"三重県津市榊原町10032","Kouzui":"◎","がけ崩れ、土石流及び地滑り":"◎","Takashio":"","地震":"◎","津波":"◎","大規模な火事":"","内水氾濫":"","火山現象":"","指定避難所との重複":"","備考":""}},
{"type":"Feature","geometry":{"type":"Point","coordinates":[136.3803809000,34.7014904600]},"properties":{"Name":"榊原市場地区小公園（２区市場小公園）","Jusho":"三重県津市榊原町1133-4","Kouzui":"","がけ崩れ、土石流及び地滑り":"","Takashio":"","地震":"◎","津波":"◎","大規模な火事":"","内水氾濫":"","火山現象":"","指定避難所との重複":"","備考":""}},
{"type":"Feature","geometry":{"type":"Point","coordinates":[136.3803648000,34.7033251000]},"properties":{"Name":"第２区集会所","Jusho":"三重県津市榊原町1242","Kouzui":"◎","がけ崩れ、土石流及び地滑り":"◎","Takashio":"","地震":"","津波":"◎","大規模な火事":"","内水氾濫":"","火山現象":"","指定避難所との重複":"","備考":""}},
{"type":"Feature","geometry":{"type":"Point","coordinates":[136.3641067000,34.7066623900]},"properties":{"Name":"榊原地区集会所","Jusho":"三重県津市榊原町2879-2","Kouzui":"◎","がけ崩れ、土石流及び地滑り":"◎","Takashio":"","地震":"◎","津波":"◎","大規模な火事":"","内水氾濫":"","火山現象":"","指定避難所との重複":"","備考":""}},
{"type":"Feature","geometry":{"type":"Point","coordinates":[136.3614714000,34.7046745900]},"properties":{"Name":"中の山公会所","Jusho":"三重県津市榊原町2922","Kouzui":"◎","がけ崩れ、土石流及び地滑り":"◎","Takashio":"","地震":"","津波":"◎","大規模な火事":"","内水氾濫":"","火山現象":"","指定避難所との重複":"","備考":""}},
{"type":"Feature","geometry":{"type":"Point","coordinates":[136.3458301000,34.7045455700]},"properties":{"Name":"一の坂集会所","Jusho":"三重県津市榊原町3721","Kouzui":"◎","がけ崩れ、土石流及び地滑り":"","Takashio":"","地震":"","津波":"◎","大規模な火事":"","内水氾濫":"","火山現象":"","指定避難所との重複":"","備考":""}},
{"type":"Feature","geometry":{"type":"Point","coordinates":[136.3579705000,34.7018686100]},"properties":{"Name":"寺野垣内集会所","Jusho":"三重県津市榊原町4696-1","Kouzui":"◎","がけ崩れ、土石流及び地滑り":"◎","Takashio":"","地震":"","津波":"◎","大規模な火事":"","内水氾濫":"","火山現象":"","指定避難所との重複":"","備考":""}},
{"type":"Feature","geometry":{"type":"Point","coordinates":[136.3707733000,34.7066635100]},"properties":{"Name":"榊原農民研修所","Jusho":"三重県津市榊原町5104","Kouzui":"◎","がけ崩れ、土石流及び地滑り":"◎","Takashio":"","地震":"","津波":"◎","大規模な火事":"","内水氾濫":"","火山現象":"","指定避難所との重複":"","備考":""}},
{"type":"Feature","geometry":{"type":"Point","coordinates":[136.3730011000,34.7053314200]},"properties":{"Name":"榊原小学校グラウンド","Jusho":"三重県津市榊原町5848","Kouzui":"","がけ崩れ、土石流及び地滑り":"","Takashio":"","地震":"◎","津波":"◎","大規模な火事":"","内水氾濫":"","火山現象":"","指定避難所との重複":"","備考":""}},
{"type":"Feature","geometry":{"type":"Point","coordinates":[136.3753604000,34.7026165200]},"properties":{"Name":"榊原自然の森温泉保養館「湯の瀬」","Jusho":"三重県津市榊原町6101","Kouzui":"◎","がけ崩れ、土石流及び地滑り":"","Takashio":"","地震":"◎","津波":"◎","大規模な火事":"","内水氾濫":"","火山現象":"","指定避難所との重複":"","備考":""}},
{"type":"Feature","geometry":{"type":"Point","coordinates":[136.3889041000,34.6944939900]},"properties":{"Name":"下村教育集会所","Jusho":"三重県津市榊原町8161-2","Kouzui":"◎","がけ崩れ、土石流及び地滑り":"◎","Takashio":"","地震":"","津波":"","大規模な火事":"","内水氾濫":"","火山現象":"","指定避難所との重複":"","備考":""}},
{"type":"Feature","geometry":{"type":"Point","coordinates":[136.3888129000,34.6942955100]},"properties":{"Name":"下村教育集会所前広場","Jusho":"三重県津市榊原町8161-2","Kouzui":"","がけ崩れ、土石流及び地滑り":"","Takashio":"","地震":"◎","津波":"◎","大規模な火事":"","内水氾濫":"","火山現象":"","指定避難所との重複":"","備考":""}},
{"type":"Feature","geometry":{"type":"Point","coordinates":[136.5508179000,34.7857688400]},"properties":{"Name":"中別保公民館","Jusho":"三重県津市河芸町中別保2034-1","Kouzui":"◎","がけ崩れ、土石流及び地滑り":"◎","Takashio":"","地震":"◎","津波":"","大規模な火事":"","内水氾濫":"","火山現象":"","指定避難所との重複":"","備考":""}},
{"type":"Feature","geometry":{"type":"Point","coordinates":[136.5471527000,34.7876997100]},"properties":{"Name":"松林寺","Jusho":"三重県津市河芸町中別保1819","Kouzui":"◎","がけ崩れ、土石流及び地滑り":"◎","Takashio":"","地震":"◎","津波":"","大規模な火事":"","内水氾濫":"","火山現象":"","指定避難所との重複":"","備考":""}},
{"type":"Feature","geometry":{"type":"Point","coordinates":[136.5412065000,34.7820268100]},"properties":{"Name":"一色区住民センター","Jusho":"三重県津市河芸町一色1481-3","Kouzui":"◎","がけ崩れ、土石流及び地滑り":"◎","Takashio":"","地震":"◎","津波":"","大規模な火事":"","内水氾濫":"","火山現象":"","指定避難所との重複":"","備考":""}},
{"type":"Feature","geometry":{"type":"Point","coordinates":[136.5439156000,34.7832768000]},"properties":{"Name":"豊津小学校グラウンド","Jusho":"三重県津市河芸町一色1680","Kouzui":"","がけ崩れ、土石流及び地滑り":"","Takashio":"","地震":"◎","津波":"","大規模な火事":"","内水氾濫":"","火山現象":"","指定避難所との重複":"","備考":""}},
{"type":"Feature","geometry":{"type":"Point","coordinates":[136.5398316000,34.7766952800]},"properties":{"Name":"影重公民館","Jusho":"三重県津市河芸町影重945","Kouzui":"◎","がけ崩れ、土石流及び地滑り":"◎","Takashio":"","地震":"◎","津波":"","大規模な火事":"","内水氾濫":"","火山現象":"","指定避難所との重複":"","備考":""}},
{"type":"Feature","geometry":{"type":"Point","coordinates":[136.5518678000,34.7976765200]},"properties":{"Name":"上野地区農業構造改善センター","Jusho":"三重県津市河芸町上野3791-3","Kouzui":"","がけ崩れ、土石流及び地滑り":"◎","Takashio":"","地震":"◎","津波":"","大規模な火事":"","内水氾濫":"","火山現象":"","指定避難所との重複":"","備考":""}},
{"type":"Feature","geometry":{"type":"Point","coordinates":[136.5433515000,34.7966611500]},"properties":{"Name":"新上野公民館","Jusho":"三重県津市河芸町上野3339-129","Kouzui":"◎","がけ崩れ、土石流及び地滑り":"◎","Takashio":"","地震":"◎","津波":"◎","大規模な火事":"","内水氾濫":"","火山現象":"","指定避難所との重複":"","備考":""}},
{"type":"Feature","geometry":{"type":"Point","coordinates":[136.5544621000,34.7952182700]},"properties":{"Name":"大蔵園公民館","Jusho":"三重県津市河芸町上野346-103","Kouzui":"◎","がけ崩れ、土石流及び地滑り":"◎","Takashio":"","地震":"◎","津波":"","大規模な火事":"","内水氾濫":"","火山現象":"","指定避難所との重複":"","備考":""}},