var nara={"type":"FeatureCollection","name":"nara","features":[
{"type":"Feature","geometry":{"type":"Point","coordinates":[135.8337503228,34.7069130224]},"properties":{"Name":"青山近隣公園","Jusho":"奈良県奈良市青山3-2","洪水":"◎","がけ崩れ、土石流及び地滑り":"◎","高潮":"","地震":"◎","津波":"","大規模な火事":"◎","内水氾濫":"◎","火山現象":"","指定避難所との重複":"","備考":""}},
{"type":"Feature","geometry":{"type":"Point","coordinates":[135.8338986745,34.6839891183]},"properties":{"Name":"奈良公園","Jusho":"奈良県奈良市登大路町　外","洪水":"◎","がけ崩れ、土石流及び地滑り":"◎","高潮":"","地震":"◎","津波":"","大規模な火事":"◎","内水氾濫":"◎","火山現象":"","指定避難所との重複":"","備考":"内、県所有87、600㎡　その他国所有"}},
{"type":"Feature","geometry":{"type":"Point","coordinates":[135.9113322000,34.6593976300]},"properties":{"Name":"田原小学校","Jusho":"奈良県奈良市横田町199‐１","洪水":"◎","がけ崩れ、土石流及び地滑り":"◎","高潮":"","地震":"◎","津波":"","大規模な火事":"◎","内水氾濫":"◎","火山現象":"","指定避難所との重複":"◎","備考":""}},
{"type":"Feature","geometry":{"type":"Point","coordinates":[135.7966065616,34.6661552367]},"properties":{"Name":"柏木公園","Jusho":"奈良県奈良市柏木町255-1","洪水":"","がけ崩れ、土石流及び地滑り":"◎","高潮":"","地震":"◎","津波":"","大規模な火事":"◎","内水氾濫":"◎","火山現象":"","指定避難所との重複":"","備考":""}},
{"type":"Feature","geometry":{"type":"Point","coordinates":[135.8295106000,34.6986777700]},"properties":{"Name":"鴻ノ池運動公園","Jusho":"奈良県奈良市佐保山4-5-1","洪水":"◎","がけ崩れ、土石流及び地滑り":"◎","高潮":"","地震":"◎","津波":"","大規模な火事":"◎","内水氾濫":"◎","火山現象":"","指定避難所との重複":"","備考":""}},
{"type":"Feature","geometry":{"type":"Point","coordinates":[135.9122082000,34.6598239900]},"properties":{"Name":"田原中学校","Jusho":"奈良県奈良市横田町295‐1","洪水":"◎","がけ崩れ、土石流及び地滑り":"◎","高潮":"","地震":"◎","津波":"","大規模な火事":"◎","内水氾濫":"◎","火山現象":"","指定避難所との重複":"◎","備考":""}},
{"type":"Feature","geometry":{"type":"Point","coordinates":[135.7458737249,34.7082717855]},"properties":{"Name":"大渕池公園","Jusho":"奈良県奈良市大渕町　外","洪水":"◎","がけ崩れ、土石流及び地滑り":"◎","高潮":"","地震":"◎","津波":"","大規模な火事":"◎","内水氾濫":"◎","火山現象":"","指定避難所との重複":"","備考":""}},
{"type":"Feature","geometry":{"type":"Point","coordinates":[135.7978300000,34.6919427800]},"properties":{"Name":"平城宮跡","Jusho":"奈良県奈良市法蓮町","洪水":"◎","がけ崩れ、土石流及び地滑り":"◎","高潮":"","地震":"◎","津波":"","大規模な火事":"◎","内水氾濫":"◎","火山現象":"","指定避難所との重複":"","備考":"国所有"}},
{"type":"Feature","geometry":{"type":"Point","coordinates":[135.9076990000,34.6570950000]},"properties":{"Name":"田原公民館","Jusho":"奈良県奈良市茗荷町1078‐1","洪水":"◎","がけ崩れ、土石流及び地滑り":"◎","高潮":"","地震":"◎","津波":"","大規模な火事":"◎","内水氾濫":"◎","火山現象":"","指定避難所との重複":"◎","備考":""}},
{"type":"Feature","geometry":{"type":"Point","coordinates":[135.7542435172,34.7230556447]},"properties":{"Name":"登美ヶ丘近隣公園","Jusho":"奈良県奈良市北登美ヶ丘1-1761-1","洪水":"◎","がけ崩れ、土石流及び地滑り":"◎","高潮":"","地震":"◎","津波":"","大規模な火事":"◎","内水氾濫":"◎","火山現象":"","指定避難所との重複":"","備考":""}},
{"type":"Feature","geometry":{"type":"Point","coordinates":[135.7583564000,34.6826590400]},"properties":{"Name":"奈良国際ゴルフ倶楽部","Jusho":"奈良県奈良市宝来五丁目　外","洪水":"◎","がけ崩れ、土石流及び地滑り":"◎","高潮":"","地震":"◎","津波":"","大規模な火事":"◎","内水氾濫":"◎","火山現象":"","指定避難所との重複":"","備考":""}},
{"type":"Feature","geometry":{"type":"Point","coordinates":[135.9451116000,34.6717733400]},"properties":{"Name":"（旧）水間小学校","Jusho":"奈良県奈良市水間町450‐2","洪水":"◎","がけ崩れ、土石流及び地滑り":"◎","高潮":"","地震":"◎","津波":"","大規模な火事":"◎","内水氾濫":"◎","火山現象":"","指定避難所との重複":"◎","備考":""}},
{"type":"Feature","geometry":{"type":"Point","coordinates":[135.7504669669,34.7208863415]},"properties":{"Name":"中登美ヶ丘近隣公園","Jusho":"奈良県奈良市中登美ヶ丘3-6","洪水":"◎","がけ崩れ、土石流及び地滑り":"◎","高潮":"","地震":"◎","津波":"","大規模な火事":"◎","内水氾濫":"◎","火山現象":"","指定避難所との重複":"","備考":""}},
{"type":"Feature","geometry":{"type":"Point","coordinates":[135.7177585000,34.7025954800]},"properties":{"Name":"飛鳥カンツリー倶楽部","Jusho":"奈良県奈良市二名七丁目　外","洪水":"◎","がけ崩れ、土石流及び地滑り":"◎","高潮":"","地震":"◎","津波":"","大規模な火事":"◎","内水氾濫":"◎","火山現象":"","指定避難所との重複":"","備考":""}},
{"type":"Feature","geometry":{"type":"Point","coordinates":[135.9512112000,34.7381467000]},"properties":{"Name":"柳生小学校","Jusho":"奈良県奈良市柳生下町138","洪水":"◎","がけ崩れ、土石流及び地滑り":"◎","高潮":"","地震":"◎","津波":"","大規模な火事":"◎","内水氾濫":"◎","火山現象":"","指定避難所との重複":"◎","備考":""}},
{"type":"Feature","geometry":{"type":"Point","coordinates":[135.7864675424,34.7191046246]},"properties":{"Name":"平城第３号近隣公園","Jusho":"奈良県奈良市右京3-18","洪水":"◎","がけ崩れ、土石流及び地滑り":"◎","高潮":"","地震":"◎","津波":"","大規模な火事":"◎","内水氾濫":"◎","火山現象":"","指定避難所との重複":"","備考":""}},
{"type":"Feature","geometry":{"type":"Point","coordinates":[135.9518958000,34.7310607500]},"properties":{"Name":"柳生中学校","Jusho":"奈良県奈良市柳生町212‐2","洪水":"◎","がけ崩れ、土石流及び地滑り":"◎","高潮":"","地震":"◎","津波":"","大規模な火事":"◎","内水氾濫":"◎","火山現象":"","指定避難所との重複":"◎","備考":""}},
{"type":"Feature","geometry":{"type":"Point","coordinates":[135.7953295610,34.7188753404]},"properties":{"Name":"平城第２号公園","Jusho":"奈良県奈良市朱雀2-12","洪水":"◎","がけ崩れ、土石流及び地滑り":"◎","高潮":"","地震":"◎","津波":"","大規模な火事":"◎","内水氾濫":"◎","火山現象":"","指定避難所との重複":"","備考":""}},
{"type":"Feature","geometry":{"type":"Point","coordinates":[135.9791433000,34.7163104200]},"properties":{"Name":"柳生公民館邑地分館","Jusho":"奈良県奈良市邑地町451‐4","洪水":"◎","がけ崩れ、土石流及び地滑り":"","高潮":"","地震":"◎","津波":"","大規模な火事":"◎","内水氾濫":"◎","火山現象":"","指定避難所との重複":"◎","備考":""}},
{"type":"Feature","geometry":{"type":"Point","coordinates":[135.8039555452,34.7107441582]},"properties":{"Name":"平城第１号近隣公園","Jusho":"奈良県奈良市左京2-1","洪水":"◎","がけ崩れ、土石流及び地滑り":"◎","高潮":"","地震":"◎","津波":"","大規模な火事":"◎","内水氾濫":"◎","火山現象":"","指定避難所との重複":"","備考":""}},
{"type":"Feature","geometry":{"type":"Point","coordinates":[135.9529390907,34.7281610277]},"properties":{"Name":"柳生公民館","Jusho":"奈良県奈良市柳生町340","洪水":"◎","がけ崩れ、土石流及び地滑り":"","高潮":"","地震":"◎","津波":"","大規模な火事":"◎","内水氾濫":"◎","火山現象":"","指定避難所との重複":"◎","備考":"土砂災害は除く"}},
{"type":"Feature","geometry":{"type":"Point","coordinates":[135.8168516061,34.7069340451]},"properties":{"Name":"佐保山近隣公園","Jusho":"奈良県奈良市佐保台2-902-374","洪水":"◎","がけ崩れ、土石流及び地滑り":"◎","高潮":"","地震":"◎","津波":"","大規模な火事":"◎","内水氾濫":"◎","火山現象":"","指定避難所との重複":"","備考":""}},
{"type":"Feature","geometry":{"type":"Point","coordinates":[135.9666433409,34.6965483286]},"properties":{"Name":"柳生地域ふれあい会館","Jusho":"奈良県奈良市丹生町847","洪水":"◎","がけ崩れ、土石流及び地滑り":"","高潮":"","地震":"◎","津波":"","大規模な火事":"◎","内水氾濫":"◎","火山現象":"","指定避難所との重複":"◎","備考":"土砂災害は除く"}},
{"type":"Feature","geometry":{"type":"Point","coordinates":[135.7836083076,34.6967640645]},"properties":{"Name":"西大寺近隣公園","Jusho":"奈良県奈良市西大寺東町一丁目","洪水":"◎","がけ崩れ、土石流及び地滑り":"◎","高潮":"","地震":"◎","津波":"","大規模な火事":"◎","内水氾濫":"◎","火山現象":"","指定避難所との重複":"","備考":""}},
{"type":"Feature","geometry":{"type":"Point","coordinates":[135.9164423786,34.6957215873]},"properties":{"Name":"大柳生幼稚園","Jusho":"奈良県奈良市忍辱山町1303","洪水":"◎","がけ崩れ、土石流及び地滑り":"","高潮":"","地震":"◎","津波":"","大規模な火事":"◎","内水氾濫":"◎","火山現象":"","指定避難所との重複":"◎","備考":"土砂災害は除く"}},
{"type":"Feature","geometry":{"type":"Point","coordinates":[135.8425159787,34.6535982016]},"properties":{"Name":"古市公園","Jusho":"奈良県奈良市","洪水":"◎","がけ崩れ、土石流及び地滑り":"◎","高潮":"","地震":"◎","津波":"","大規模な火事":"◎","内水氾濫":"◎","火山現象":"","指定避難所との重複":"","備考":""}},
{"type":"Feature","geometry":{"type":"Point","coordinates":[135.9338837000,34.7127965200]},"properties":{"Name":"興東中学校","Jusho":"奈良県奈良市大柳生町832","洪水":"◎","がけ崩れ、土石流及び地滑り":"◎","高潮":"","地震":"◎","津波":"","大規模な火事":"◎","内水氾濫":"◎","火山現象":"","指定避難所との重複":"◎","備考":""}},
{"type":"Feature","geometry":{"type":"Point","coordinates":[135.9222910000,34.7162850000]},"properties":{"Name":"（旧）興東中学校","Jusho":"奈良県奈良市大柳生町4736","洪水":"◎","がけ崩れ、土石流及び地滑り":"◎","高潮":"","地震":"◎","津波":"","大規模な火事":"◎","内水氾濫":"◎","火山現象":"","指定避難所との重複":"◎","備考":""}},
{"type":"Feature","geometry":{"type":"Point","coordinates":[135.9289142000,34.7073161300]},"properties":{"Name":"興東公民館","Jusho":"奈良県奈良市大柳生町3633","洪水":"◎","がけ崩れ、土石流及び地滑り":"◎","高潮":"","地震":"◎","津波":"","大規模な火事":"◎","内水氾濫":"◎","火山現象":"","指定避難所との重複":"◎","備考":""}},
{"type":"Feature","geometry":{"type":"Point","coordinates":[135.9264720000,34.6829495900]},"properties":{"Name":"興東公民館大平尾分館","Jusho":"奈良県奈良市大平尾町471","洪水":"◎","がけ崩れ、土石流及び地滑り":"◎","高潮":"","地震":"◎","津波":"","大規模な火事":"◎","内水氾濫":"◎","火山現象":"","指定避難所との重複":"◎","備考":""}},
{"type":"Feature","geometry":{"type":"Point","coordinates":[135.9118986000,34.7174013500]},"properties":{"Name":"興東小学校","Jusho":"奈良県奈良市須川町1424","洪水":"◎","がけ崩れ、土石流及び地滑り":"◎","高潮":"","地震":"◎","津波":"","大規模な火事":"◎","内水氾濫":"◎","火山現象":"","指定避難所との重複":"◎","備考":""}},
{"type":"Feature","geometry":{"type":"Point","coordinates":[135.9129750000,34.7350470900]},"properties":{"Name":"興東公民館狭川分館","Jusho":"奈良県奈良市下狭川町3109‐2","洪水":"◎","がけ崩れ、土石流及び地滑り":"◎","高潮":"","地震":"◎","津波":"","大規模な火事":"◎","内水氾濫":"◎","火山現象":"","指定避難所との重複":"◎","備考":""}},
{"type":"Feature","geometry":{"type":"Point","coordinates":[135.8282022000,34.6805556400]},"properties":{"Name":"椿井小学校","Jusho":"奈良県奈良市椿井町25","洪水":"◎","がけ崩れ、土石流及び地滑り":"◎","高潮":"","地震":"◎","津波":"","大規模な火事":"◎","内水氾濫":"◎","火山現象":"","指定避難所との重複":"◎","備考":""}},
{"type":"Feature","geometry":{"type":"Point","coordinates":[135.8258411000,34.6822960400]},"properties":{"Name":"中部公民館","Jusho":"奈良県奈良市上三条町23‐4","洪水":"◎","がけ崩れ、土石流及び地滑り":"◎","高潮":"","地震":"◎","津波":"","大規模な火事":"◎","内水氾濫":"◎","火山現象":"","指定避難所との重複":"◎","備考":""}},
{"type":"Feature","geometry":{"type":"Point","coordinates":[135.8237695000,34.6749787800]},"properties":{"Name":"済美小学校","Jusho":"奈良県奈良市西木辻町5‐2","洪水":"◎","がけ崩れ、土石流及び地滑り":"◎","高潮":"","地震":"◎","津波":"","大規模な火事":"◎","内水氾濫":"◎","火山現象":"","指定避難所との重複":"◎","備考":""}},
{"type":"Feature","geometry":{"type":"Point","coordinates":[135.8199910000,34.6736549700]},"properties":{"Name":"春日中学校","Jusho":"奈良県奈良市西木辻町67","洪水":"◎","がけ崩れ、土石流及び地滑り":"◎","高潮":"","地震":"◎","津波":"","大規模な火事":"◎","内水氾濫":"◎","火山現象":"","指定避難所との重複":"◎","備考":""}},
{"type":"Feature","geometry":{"type":"Point","coordinates":[135.8224794000,34.6719482600]},"properties":{"Name":"春日公民館","Jusho":"奈良県奈良市南京終町1‐86‐1","洪水":"◎","がけ崩れ、土石流及び地滑り":"◎","高潮":"","地震":"◎","津波":"","大規模な火事":"◎","内水氾濫":"◎","火山現象":"","指定避難所との重複":"◎","備考":""}},
{"type":"Feature","geometry":{"type":"Point","coordinates":[135.8211504000,34.6774585600]},"properties":{"Name":"生涯学習センター","Jusho":"奈良県奈良市杉ヶ町23","洪水":"◎","がけ崩れ、土石流及び地滑り":"◎","高潮":"","地震":"◎","津波":"","大規模な火事":"◎","内水氾濫":"◎","火山現象":"","指定避難所との重複":"◎","備考":""}},
{"type":"Feature","geometry":{"type":"Point","coordinates":[135.8214624715,34.6640923794]},"properties":{"Name":"済美南小学校","Jusho":"奈良県奈良市南京終町676","洪水":"◎","がけ崩れ、土石流及び地滑り":"◎","高潮":"","地震":"◎","津波":"","大規模な火事":"◎","内水氾濫":"◎","火山現象":"","指定避難所との重複":"◎","備考":""}},
{"type":"Feature","geometry":{"type":"Point","coordinates":[135.8359357000,34.6750063900]},"properties":{"Name":"飛鳥小学校","Jusho":"奈良県奈良市紀寺町785","洪水":"◎","がけ崩れ、土石流及び地滑り":"◎","高潮":"","地震":"◎","津波":"","大規模な火事":"◎","内水氾濫":"◎","火山現象":"","指定避難所との重複":"◎","備考":""}},
{"type":"Feature","geometry":{"type":"Point","coordinates":[135.8491484000,34.6753756100]},"properties":{"Name":"飛鳥中学校","Jusho":"奈良県奈良市高畑町1475‐1","洪水":"◎","がけ崩れ、土石流及び地滑り":"◎","高潮":"","地震":"◎","津波":"","大規模な火事":"◎","内水氾濫":"◎","火山現象":"","指定避難所との重複":"◎","備考":""}},
{"type":"Feature","geometry":{"type":"Point","coordinates":[135.8353399000,34.6758161200]},"properties":{"Name":"飛鳥公民館","Jusho":"奈良県奈良市紀寺町984","洪水":"◎","がけ崩れ、土石流及び地滑り":"◎","高潮":"","地震":"◎","津波":"","大規模な火事":"◎","内水氾濫":"◎","火山現象":"","指定避難所との重複":"◎","備考":""}},
{"type":"Feature","geometry":{"type":"Point","coordinates":[135.8359525000,34.6923670800]},"properties":{"Name":"鼓阪小学校","Jusho":"奈良県奈良市雑司町97","洪水":"◎","がけ崩れ、土石流及び地滑り":"◎","高潮":"","地震":"◎","津波":"","大規模な火事":"◎","内水氾濫":"◎","火山現象":"","指定避難所との重複":"◎","備考":""}},
{"type":"Feature","geometry":{"type":"Point","coordinates":[135.8324171000,34.6925402700]},"properties":{"Name":"若草公民館","Jusho":"奈良県奈良市川上町575","洪水":"◎","がけ崩れ、土石流及び地滑り":"◎","高潮":"","地震":"◎","津波":"","大規模な火事":"◎","内水氾濫":"◎","火山現象":"","指定避難所との重複":"◎","備考":""}},
{"type":"Feature","geometry":{"type":"Point","coordinates":[135.8370443000,34.6962598800]},"properties":{"Name":"北人権文化センター","Jusho":"奈良県奈良市川上町418‐1","洪水":"◎","がけ崩れ、土石流及び地滑り":"◎","高潮":"","地震":"◎","津波":"","大規模な火事":"◎","内水氾濫":"◎","火山現象":"","指定避難所との重複":"◎","備考":""}},
{"type":"Feature","geometry":{"type":"Point","coordinates":[135.8360158000,34.6968902600]},"properties":{"Name":"東之阪児童館","Jusho":"奈良県奈良市川上町461‐1","洪水":"◎","がけ崩れ、土石流及び地滑り":"◎","高潮":"","地震":"◎","津波":"","大規模な火事":"◎","内水氾濫":"◎","火山現象":"","指定避難所との重複":"◎","備考":""}},
{"type":"Feature","geometry":{"type":"Point","coordinates":[135.8374715000,34.7086859700]},"properties":{"Name":"鼓阪北小学校","Jusho":"奈良県奈良市青山9‐3‐1","洪水":"◎","がけ崩れ、土石流及び地滑り":"◎","高潮":"","地震":"◎","津波":"","大規模な火事":"◎","内水氾濫":"◎","火山現象":"","指定避難所との重複":"◎","備考":""}},
{"type":"Feature","geometry":{"type":"Point","coordinates":[135.8208014000,34.6911366900]},"properties":{"Name":"佐保小学校","Jusho":"奈良県奈良市法蓮町280‐1","洪水":"◎","がけ崩れ、土石流及び地滑り":"◎","高潮":"","地震":"◎","津波":"","大規模な火事":"◎","内水氾濫":"◎","火山現象":"","指定避難所との重複":"◎","備考":""}},
{"type":"Feature","geometry":{"type":"Point","coordinates":[135.8314370000,34.6951133400]},"properties":{"Name":"若草中学校","Jusho":"奈良県奈良市法蓮町1416‐1","洪水":"◎","がけ崩れ、土石流及び地滑り":"◎","高潮":"","地震":"◎","津波":"","大規模な火事":"◎","内水氾濫":"◎","火山現象":"","指定避難所との重複":"◎","備考":""}},
{"type":"Feature","geometry":{"type":"Point","coordinates":[135.8201822000,34.6869129600]},"properties":{"Name":"中人権文化センター","Jusho":"奈良県奈良市畑中町4‐4","洪水":"◎","がけ崩れ、土石流及び地滑り":"◎","高潮":"","地震":"◎","津波":"","大規模な火事":"◎","内水氾濫":"◎","火山現象":"","指定避難所との重複":"◎","備考":""}},
{"type":"Feature","geometry":{"type":"Point","coordinates":[135.8154905000,34.6885716400]},"properties":{"Name":"佐保川小学校","Jusho":"奈良県奈良市法蓮町229‐1","洪水":"◎","がけ崩れ、土石流及び地滑り":"◎","高潮":"","地震":"◎","津波":"","大規模な火事":"◎","内水氾濫":"◎","火山現象":"","指定避難所との重複":"◎","備考":""}},
{"type":"Feature","geometry":{"type":"Point","coordinates":[135.8109896000,34.6925945600]},"properties":{"Name":"一条高校","Jusho":"奈良県奈良市法華寺町1351","洪水":"◎","がけ崩れ、土石流及び地滑り":"◎","高潮":"","地震":"◎","津波":"","大規模な火事":"◎","内水氾濫":"◎","火山現象":"","指定避難所との重複":"◎","備考":""}},
{"type":"Feature","geometry":{"type":"Point","coordinates":[135.8111499000,34.6837211300]},"properties":{"Name":"大宮小学校","Jusho":"奈良県奈良市大宮町4‐223‐1","洪水":"◎","がけ崩れ、土石流及び地滑り":"◎","高潮":"","地震":"◎","津波":"","大規模な火事":"◎","内水氾濫":"◎","火山現象":"","指定避難所との重複":"◎","備考":""}},
{"type":"Feature","geometry":{"type":"Point","coordinates":[135.8086619000,34.6829571200]},"properties":{"Name":"三笠公民館","Jusho":"奈良県奈良市大宮町4‐313‐3","洪水":"◎","がけ崩れ、土石流及び地滑り":"◎","高潮":"","地震":"◎","津波":"","大規模な火事":"◎","内水氾濫":"◎","火山現象":"","指定避難所との重複":"◎","備考":""}},
{"type":"Feature","geometry":{"type":"Point","coordinates":[135.8225173000,34.6833010900]},"properties":{"Name":"男女共同参画センター","Jusho":"奈良県奈良市西之阪町12","洪水":"◎","がけ崩れ、土石流及び地滑り":"◎","高潮":"","地震":"◎","津波":"","大規模な火事":"◎","内水氾濫":"◎","火山現象":"","指定避難所との重複":"◎","備考":""}},
{"type":"Feature","geometry":{"type":"Point","coordinates":[135.8225941000,34.6826266000]},"properties":{"Name":"大宮児童館","Jusho":"奈良県奈良市西之阪町5‐1","洪水":"◎","がけ崩れ、土石流及び地滑り":"◎","高潮":"","地震":"◎","津波":"","大規模な火事":"◎","内水氾濫":"◎","火山現象":"","指定避難所との重複":"◎","備考":""}},
{"type":"Feature","geometry":{"type":"Point","coordinates":[135.8114600000,34.6688617300]},"properties":{"Name":"大安寺小学校","Jusho":"奈良県奈良市大安寺2‐15‐1","洪水":"◎","がけ崩れ、土石流及び地滑り":"◎","高潮":"","地震":"◎","津波":"","大規模な火事":"◎","内水氾濫":"◎","火山現象":"","指定避難所との重複":"◎","備考":""}},
{"type":"Feature","geometry":{"type":"Point","coordinates":[135.8052875000,34.6745553300]},"properties":{"Name":"大安寺西小学校","Jusho":"奈良県奈良市大安寺西1‐342","洪水":"◎","がけ崩れ、土石流及び地滑り":"◎","高潮":"","地震":"◎","津波":"","大規模な火事":"◎","内水氾濫":"◎","火山現象":"","指定避難所との重複":"◎","備考":""}},
{"type":"Feature","geometry":{"type":"Point","coordinates":[135.8063517000,34.6798174200]},"properties":{"Name":"三笠中学校","Jusho":"奈良県奈良市三条川西町3‐1","洪水":"◎","がけ崩れ、土石流及び地滑り":"◎","高潮":"","地震":"◎","津波":"","大規模な火事":"◎","内水氾濫":"◎","火山現象":"","指定避難所との重複":"◎","備考":""}},
{"type":"Feature","geometry":{"type":"Point","coordinates":[135.8015026044,34.6694328961]},"properties":{"Name":"防災センター","Jusho":"奈良県奈良市八条5‐404‐1","洪水":"◎","がけ崩れ、土石流及び地滑り":"◎","高潮":"","地震":"◎","津波":"","大規模な火事":"◎","内水氾濫":"◎","火山現象":"","指定避難所との重複":"◎","備考":""}},
{"type":"Feature","geometry":{"type":"Point","coordinates":[135.8419301000,34.6561244600]},"properties":{"Name":"東市小学校","Jusho":"奈良県奈良市古市町268","洪水":"◎","がけ崩れ、土石流及び地滑り":"◎","高潮":"","地震":"◎","津波":"","大規模な火事":"◎","内水氾濫":"◎","火山現象":"","指定避難所との重複":"◎","備考":""}},
{"type":"Feature","geometry":{"type":"Point","coordinates":[135.8347200000,34.6633450000]},"properties":{"Name":"東人権文化センター","Jusho":"奈良県奈良市古市町1226","洪水":"◎","がけ崩れ、土石流及び地滑り":"◎","高潮":"","地震":"◎","津波":"","大規模な火事":"◎","内水氾濫":"◎","火山現象":"","指定避難所との重複":"◎","備考":""}},
{"type":"Feature","geometry":{"type":"Point","coordinates":[135.8320827000,34.6538211300]},"properties":{"Name":"（旧）横井人権文化センター","Jusho":"奈良県奈良市横井1‐616‐1","洪水":"◎","がけ崩れ、土石流及び地滑り":"◎","高潮":"","地震":"◎","津波":"","大規模な火事":"◎","内水氾濫":"◎","火山現象":"","指定避難所との重複":"◎","備考":""}},
{"type":"Feature","geometry":{"type":"Point","coordinates":[135.8347679000,34.6615173500]},"properties":{"Name":"古市児童館","Jusho":"奈良県奈良市古市町1263","洪水":"◎","がけ崩れ、土石流及び地滑り":"◎","高潮":"","地震":"◎","津波":"","大規模な火事":"◎","内水氾濫":"◎","火山現象":"","指定避難所との重複":"◎","備考":""}},
{"type":"Feature","geometry":{"type":"Point","coordinates":[135.8301141000,34.6507166600]},"properties":{"Name":"横井児童館","Jusho":"奈良県奈良市横井5‐337‐2","洪水":"◎","がけ崩れ、土石流及び地滑り":"◎","高潮":"","地震":"◎","津波":"","大規模な火事":"◎","内水氾濫":"◎","火山現象":"","指定避難所との重複":"◎","備考":""}},
{"type":"Feature","geometry":{"type":"Point","coordinates":[135.8224401000,34.6562782400]},"properties":{"Name":"明治小学校","Jusho":"奈良県奈良市北永井町414","洪水":"◎","がけ崩れ、土石流及び地滑り":"◎","高潮":"","地震":"◎","津波":"","大規模な火事":"◎","内水氾濫":"◎","火山現象":"","指定避難所との重複":"◎","備考":""}},
{"type":"Feature","geometry":{"type":"Point","coordinates":[135.8240754029,34.6486477153]},"properties":{"Name":"都南小学校","Jusho":"奈良県奈良市南永井町98‐1","洪水":"◎","がけ崩れ、土石流及び地滑り":"◎","高潮":"","地震":"◎","津波":"","大規模な火事":"◎","内水氾濫":"◎","火山現象":"","指定避難所との重複":"◎","備考":""}},
{"type":"Feature","geometry":{"type":"Point","coordinates":[135.8068453000,34.6590339800]},"properties":{"Name":"辰市小学校","Jusho":"奈良県奈良市西九条町1‐7‐1","洪水":"◎","がけ崩れ、土石流及び地滑り":"◎","高潮":"","地震":"◎","津波":"","大規模な火事":"◎","内水氾濫":"◎","火山現象":"","指定避難所との重複":"◎","備考":""}},
{"type":"Feature","geometry":{"type":"Point","coordinates":[135.8005511000,34.6614013500]},"properties":{"Name":"南人権文化センター","Jusho":"奈良県奈良市杏町401‐1","洪水":"◎","がけ崩れ、土石流及び地滑り":"◎","高潮":"","地震":"◎","津波":"","大規模な火事":"◎","内水氾濫":"◎","火山現象":"","指定避難所との重複":"◎","備考":""}},
{"type":"Feature","geometry":{"type":"Point","coordinates":[135.8290000000,34.6447433400]},"properties":{"Name":"帯解小学校","Jusho":"奈良県奈良市柴屋町9","洪水":"◎","がけ崩れ、土石流及び地滑り":"◎","高潮":"","地震":"◎","津波":"","大規模な火事":"◎","内水氾濫":"◎","火山現象":"","指定避難所との重複":"◎","備考":""}},
{"type":"Feature","geometry":{"type":"Point","coordinates":[135.8287365000,34.6437501300]},"properties":{"Name":"南部公民館","Jusho":"奈良県奈良市山町27‐1","洪水":"◎","がけ崩れ、土石流及び地滑り":"◎","高潮":"","地震":"◎","津波":"","大規模な火事":"◎","内水氾濫":"◎","火山現象":"","指定避難所との重複":"◎","備考":""}},
{"type":"Feature","geometry":{"type":"Point","coordinates":[135.8537978000,34.6333118100]},"properties":{"Name":"南部公民館精華分館","Jusho":"奈良県奈良市高樋町640‐1","洪水":"◎","がけ崩れ、土石流及び地滑り":"◎","高潮":"","地震":"◎","津波":"","大規模な火事":"◎","内水氾濫":"◎","火山現象":"","指定避難所との重複":"◎","備考":""}},
{"type":"Feature","geometry":{"type":"Point","coordinates":[135.8804993000,34.6179140700]},"properties":{"Name":"米谷町集会所","Jusho":"奈良県奈良市米谷町566‐1","洪水":"◎","がけ崩れ、土石流及び地滑り":"◎","高潮":"","地震":"◎","津波":"","大規模な火事":"◎","内水氾濫":"◎","火山現象":"","指定避難所との重複":"◎","備考":""}},
{"type":"Feature","geometry":{"type":"Point","coordinates":[135.8761970000,34.6261236400]},"properties":{"Name":"興隆寺町公民館","Jusho":"奈良県奈良市興隆寺町356‐2","洪水":"◎","がけ崩れ、土石流及び地滑り":"","高潮":"","地震":"","津波":"","大規模な火事":"◎","内水氾濫":"◎","火山現象":"","指定避難所との重複":"◎","備考":""}},
{"type":"Feature","geometry":{"type":"Point","coordinates":[135.8880791000,34.6257854100]},"properties":{"Name":"中畑町公民館","Jusho":"奈良県奈良市中畑町1276","洪水":"◎","がけ崩れ、土石流及び地滑り":"","高潮":"","地震":"","津波":"","大規模な火事":"◎","内水氾濫":"◎","火山現象":"","指定避難所との重複":"◎","備考":""}},
{"type":"Feature","geometry":{"type":"Point","coordinates":[135.7882397000,34.6805721300]},"properties":{"Name":"都跡小学校","Jusho":"奈良県奈良市四条大路5‐6‐1","洪水":"◎","がけ崩れ、土石流及び地滑り":"◎","高潮":"","地震":"◎","津波":"","大規模な火事":"◎","内水氾濫":"◎","火山現象":"","指定避難所との重複":"◎","備考":""}},
{"type":"Feature","geometry":{"type":"Point","coordinates":[135.7959574000,34.6764015400]},"properties":{"Name":"都跡中学校","Jusho":"奈良県奈良市柏木町13","洪水":"◎","がけ崩れ、土石流及び地滑り":"◎","高潮":"","地震":"◎","津波":"","大規模な火事":"◎","内水氾濫":"◎","火山現象":"","指定避難所との重複":"◎","備考":""}},
{"type":"Feature","geometry":{"type":"Point","coordinates":[135.7891228000,34.6751087600]},"properties":{"Name":"都跡公民館","Jusho":"奈良県奈良市五条町204‐1","洪水":"◎","がけ崩れ、土石流及び地滑り":"◎","高潮":"","地震":"◎","津波":"","大規模な火事":"◎","内水氾濫":"◎","火山現象":"","指定避難所との重複":"◎","備考":""}},
{"type":"Feature","geometry":{"type":"Point","coordinates":[135.7782431000,34.7110005500]},"properties":{"Name":"平城小学校","Jusho":"奈良県奈良市秋篠町1394","洪水":"◎","がけ崩れ、土石流及び地滑り":"◎","高潮":"","地震":"◎","津波":"","大規模な火事":"◎","内水氾濫":"◎","火山現象":"","指定避難所との重複":"◎","備考":""}},
{"type":"Feature","geometry":{"type":"Point","coordinates":[135.7737473000,34.7090150800]},"properties":{"Name":"平城中学校","Jusho":"奈良県奈良市秋篠町1333","洪水":"◎","がけ崩れ、土石流及び地滑り":"◎","高潮":"","地震":"◎","津波":"","大規模な火事":"◎","内水氾濫":"◎","火山現象":"","指定避難所との重複":"◎","備考":""}},
{"type":"Feature","geometry":{"type":"Point","coordinates":[135.7776193000,34.7062124300]},"properties":{"Name":"平城公民館","Jusho":"奈良県奈良市秋篠町1468","洪水":"◎","がけ崩れ、土石流及び地滑り":"◎","高潮":"","地震":"◎","津波":"","大規模な火事":"◎","内水氾濫":"◎","火山現象":"","指定避難所との重複":"◎","備考":""}},
{"type":"Feature","geometry":{"type":"Point","coordinates":[135.7745579000,34.6879187300]},"properties":{"Name":"伏見小学校","Jusho":"奈良県奈良市菅原町370","洪水":"◎","がけ崩れ、土石流及び地滑り":"◎","高潮":"","地震":"◎","津波":"","大規模な火事":"◎","内水氾濫":"◎","火山現象":"","指定避難所との重複":"◎","備考":""}},
{"type":"Feature","geometry":{"type":"Point","coordinates":[135.7739629000,34.6959271000]},"properties":{"Name":"伏見中学校","Jusho":"奈良県奈良市西大寺野神町1‐6‐1","洪水":"◎","がけ崩れ、土石流及び地滑り":"◎","高潮":"","地震":"◎","津波":"","大規模な火事":"◎","内水氾濫":"◎","火山現象":"","指定避難所との重複":"◎","備考":""}},
{"type":"Feature","geometry":{"type":"Point","coordinates":[135.7741470000,34.6894830000]},"properties":{"Name":"伏見公民館","Jusho":"奈良県奈良市青野町191‐1","洪水":"◎","がけ崩れ、土石流及び地滑り":"◎","高潮":"","地震":"◎","津波":"","大規模な火事":"◎","内水氾濫":"◎","火山現象":"","指定避難所との重複":"◎","備考":""}},
{"type":"Feature","geometry":{"type":"Point","coordinates":[135.7733435000,34.6991528900]},"properties":{"Name":"西大寺北小学校","Jusho":"奈良県奈良市西大寺赤田町1‐6‐1","洪水":"◎","がけ崩れ、土石流及び地滑り":"◎","高潮":"","地震":"◎","津波":"","大規模な火事":"◎","内水氾濫":"◎","火山現象":"","指定避難所との重複":"◎","備考":""}},
{"type":"Feature","geometry":{"type":"Point","coordinates":[135.7701212974,34.6806257945]},"properties":{"Name":"伏見南小学校","Jusho":"奈良県奈良市宝来5-2‐1","洪水":"◎","がけ崩れ、土石流及び地滑り":"◎","高潮":"","地震":"◎","津波":"","大規模な火事":"◎","内水氾濫":"◎","火山現象":"","指定避難所との重複":"◎","備考":""}},
{"type":"Feature","geometry":{"type":"Point","coordinates":[135.7762102952,34.6743561180]},"properties":{"Name":"京西中学校","Jusho":"奈良県奈良市平松4-3‐1","洪水":"◎","がけ崩れ、土石流及び地滑り":"◎","高潮":"","地震":"◎","津波":"","大規模な火事":"◎","内水氾濫":"◎","火山現象":"","指定避難所との重複":"◎","備考":""}},
{"type":"Feature","geometry":{"type":"Point","coordinates":[135.7715430000,34.6707249600]},"properties":{"Name":"六条小学校","Jusho":"奈良県奈良市六条2‐14‐1","洪水":"◎","がけ崩れ、土石流及び地滑り":"◎","高潮":"","地震":"◎","津波":"","大規模な火事":"◎","内水氾濫":"◎","火山現象":"","指定避難所との重複":"◎","備考":""}},
{"type":"Feature","geometry":{"type":"Point","coordinates":[135.7709684000,34.6719640300]},"properties":{"Name":"京西公民館","Jusho":"奈良県奈良市六条西1‐3‐43‐2","洪水":"◎","がけ崩れ、土石流及び地滑り":"◎","高潮":"","地震":"◎","津波":"","大規模な火事":"◎","内水氾濫":"◎","火山現象":"","指定避難所との重複":"◎","備考":""}},
{"type":"Feature","geometry":{"type":"Point","coordinates":[135.7580599000,34.6928139200]},"properties":{"Name":"あやめ池小学校","Jusho":"奈良県奈良市あやめ池南9－939-39","洪水":"◎","がけ崩れ、土石流及び地滑り":"◎","高潮":"","地震":"◎","津波":"","大規模な火事":"◎","内水氾濫":"◎","火山現象":"","指定避難所との重複":"◎","備考":""}},
{"type":"Feature","geometry":{"type":"Point","coordinates":[135.7502448000,34.6966362900]},"properties":{"Name":"西部公民館","Jusho":"奈良県奈良市学園南3‐1‐5","洪水":"◎","がけ崩れ、土石流及び地滑り":"◎","高潮":"","地震":"◎","津波":"","大規模な火事":"◎","内水氾濫":"◎","火山現象":"","指定避難所との重複":"◎","備考":""}},
{"type":"Feature","geometry":{"type":"Point","coordinates":[135.7635774000,34.7137575100]},"properties":{"Name":"平城西小学校","Jusho":"奈良県奈良市東登美ヶ丘3‐1093‐1","洪水":"◎","がけ崩れ、土石流及び地滑り":"◎","高潮":"","地震":"◎","津波":"","大規模な火事":"◎","内水氾濫":"◎","火山現象":"","指定避難所との重複":"◎","備考":""}},
{"type":"Feature","geometry":{"type":"Point","coordinates":[135.7619975000,34.7136684300]},"properties":{"Name":"登美ヶ丘中学校","Jusho":"奈良県奈良市東登美ヶ丘3‐1059","洪水":"◎","がけ崩れ、土石流及び地滑り":"◎","高潮":"","地震":"◎","津波":"","大規模な火事":"◎","内水氾濫":"◎","火山現象":"","指定避難所との重複":"◎","備考":""}},
{"type":"Feature","geometry":{"type":"Point","coordinates":[135.7546335000,34.7131465400]},"properties":{"Name":"登美ヶ丘南公民館","Jusho":"奈良県奈良市中山町西2‐921‐1","洪水":"◎","がけ崩れ、土石流及び地滑り":"◎","高潮":"","地震":"◎","津波":"","大規模な火事":"◎","内水氾濫":"◎","火山現象":"","指定避難所との重複":"◎","備考":""}},
{"type":"Feature","geometry":{"type":"Point","coordinates":[135.7529905000,34.7064674100]},"properties":{"Name":"鶴舞小学校","Jusho":"奈良県奈良市鶴舞東町2‐1","洪水":"◎","がけ崩れ、土石流及び地滑り":"◎","高潮":"","地震":"◎","津波":"","大規模な火事":"◎","内水氾濫":"◎","火山現象":"","指定避難所との重複":"◎","備考":""}},
{"type":"Feature","geometry":{"type":"Point","coordinates":[135.7431163000,34.7003130700]},"properties":{"Name":"青和小学校","Jusho":"奈良県奈良市百楽園4‐1‐1","洪水":"◎","がけ崩れ、土石流及び地滑り":"◎","高潮":"","地震":"◎","津波":"","大規模な火事":"◎","内水氾濫":"◎","火山現象":"","指定避難所との重複":"◎","備考":""}},
{"type":"Feature","geometry":{"type":"Point","coordinates":[135.7381250000,34.7052360000]},"properties":{"Name":"二名公民館","Jusho":"奈良県奈良市学園赤松町3684","洪水":"◎","がけ崩れ、土石流及び地滑り":"◎","高潮":"","地震":"◎","津波":"","大規模な火事":"◎","内水氾濫":"◎","火山現象":"","指定避難所との重複":"◎","備考":""}},
{"type":"Feature","geometry":{"type":"Point","coordinates":[135.7562803000,34.7204536400]},"properties":{"Name":"東登美ヶ丘小学校","Jusho":"奈良県奈良市東登美ヶ丘4‐21‐33","洪水":"◎","がけ崩れ、土石流及び地滑り":"◎","高潮":"","地震":"◎","津波":"","大規模な火事":"◎","内水氾濫":"◎","火山現象":"","指定避難所との重複":"◎","備考":""}},
{"type":"Feature","geometry":{"type":"Point","coordinates":[135.7529419000,34.7234791600]},"properties":{"Name":"登美ヶ丘北中学校","Jusho":"奈良県奈良市北登美ヶ丘1‐1‐1","洪水":"◎","がけ崩れ、土石流及び地滑り":"◎","高潮":"","地震":"◎","津波":"","大規模な火事":"◎","内水氾濫":"◎","火山現象":"","指定避難所との重複":"◎","備考":""}},
{"type":"Feature","geometry":{"type":"Point","coordinates":[135.7392867000,34.7198146100]},"properties":{"Name":"登美ヶ丘小学校","Jusho":"奈良県奈良市西登美ヶ丘4‐21‐1","洪水":"◎","がけ崩れ、土石流及び地滑り":"◎","高潮":"","地震":"◎","津波":"","大規模な火事":"◎","内水氾濫":"◎","火山現象":"","指定避難所との重複":"◎","備考":""}},
{"type":"Feature","geometry":{"type":"Point","coordinates":[135.7485647000,34.7197633000]},"properties":{"Name":"登美ヶ丘公民館","Jusho":"奈良県奈良市中登美ヶ丘3‐4162‐81","洪水":"◎","がけ崩れ、土石流及び地滑り":"◎","高潮":"","地震":"◎","津波":"","大規模な火事":"◎","内水氾濫":"◎","火山現象":"","指定避難所との重複":"◎","備考":""}},
{"type":"Feature","geometry":{"type":"Point","coordinates":[135.7372089000,34.7081373700]},"properties":{"Name":"二名小学校","Jusho":"奈良県奈良市二名1‐3716‐1","洪水":"◎","がけ崩れ、土石流及び地滑り":"◎","高潮":"","地震":"◎","津波":"","大規模な火事":"◎","内水氾濫":"◎","火山現象":"","指定避難所との重複":"◎","備考":""}},
{"type":"Feature","geometry":{"type":"Point","coordinates":[135.7376574000,34.7063344900]},"properties":{"Name":"二名中学校","Jusho":"奈良県奈良市二名1‐3667‐2","洪水":"◎","がけ崩れ、土石流及び地滑り":"◎","高潮":"","地震":"◎","津波":"","大規模な火事":"◎","内水氾濫":"◎","火山現象":"","指定避難所との重複":"◎","備考":""}},
{"type":"Feature","geometry":{"type":"Point","coordinates":[135.7328044000,34.6971471700]},"properties":{"Name":"富雄北小学校","Jusho":"奈良県奈良市富雄北1‐13‐6","洪水":"◎","がけ崩れ、土石流及び地滑り":"◎","高潮":"","地震":"◎","津波":"","大規模な火事":"◎","内水氾濫":"◎","火山現象":"","指定避難所との重複":"◎","備考":""}},
{"type":"Feature","geometry":{"type":"Point","coordinates":[135.7250189000,34.6952078900]},"properties":{"Name":"鳥見小学校","Jusho":"奈良県奈良市鳥見町3‐11‐2","洪水":"◎","がけ崩れ、土石流及び地滑り":"◎","高潮":"","地震":"◎","津波":"","大規模な火事":"◎","内水氾濫":"◎","火山現象":"","指定避難所との重複":"◎","備考":""}},
{"type":"Feature","geometry":{"type":"Point","coordinates":[135.7268453000,34.6892665300]},"properties":{"Name":"富雄公民館","Jusho":"奈良県奈良市鳥見町2‐9","洪水":"◎","がけ崩れ、土石流及び地滑り":"◎","高潮":"","地震":"◎","津波":"","大規模な火事":"◎","内水氾濫":"◎","火山現象":"","指定避難所との重複":"◎","備考":""}},
{"type":"Feature","geometry":{"type":"Point","coordinates":[135.7416389000,34.6834440100]},"properties":{"Name":"三碓小学校","Jusho":"奈良県奈良市西千代ヶ丘1‐20‐9","洪水":"◎","がけ崩れ、土石流及び地滑り":"◎","高潮":"","地震":"◎","津波":"","大規模な火事":"◎","内水氾濫":"◎","火山現象":"","指定避難所との重複":"◎","備考":""}},
{"type":"Feature","geometry":{"type":"Point","coordinates":[135.7359140000,34.6896213600]},"properties":{"Name":"富雄中学校","Jusho":"奈良県奈良市三碓2‐3‐12","洪水":"◎","がけ崩れ、土石流及び地滑り":"◎","高潮":"","地震":"◎","津波":"","大規模な火事":"◎","内水氾濫":"◎","火山現象":"","指定避難所との重複":"◎","備考":""}},
{"type":"Feature","geometry":{"type":"Point","coordinates":[135.7327871000,34.6756640500]},"properties":{"Name":"富雄第三小中学校","Jusho":"奈良県奈良市帝塚山南2‐11‐1","洪水":"◎","がけ崩れ、土石流及び地滑り":"◎","高潮":"","地震":"◎","津波":"","大規模な火事":"◎","内水氾濫":"◎","火山現象":"","指定避難所との重複":"◎","備考":""}},
{"type":"Feature","geometry":{"type":"Point","coordinates":[135.7494381000,34.6745133800]},"properties":{"Name":"富雄南小学校","Jusho":"奈良県奈良市中町4185","洪水":"◎","がけ崩れ、土石流及び地滑り":"◎","高潮":"","地震":"◎","津波":"","大規模な火事":"◎","内水氾濫":"◎","火山現象":"","指定避難所との重複":"◎","備考":""}},
{"type":"Feature","geometry":{"type":"Point","coordinates":[135.7532799000,34.6820027000]},"properties":{"Name":"富雄南中学校","Jusho":"奈良県奈良市藤ノ木台1‐5‐13","洪水":"◎","がけ崩れ、土石流及び地滑り":"◎","高潮":"","地震":"◎","津波":"","大規模な火事":"◎","内水氾濫":"◎","火山現象":"","指定避難所との重複":"◎","備考":""}},
{"type":"Feature","geometry":{"type":"Point","coordinates":[135.7504538000,34.6785922100]},"properties":{"Name":"富雄南公民館","Jusho":"奈良県奈良市中町501‐3","洪水":"◎","がけ崩れ、土石流及び地滑り":"◎","高潮":"","地震":"◎","津波":"","大規模な火事":"◎","内水氾濫":"◎","火山現象":"","指定避難所との重複":"◎","備考":""}},
{"type":"Feature","geometry":{"type":"Point","coordinates":[135.7782637000,34.7199022900]},"properties":{"Name":"神功小学校","Jusho":"奈良県奈良市神功2‐2","洪水":"◎","がけ崩れ、土石流及び地滑り":"◎","高潮":"","地震":"◎","津波":"","大規模な火事":"◎","内水氾濫":"◎","火山現象":"","指定避難所との重複":"◎","備考":""}},
{"type":"Feature","geometry":{"type":"Point","coordinates":[135.7803715000,34.7196682800]},"properties":{"Name":"平城西中学校","Jusho":"奈良県奈良市神功2‐1","洪水":"◎","がけ崩れ、土石流及び地滑り":"◎","高潮":"","地震":"◎","津波":"","大規模な火事":"◎","内水氾濫":"◎","火山現象":"","指定避難所との重複":"◎","備考":""}},
{"type":"Feature","geometry":{"type":"Point","coordinates":[135.7774220000,34.7206320000]},"properties":{"Name":"平城西公民館","Jusho":"奈良県奈良市神功4‐25","洪水":"◎","がけ崩れ、土石流及び地滑り":"◎","高潮":"","地震":"◎","津波":"","大規模な火事":"◎","内水氾濫":"◎","火山現象":"","指定避難所との重複":"◎","備考":""}},
{"type":"Feature","geometry":{"type":"Point","coordinates":[135.7864337000,34.7216729300]},"properties":{"Name":"右京小学校","Jusho":"奈良県奈良市右京4‐11‐1","洪水":"◎","がけ崩れ、土石流及び地滑り":"◎","高潮":"","地震":"◎","津波":"","大規模な火事":"◎","内水氾濫":"◎","火山現象":"","指定避難所との重複":"◎","備考":""}},
{"type":"Feature","geometry":{"type":"Point","coordinates":[135.7980363000,34.7161970700]},"properties":{"Name":"朱雀小学校","Jusho":"奈良県奈良市朱雀6‐10‐1","洪水":"◎","がけ崩れ、土石流及び地滑り":"◎","高潮":"","地震":"◎","津波":"","大規模な火事":"◎","内水氾濫":"◎","火山現象":"","指定避難所との重複":"◎","備考":""}},
{"type":"Feature","geometry":{"type":"Point","coordinates":[135.8000189000,34.7155476100]},"properties":{"Name":"平城東中学校","Jusho":"奈良県奈良市朱雀6‐11","洪水":"◎","がけ崩れ、土石流及び地滑り":"◎","高潮":"","地震":"◎","津波":"","大規模な火事":"◎","内水氾濫":"◎","火山現象":"","指定避難所との重複":"◎","備考":""}},
{"type":"Feature","geometry":{"type":"Point","coordinates":[135.7972643000,34.7160349300]},"properties":{"Name":"平城東公民館","Jusho":"奈良県奈良市朱雀6‐9‐1","洪水":"◎","がけ崩れ、土石流及び地滑り":"◎","高潮":"","地震":"◎","津波":"","大規模な火事":"◎","内水氾濫":"◎","火山現象":"","指定避難所との重複":"◎","備考":""}},
{"type":"Feature","geometry":{"type":"Point","coordinates":[135.8058945000,34.7139961900]},"properties":{"Name":"左京小学校","Jusho":"奈良県奈良市左京3‐1‐1","洪水":"◎","がけ崩れ、土石流及び地滑り":"◎","高潮":"","地震":"◎","津波":"","大規模な火事":"◎","内水氾濫":"◎","火山現象":"","指定避難所との重複":"◎","備考":""}},
{"type":"Feature","geometry":{"type":"Point","coordinates":[135.8166795000,34.7100630400]},"properties":{"Name":"佐保台小学校","Jusho":"奈良県奈良市佐保台3‐902‐341","洪水":"◎","がけ崩れ、土石流及び地滑り":"◎","高潮":"","地震":"◎","津波":"","大規模な火事":"◎","内水氾濫":"◎","火山現象":"","指定避難所との重複":"◎","備考":""}},
{"type":"Feature","geometry":{"type":"Point","coordinates":[136.0434894000,34.7100921800]},"properties":{"Name":"月ヶ瀬小学校","Jusho":"奈良県奈良市月ヶ瀬尾山2350‐1","洪水":"◎","がけ崩れ、土石流及び地滑り":"◎","高潮":"","地震":"","津波":"","大規模な火事":"◎","内水氾濫":"◎","火山現象":"","指定避難所との重複":"◎","備考":""}},
{"type":"Feature","geometry":{"type":"Point","coordinates":[136.0435369467,34.7113557420]},"properties":{"Name":"月ヶ瀬中学校及び月ヶ瀬体育館","Jusho":"奈良県奈良市月ヶ瀬尾山2551","洪水":"◎","がけ崩れ、土石流及び地滑り":"◎","高潮":"","地震":"","津波":"","大規模な火事":"◎","内水氾濫":"◎","火山現象":"","指定避難所との重複":"◎","備考":""}},
{"type":"Feature","geometry":{"type":"Point","coordinates":[136.0443247000,34.7103207900]},"properties":{"Name":"月ヶ瀬公民館","Jusho":"奈良県奈良市月ヶ瀬尾山2815","洪水":"◎","がけ崩れ、土石流及び地滑り":"◎","高潮":"","地震":"◎","津波":"","大規模な火事":"◎","内水氾濫":"◎","火山現象":"","指定避難所との重複":"◎","備考":""}},
{"type":"Feature","geometry":{"type":"Point","coordinates":[135.9418365000,34.5937326800]},"properties":{"Name":"並松小学校","Jusho":"奈良県奈良市藺生町1894","洪水":"◎","がけ崩れ、土石流及び地滑り":"◎","高潮":"","地震":"◎","津波":"","大規模な火事":"◎","内水氾濫":"◎","火山現象":"","指定避難所との重複":"◎","備考":""}},
{"type":"Feature","geometry":{"type":"Point","coordinates":[135.9589696000,34.6047811900]},"properties":{"Name":"都祁小学校","Jusho":"奈良県奈良市都祁白石町974","洪水":"◎","がけ崩れ、土石流及び地滑り":"◎","高潮":"","地震":"◎","津波":"","大規模な火事":"◎","内水氾濫":"◎","火山現象":"","指定避難所との重複":"◎","備考":""}},
{"type":"Feature","geometry":{"type":"Point","coordinates":[135.9547433000,34.6067556600]},"properties":{"Name":"都祁中学校","Jusho":"奈良県奈良市針町2554","洪水":"◎","がけ崩れ、土石流及び地滑り":"◎","高潮":"","地震":"◎","津波":"","大規模な火事":"◎","内水氾濫":"◎","火山現象":"","指定避難所との重複":"◎","備考":""}},
{"type":"Feature","geometry":{"type":"Point","coordinates":[135.9557221000,34.6126368500]},"properties":{"Name":"都祁公民館","Jusho":"奈良県奈良市針町2191","洪水":"◎","がけ崩れ、土石流及び地滑り":"◎","高潮":"","地震":"◎","津波":"","大規模な火事":"◎","内水氾濫":"◎","火山現象":"","指定避難所との重複":"◎","備考":""}},
{"type":"Feature","geometry":{"type":"Point","coordinates":[135.9651165000,34.5740505500]},"properties":{"Name":"吐山小学校","Jusho":"奈良県奈良市都祁吐山町3939","洪水":"◎","がけ崩れ、土石流及び地滑り":"◎","高潮":"","地震":"◎","津波":"","大規模な火事":"◎","内水氾濫":"◎","火山現象":"","指定避難所との重複":"◎","備考":""}},
{"type":"Feature","geometry":{"type":"Point","coordinates":[135.9719169000,34.6252263600]},"properties":{"Name":"六郷小学校","Jusho":"奈良県奈良市針ヶ別所町820","洪水":"◎","がけ崩れ、土石流及び地滑り":"◎","高潮":"","地震":"◎","津波":"","大規模な火事":"◎","内水氾濫":"◎","火山現象":"","指定避難所との重複":"◎","備考":""}},
{"type":"Feature","geometry":{"type":"Point","coordinates":[135.7474805714,34.5119738714]},"properties":{"Name":"片塩小学校","Jusho":"奈良県大和高田市旭北町2-1","洪水":"◎","がけ崩れ、土石流及び地滑り":"","高潮":"","地震":"◎","津波":"","大規模な火事":"","内水氾濫":"","火山現象":"","指定避難所との重複":"◎","備考":""}},
{"type":"Feature","geometry":{"type":"Point","coordinates":[135.7581326159,34.4830797392]},"properties":{"Name":"菅原小学校","Jusho":"奈良県大和高田市大字根成柿436","洪水":"◎","がけ崩れ、土石流及び地滑り":"","高潮":"","地震":"◎","津波":"","大規模な火事":"","内水氾濫":"","火山現象":"","指定避難所との重複":"◎","備考":""}},
{"type":"Feature","geometry":{"type":"Point","coordinates":[135.7558904993,34.5211670002]},"properties":{"Name":"土庫小学校","Jusho":"奈良県大和高田市土庫3-2-61","洪水":"◎","がけ崩れ、土石流及び地滑り":"","高潮":"","地震":"◎","津波":"","大規模な火事":"","内水氾濫":"","火山現象":"","指定避難所との重複":"◎","備考":""}},
{"type":"Feature","geometry":{"type":"Point","coordinates":[135.7402650963,34.5131652449]},"properties":{"Name":"高田小学校","Jusho":"奈良県大和高田市大中東町5-15","洪水":"","がけ崩れ、土石流及び地滑り":"","高潮":"","地震":"◎","津波":"","大規模な火事":"","内水氾濫":"","火山現象":"","指定避難所との重複":"◎","備考":""}},
{"type":"Feature","geometry":{"type":"Point","coordinates":[135.7390927678,34.5185372734]},"properties":{"Name":"磐園小学校","Jusho":"奈良県大和高田市大字有井1","洪水":"","がけ崩れ、土石流及び地滑り":"","高潮":"","地震":"◎","津波":"","大規模な火事":"","内水氾濫":"","火山現象":"","指定避難所との重複":"◎","備考":""}},
{"type":"Feature","geometry":{"type":"Point","coordinates":[135.7246543885,34.5192081788]},"properties":{"Name":"陵西小学校","Jusho":"奈良県大和高田市大字池田3","洪水":"◎","がけ崩れ、土石流及び地滑り":"","高潮":"","地震":"◎","津波":"","大規模な火事":"","内水氾濫":"","火山現象":"","指定避難所との重複":"◎","備考":""}},
{"type":"Feature","geometry":{"type":"Point","coordinates":[135.7458088760,34.5021684588]},"properties":{"Name":"浮孔小学校","Jusho":"奈良県大和高田市中三倉堂2-5-43","洪水":"◎","がけ崩れ、土石流及び地滑り":"","高潮":"","地震":"◎","津波":"","大規模な火事":"","内水氾濫":"","火山現象":"","指定避難所との重複":"◎","備考":""}},
{"type":"Feature","geometry":{"type":"Point","coordinates":[135.7392852895,34.4988686263]},"properties":{"Name":"浮孔西小学校","Jusho":"奈良県大和高田市曽大根1-5-1","洪水":"◎","がけ崩れ、土石流及び地滑り":"","高潮":"","地震":"◎","津波":"","大規模な火事":"","内水氾濫":"","火山現象":"","指定避難所との重複":"◎","備考":""}},
{"type":"Feature","geometry":{"type":"Point","coordinates":[135.7461916810,34.5010521282]},"properties":{"Name":"片塩中学校","Jusho":"奈良県大和高田市中三倉堂2-9-28","洪水":"◎","がけ崩れ、土石流及び地滑り":"","高潮":"","地震":"◎","津波":"","大規模な火事":"","内水氾濫":"","火山現象":"","指定避難所との重複":"◎","備考":""}},
{"type":"Feature","geometry":{"type":"Point","coordinates":[135.7389497580,34.5132416096]},"properties":{"Name":"高田中学校","Jusho":"奈良県大和高田市大中東町5-48","洪水":"◎","がけ崩れ、土石流及び地滑り":"","高潮":"","地震":"◎","津波":"","大規模な火事":"","内水氾濫":"","火山現象":"","指定避難所との重複":"◎","備考":""}},
{"type":"Feature","geometry":{"type":"Point","coordinates":[135.7294258552,34.5166121088]},"properties":{"Name":"高田西中学校","Jusho":"奈良県大和高田市大字池田330","洪水":"◎","がけ崩れ、土石流及び地滑り":"","高潮":"","地震":"◎","津波":"","大規模な火事":"","内水氾濫":"","火山現象":"","指定避難所との重複":"◎","備考":""}},
{"type":"Feature","geometry":{"type":"Point","coordinates":[135.7395378381,34.5090336942]},"properties":{"Name":"県立高田高等学校","Jusho":"奈良県大和高田市礒野東町6-6","洪水":"◎","がけ崩れ、土石流及び地滑り":"","高潮":"","地震":"◎","津波":"","大規模な火事":"","内水氾濫":"","火山現象":"","指定避難所との重複":"◎","備考":""}},
{"type":"Feature","geometry":{"type":"Point","coordinates":[135.7558465991,34.5177583832]},"properties":{"Name":"市立高田商業高等学校","Jusho":"奈良県大和高田市材木町8-3","洪水":"◎","がけ崩れ、土石流及び地滑り":"","高潮":"","地震":"◎","津波":"","大規模な火事":"","内水氾濫":"","火山現象":"","指定避難所との重複":"◎","備考":""}},
{"type":"Feature","geometry":{"type":"Point","coordinates":[135.7560474241,34.4862648041]},"properties":{"Name":"菅原校区公民館","Jusho":"奈良県大和高田市大字吉井77-1","洪水":"◎","がけ崩れ、土石流及び地滑り":"","高潮":"","地震":"◎","津波":"","大規模な火事":"","内水氾濫":"","火山現象":"","指定避難所との重複":"◎","備考":""}},
{"type":"Feature","geometry":{"type":"Point","coordinates":[135.7475835146,34.5177837671]},"properties":{"Name":"武道館","Jusho":"奈良県大和高田市幸町11-14","洪水":"◎","がけ崩れ、土石流及び地滑り":"","高潮":"","地震":"◎","津波":"","大規模な火事":"","内水氾濫":"","火山現象":"","指定避難所との重複":"◎","備考":""}},
{"type":"Feature","geometry":{"type":"Point","coordinates":[135.7441113218,34.5137521295]},"properties":{"Name":"文化会館（さざんかホール）","Jusho":"奈良県大和高田市本郷町6-36","洪水":"◎","がけ崩れ、土石流及び地滑り":"","高潮":"","地震":"◎","津波":"","大規模な火事":"","内水氾濫":"","火山現象":"","指定避難所との重複":"◎","備考":""}},
{"type":"Feature","geometry":{"type":"Point","coordinates":[135.7175455869,34.5171298131]},"properties":{"Name":"勤労青少年ホーム","Jusho":"奈良県大和高田市大字野口20-1","洪水":"◎","がけ崩れ、土石流及び地滑り":"","高潮":"","地震":"","津波":"","大規模な火事":"","内水氾濫":"","火山現象":"","指定避難所との重複":"◎","備考":""}},
{"type":"Feature","geometry":{"type":"Point","coordinates":[135.7436957477,34.4957695761]},"properties":{"Name":"葛城コミュニティセンター","Jusho":"奈良県大和高田市大字曽大根783-1","洪水":"◎","がけ崩れ、土石流及び地滑り":"","高潮":"","地震":"◎","津波":"","大規模な火事":"","内水氾濫":"","火山現象":"","指定避難所との重複":"◎","備考":""}},
{"type":"Feature","geometry":{"type":"Point","coordinates":[135.7475145888,34.4913614031]},"properties":{"Name":"総合公園プール","Jusho":"奈良県大和高田市大字西坊城414","洪水":"◎","がけ崩れ、土石流及び地滑り":"","高潮":"","地震":"◎","津波":"","大規模な火事":"","内水氾濫":"","火山現象":"","指定避難所との重複":"◎","備考":""}},
{"type":"Feature","geometry":{"type":"Point","coordinates":[135.7315712188,34.5193840568]},"properties":{"Name":"総合福祉会館（ゆうゆうセンター）","Jusho":"奈良県大和高田市大字池田418-1","洪水":"◎","がけ崩れ、土石流及び地滑り":"","高潮":"","地震":"◎","津波":"","大規模な火事":"","内水氾濫":"","火山現象":"","指定避難所との重複":"◎","備考":""}},
{"type":"Feature","geometry":{"type":"Point","coordinates":[135.7871219120,34.6456767711]},"properties":{"Name":"大和郡山市立郡山南小学校","Jusho":"奈良県大和郡山市柳町８５番地","洪水":"◎","がけ崩れ、土石流及び地滑り":"","高潮":"","地震":"◎","津波":"","大規模な火事":"","内水氾濫":"◎","火山現象":"","指定避難所との重複":"◎","備考":""}},
{"type":"Feature","geometry":{"type":"Point","coordinates":[135.7868644199,34.6537525662]},"properties":{"Name":"大和郡山市立郡山北小学校","Jusho":"奈良県大和郡山市北郡山町１１５番地","洪水":"◎","がけ崩れ、土石流及び地滑り":"","高潮":"","地震":"◎","津波":"","大規模な火事":"","内水氾濫":"◎","火山現象":"","指定避難所との重複":"◎","備考":""}},
{"type":"Feature","geometry":{"type":"Point","coordinates":[135.7715034390,34.6543312667]},"properties":{"Name":"大和郡山市立郡山中学校","Jusho":"奈良県大和郡山市柳町４０４番地","洪水":"◎","がけ崩れ、土石流及び地滑り":"","高潮":"","地震":"◎","津波":"","大規模な火事":"","内水氾濫":"◎","火山現象":"","指定避難所との重複":"◎","備考":""}},
{"type":"Feature","geometry":{"type":"Point","coordinates":[135.7822529184,34.6482747024]},"properties":{"Name":"大和郡山市立中央公民館","Jusho":"奈良県大和郡山市南郡山町５２９番地１","洪水":"◎","がけ崩れ、土石流及び地滑り":"","高潮":"","地震":"◎","津波":"","大規模な火事":"◎","内水氾濫":"◎","火山現象":"","指定避難所との重複":"◎","備考":""}},
{"type":"Feature","geometry":{"type":"Point","coordinates":[135.7701248031,34.6485043684]},"properties":{"Name":"大和郡山市立郡山西小学校","Jusho":"奈良県大和郡山市田中町６３２番地","洪水":"◎","がけ崩れ、土石流及び地滑り":"","高潮":"","地震":"◎","津波":"","大規模な火事":"","内水氾濫":"◎","火山現象":"","指定避難所との重複":"◎","備考":""}},
{"type":"Feature","geometry":{"type":"Point","coordinates":[135.7490969420,34.6519607187]},"properties":{"Name":"大和郡山市立矢田小学校","Jusho":"奈良県大和郡山市矢田町９６６番地２","洪水":"◎","がけ崩れ、土石流及び地滑り":"◎","高潮":"","地震":"◎","津波":"","大規模な火事":"","内水氾濫":"◎","火山現象":"","指定避難所との重複":"◎","備考":""}},
{"type":"Feature","geometry":{"type":"Point","coordinates":[135.7458854145,34.6462598833]},"properties":{"Name":"大和郡山市総合公園多目的体育館","Jusho":"奈良県大和郡山市矢田山町２番地","洪水":"◎","がけ崩れ、土石流及び地滑り":"","高潮":"","地震":"◎","津波":"","大規模な火事":"◎","内水氾濫":"◎","火山現象":"","指定避難所との重複":"◎","備考":""}},
{"type":"Feature","geometry":{"type":"Point","coordinates":[135.7436708396,34.6314866098]},"properties":{"Name":"大和郡山市立矢田南小学校","Jusho":"奈良県大和郡山市山田町８３番地","洪水":"◎","がけ崩れ、土石流及び地滑り":"◎","高潮":"","地震":"◎","津波":"","大規模な火事":"","内水氾濫":"◎","火山現象":"","指定避難所との重複":"◎","備考":""}},
{"type":"Feature","geometry":{"type":"Point","coordinates":[135.7645588164,34.6437756758]},"properties":{"Name":"大和郡山市立郡山西中学校","Jusho":"奈良県大和郡山市田中町７６７番地","洪水":"◎","がけ崩れ、土石流及び地滑り":"","高潮":"","地震":"◎","津波":"","大規模な火事":"","内水氾濫":"◎","火山現象":"","指定避難所との重複":"◎","備考":""}},
{"type":"Feature","geometry":{"type":"Point","coordinates":[135.7649575070,34.6301063424]},"properties":{"Name":"大和郡山市立片桐小学校","Jusho":"奈良県大和郡山市池ノ内町１１７番地","洪水":"◎","がけ崩れ、土石流及び地滑り":"","高潮":"","地震":"◎","津波":"","大規模な火事":"","内水氾濫":"◎","火山現象":"","指定避難所との重複":"◎","備考":""}},
{"type":"Feature","geometry":{"type":"Point","coordinates":[135.7559094070,34.6305462994]},"properties":{"Name":"大和郡山市立片桐西小学校","Jusho":"奈良県大和郡山市小泉町１６１８番地","洪水":"◎","がけ崩れ、土石流及び地滑り":"","高潮":"","地震":"◎","津波":"","大規模な火事":"","内水氾濫":"◎","火山現象":"","指定避難所との重複":"◎","備考":""}},
{"type":"Feature","geometry":{"type":"Point","coordinates":[135.7610729986,34.6284408055]},"properties":{"Name":"大和郡山市立片桐中学校","Jusho":"奈良県大和郡山市小泉町１７３番地１","洪水":"◎","がけ崩れ、土石流及び地滑り":"","高潮":"","地震":"◎","津波":"","大規模な火事":"","内水氾濫":"◎","火山現象":"","指定避難所との重複":"◎","備考":""}},
{"type":"Feature","geometry":{"type":"Point","coordinates":[135.7634303450,34.6294501895]},"properties":{"Name":"大和郡山市立片桐地区公民館","Jusho":"奈良県大和郡山市小泉町１０５番地１","洪水":"◎","がけ崩れ、土石流及び地滑り":"","高潮":"","地震":"◎","津波":"","大規模な火事":"◎","内水氾濫":"◎","火山現象":"","指定避難所との重複":"◎","備考":""}},
{"type":"Feature","geometry":{"type":"Point","coordinates":[135.7818551121,34.6270615421]},"properties":{"Name":"大和郡山市立筒井小学校","Jusho":"奈良県大和郡山市筒井町１２０番地","洪水":"◎","がけ崩れ、土石流及び地滑り":"","高潮":"","地震":"◎","津波":"","大規模な火事":"","内水氾濫":"◎","火山現象":"","指定避難所との重複":"◎","備考":""}},
{"type":"Feature","geometry":{"type":"Point","coordinates":[135.7800377848,34.6082822591]},"properties":{"Name":"大和郡山市立昭和小学校","Jusho":"奈良県大和郡山市額田部北町５５５番地","洪水":"◎","がけ崩れ、土石流及び地滑り":"","高潮":"","地震":"◎","津波":"","大規模な火事":"","内水氾濫":"◎","火山現象":"","指定避難所との重複":"◎","備考":""}},
{"type":"Feature","geometry":{"type":"Point","coordinates":[135.7786401009,34.6236850814]},"properties":{"Name":"大和郡山市立郡山南中学校","Jusho":"奈良県大和郡山市筒井町３９８番地","洪水":"◎","がけ崩れ、土石流及び地滑り":"","高潮":"","地震":"◎","津波":"","大規模な火事":"","内水氾濫":"◎","火山現象":"","指定避難所との重複":"◎","備考":""}},
{"type":"Feature","geometry":{"type":"Point","coordinates":[135.7794348789,34.6205935695]},"properties":{"Name":"大和郡山市立南部公民館","Jusho":"奈良県大和郡山市筒井町６００番地４","洪水":"◎","がけ崩れ、土石流及び地滑り":"","高潮":"","地震":"◎","津波":"","大規模な火事":"◎","内水氾濫":"◎","火山現象":"","指定避難所との重複":"◎","備考":""}},
{"type":"Feature","geometry":{"type":"Point","coordinates":[135.7810744746,34.6100017332]},"properties":{"Name":"大和郡山市立昭和地区公民館","Jusho":"奈良県大和郡山市馬司町３３１番地５６","洪水":"◎","がけ崩れ、土石流及び地滑り":"","高潮":"","地震":"◎","津波":"","大規模な火事":"◎","内水氾濫":"◎","火山現象":"","指定避難所との重複":"◎","備考":""}},
{"type":"Feature","geometry":{"type":"Point","coordinates":[135.8051093147,34.6395013871]},"properties":{"Name":"大和郡山市立平和小学校","Jusho":"奈良県大和郡山市美濃庄町２６２番地","洪水":"◎","がけ崩れ、土石流及び地滑り":"","高潮":"","地震":"◎","津波":"","大規模な火事":"","内水氾濫":"◎","火山現象":"","指定避難所との重複":"◎","備考":""}},
{"type":"Feature","geometry":{"type":"Point","coordinates":[135.7975394855,34.6356862590]},"properties":{"Name":"大和郡山市立郡山東中学校","Jusho":"奈良県大和郡山市若槻町１３４番地２","洪水":"◎","がけ崩れ、土石流及び地滑り":"","高潮":"","地震":"◎","津波":"","大規模な火事":"","内水氾濫":"◎","火山現象":"","指定避難所との重複":"◎","備考":""}},
{"type":"Feature","geometry":{"type":"Point","coordinates":[135.8006130976,34.6393568287]},"properties":{"Name":"大和郡山市立平和地区公民館","Jusho":"奈良県大和郡山市若槻町４番地４","洪水":"◎","がけ崩れ、土石流及び地滑り":"","高潮":"","地震":"◎","津波":"","大規模な火事":"◎","内水氾濫":"◎","火山現象":"","指定避難所との重複":"◎","備考":""}},
{"type":"Feature","geometry":{"type":"Point","coordinates":[135.8058611558,34.6239101645]},"properties":{"Name":"大和郡山市立治道小学校","Jusho":"奈良県大和郡山市横田町２５４番地","洪水":"◎","がけ崩れ、土石流及び地滑り":"","高潮":"","地震":"◎","津波":"","大規模な火事":"","内水氾濫":"◎","火山現象":"","指定避難所との重複":"◎","備考":""}},
{"type":"Feature","geometry":{"type":"Point","coordinates":[135.8066235057,34.6234459007]},"properties":{"Name":"大和郡山市立治道地区公民館","Jusho":"奈良県大和郡山市横田町２６１番地１","洪水":"◎","がけ崩れ、土石流及び地滑り":"","高潮":"","地震":"◎","津波":"","大規模な火事":"◎","内水氾濫":"◎","火山現象":"","指定避難所との重複":"◎","備考":""}},
{"type":"Feature","geometry":{"type":"Point","coordinates":[135.7823522261,34.6523017602]},"properties":{"Name":"やまと郡山城ホール","Jusho":"奈良県大和郡山市北郡山町２１１番地３","洪水":"◎","がけ崩れ、土石流及び地滑り":"","高潮":"","地震":"◎","津波":"","大規模な火事":"◎","内水氾濫":"◎","火山現象":"","指定避難所との重複":"◎","備考":""}},
{"type":"Feature","geometry":{"type":"Point","coordinates":[135.7799317106,34.6535290211]},"properties":{"Name":"大和郡山市社会福祉会館","Jusho":"奈良県大和郡山市植槻町３番地８","洪水":"◎","がけ崩れ、土石流及び地滑り":"","高潮":"","地震":"◎","津波":"","大規模な火事":"◎","内水氾濫":"◎","火山現象":"","指定避難所との重複":"◎","備考":""}},
{"type":"Feature","geometry":{"type":"Point","coordinates":[135.7797085365,34.6539030396]},"properties":{"Name":"大和郡山市老人福祉センター","Jusho":"奈良県大和郡山市植槻町３番地１１","洪水":"◎","がけ崩れ、土石流及び地滑り":"","高潮":"","地震":"◎","津波":"","大規模な火事":"◎","内水氾濫":"◎","火山現象":"","指定避難所との重複":"◎","備考":""}},
{"type":"Feature","geometry":{"type":"Point","coordinates":[135.7905605507,34.6475050789]},"properties":{"Name":"大和郡山市民交流館","Jusho":"奈良県大和郡山市高田町９２番地１６","洪水":"◎","がけ崩れ、土石流及び地滑り":"","高潮":"","地震":"◎","津波":"","大規模な火事":"","内水氾濫":"◎","火山現象":"","指定避難所との重複":"◎","備考":""}},
{"type":"Feature","geometry":{"type":"Point","coordinates":[135.7469516403,34.6479213002]},"properties":{"Name":"大和郡山市矢田コミュニティ会館","Jusho":"奈良県大和郡山市矢田町４５４７番地","洪水":"◎","がけ崩れ、土石流及び地滑り":"◎","高潮":"","地震":"◎","津波":"","大規模な火事":"◎","内水氾濫":"◎","火山現象":"","指定避難所との重複":"◎","備考":""}},
{"type":"Feature","geometry":{"type":"Point","coordinates":[135.7759418989,34.6063584008]},"properties":{"Name":"大和郡山市額田部運動公園施設","Jusho":"奈良県大和郡山市額田部北町６４２番地","洪水":"◎","がけ崩れ、土石流及び地滑り":"","高潮":"","地震":"◎","津波":"","大規模な火事":"","内水氾濫":"◎","火山現象":"","指定避難所との重複":"◎","備考":""}},
{"type":"Feature","geometry":{"type":"Point","coordinates":[135.7861765492,34.6455421790]},"properties":{"Name":"大和郡山市立郡山南幼稚園","Jusho":"奈良県大和郡山市柳町８５","洪水":"◎","がけ崩れ、土石流及び地滑り":"","高潮":"","地震":"◎","津波":"","大規模な火事":"","内水氾濫":"◎","火山現象":"","指定避難所との重複":"◎","備考":""}},
{"type":"Feature","geometry":{"type":"Point","coordinates":[135.7830704730,34.6261092007]},"properties":{"Name":"大和郡山市立筒井幼稚園","Jusho":"奈良県大和郡山市丹後庄町１７７－３","洪水":"◎","がけ崩れ、土石流及び地滑り":"","高潮":"","地震":"◎","津波":"","大規模な火事":"","内水氾濫":"◎","火山現象":"","指定避難所との重複":"◎","備考":""}},
{"type":"Feature","geometry":{"type":"Point","coordinates":[135.7493198749,34.6508170122]},"properties":{"Name":"大和郡山市立矢田幼稚園","Jusho":"奈良県大和郡山市矢田町９４７","洪水":"◎","がけ崩れ、土石流及び地滑り":"◎","高潮":"","地震":"◎","津波":"","大規模な火事":"","内水氾濫":"◎","火山現象":"","指定避難所との重複":"◎","備考":""}},
{"type":"Feature","geometry":{"type":"Point","coordinates":[135.8057972299,34.6236911008]},"properties":{"Name":"大和郡山市立治道認定こども園","Jusho":"奈良県大和郡山市横田町２５４","洪水":"◎","がけ崩れ、土石流及び地滑り":"","高潮":"","地震":"◎","津波":"","大規模な火事":"","内水氾濫":"◎","火山現象":"","指定避難所との重複":"◎","備考":""}},
{"type":"Feature","geometry":{"type":"Point","coordinates":[135.7805044892,34.6077215259]},"properties":{"Name":"大和郡山市立昭和幼稚園","Jusho":"奈良県大和郡山市額田部北町５５５","洪水":"◎","がけ崩れ、土石流及び地滑り":"","高潮":"","地震":"◎","津波":"","大規模な火事":"","内水氾濫":"◎","火山現象":"","指定避難所との重複":"◎","備考":""}},
{"type":"Feature","geometry":{"type":"Point","coordinates":[135.7649200683,34.6292287601]},"properties":{"Name":"大和郡山市立片桐幼稚園","Jusho":"奈良県大和郡山市池之内町１６７","洪水":"◎","がけ崩れ、土石流及び地滑り":"","高潮":"","地震":"◎","津波":"","大規模な火事":"","内水氾濫":"◎","火山現象":"","指定避難所との重複":"◎","備考":""}},
{"type":"Feature","geometry":{"type":"Point","coordinates":[135.7862582407,34.6545821662]},"properties":{"Name":"大和郡山市立郡山北幼稚園","Jusho":"奈良県大和郡山市北郡山町１１５","洪水":"◎","がけ崩れ、土石流及び地滑り":"","高潮":"","地震":"◎","津波":"","大規模な火事":"","内水氾濫":"◎","火山現象":"","指定避難所との重複":"◎","備考":""}},
{"type":"Feature","geometry":{"type":"Point","coordinates":[135.8048887949,34.6418142479]},"properties":{"Name":"大和郡山市立平和幼稚園","Jusho":"奈良県大和郡山市美濃庄町５３３","洪水":"◎","がけ崩れ、土石流及び地滑り":"","高潮":"","地震":"◎","津波":"","大規模な火事":"","内水氾濫":"◎","火山現象":"","指定避難所との重複":"◎","備考":""}},
{"type":"Feature","geometry":{"type":"Point","coordinates":[135.7552072687,34.6304962180]},"properties":{"Name":"大和郡山市立片桐西幼稚園","Jusho":"奈良県大和郡山市小泉町１６５８","洪水":"◎","がけ崩れ、土石流及び地滑り":"","高潮":"","地震":"◎","津波":"","大規模な火事":"","内水氾濫":"◎","火山現象":"","指定避難所との重複":"◎","備考":""}},
{"type":"Feature","geometry":{"type":"Point","coordinates":[135.7694063850,34.6479364629]},"properties":{"Name":"大和郡山市立郡山西幼稚園","Jusho":"奈良県大和郡山市田中町７２３","洪水":"◎","がけ崩れ、土石流及び地滑り":"","高潮":"","地震":"◎","津波":"","大規模な火事":"","内水氾濫":"◎","火山現象":"","指定避難所との重複":"◎","備考":""}},
{"type":"Feature","geometry":{"type":"Point","coordinates":[135.7451285142,34.6306850855]},"properties":{"Name":"大和郡山市立矢田南幼稚園","Jusho":"奈良県大和郡山市山田町８２","洪水":"◎","がけ崩れ、土石流及び地滑り":"","高潮":"","地震":"◎","津波":"","大規模な火事":"","内水氾濫":"◎","火山現象":"","指定避難所との重複":"◎","備考":""}},
{"type":"Feature","geometry":{"type":"Point","coordinates":[135.8327527565,34.5952041354]},"properties":{"Name":"天理市立丹波市幼稚園","Jusho":"奈良県天理市丹波市町135-3","洪水":"","がけ崩れ、土石流及び地滑り":"◎","高潮":"","地震":"◎","津波":"","大規模な火事":"","内水氾濫":"","火山現象":"","指定避難所との重複":"◎","備考":""}},
{"type":"Feature","geometry":{"type":"Point","coordinates":[135.8302489523,34.5947590920]},"properties":{"Name":"天理市立丹波市小学校","Jusho":"奈良県天理市丹波市町180","洪水":"","がけ崩れ、土石流及び地滑り":"◎","高潮":"","地震":"◎","津波":"","大規模な火事":"◎","内水氾濫":"","火山現象":"","指定避難所との重複":"◎","備考":""}},
{"type":"Feature","geometry":{"type":"Point","coordinates":[135.8341077331,34.5962096709]},"properties":{"Name":"天理市立丹波市公民館","Jusho":"奈良県天理市丹波市町285-2","洪水":"◎","がけ崩れ、土石流及び地滑り":"◎","高潮":"","地震":"◎","津波":"","大規模な火事":"","内水氾濫":"◎","火山現象":"","指定避難所との重複":"◎","備考":""}},
{"type":"Feature","geometry":{"type":"Point","coordinates":[135.8326120804,34.5980243200]},"properties":{"Name":"天理市民会館","Jusho":"奈良県天理市川原城町739","洪水":"◎","がけ崩れ、土石流及び地滑り":"◎","高潮":"","地震":"◎","津波":"","大規模な火事":"","内水氾濫":"◎","火山現象":"","指定避難所との重複":"◎","備考":""}},
{"type":"Feature","geometry":{"type":"Point","coordinates":[135.8381045219,34.5898406671]},"properties":{"Name":"天理市立南保育所","Jusho":"奈良県天理市勾田町92","洪水":"◎","がけ崩れ、土石流及び地滑り":"◎","高潮":"","地震":"◎","津波":"","大規模な火事":"","内水氾濫":"◎","火山現象":"","指定避難所との重複":"◎","備考":""}},
{"type":"Feature","geometry":{"type":"Point","coordinates":[135.8293724142,34.6030671118]},"properties":{"Name":"天理市立中央保育所","Jusho":"奈良県天理市田部町553","洪水":"◎","がけ崩れ、土石流及び地滑り":"◎","高潮":"","地震":"◎","津波":"","大規模な火事":"","内水氾濫":"◎","火山現象":"","指定避難所との重複":"◎","備考":""}},
{"type":"Feature","geometry":{"type":"Point","coordinates":[135.8373483319,34.6037833201]},"properties":{"Name":"天理市立山の辺幼稚園","Jusho":"奈良県天理市三島町140-1","洪水":"◎","がけ崩れ、土石流及び地滑り":"◎","高潮":"","地震":"◎","津波":"","大規模な火事":"","内水氾濫":"◎","火山現象":"","指定避難所との重複":"◎","備考":""}},
{"type":"Feature","geometry":{"type":"Point","coordinates":[135.8369191785,34.6035007311]},"properties":{"Name":"天理市立三島体育館","Jusho":"奈良県天理市三島町140-1","洪水":"◎","がけ崩れ、土石流及び地滑り":"◎","高潮":"","地震":"","津波":"","大規模な火事":"","内水氾濫":"◎","火山現象":"","指定避難所との重複":"◎","備考":""}},
{"type":"Feature","geometry":{"type":"Point","coordinates":[135.8373998876,34.6091189489]},"properties":{"Name":"天理市立山の辺小学校","Jusho":"奈良県天理市別所町380","洪水":"◎","がけ崩れ、土石流及び地滑り":"◎","高潮":"","地震":"◎","津波":"","大規模な火事":"◎","内水氾濫":"◎","火山現象":"","指定避難所との重複":"◎","備考":""}},
{"type":"Feature","geometry":{"type":"Point","coordinates":[135.8360138767,34.6129269044]},"properties":{"Name":"天理市立北中学校","Jusho":"奈良県天理市石上町777","洪水":"◎","がけ崩れ、土石流及び地滑り":"◎","高潮":"","地震":"◎","津波":"","大規模な火事":"◎","内水氾濫":"◎","火山現象":"","指定避難所との重複":"◎","備考":""}},
{"type":"Feature","geometry":{"type":"Point","coordinates":[135.8308133536,34.6148469126]},"properties":{"Name":"天理市立北保育所","Jusho":"奈良県天理市石上町511-2","洪水":"◎","がけ崩れ、土石流及び地滑り":"◎","高潮":"","地震":"◎","津波":"","大規模な火事":"","内水氾濫":"◎","火山現象":"","指定避難所との重複":"◎","備考":""}},
{"type":"Feature","geometry":{"type":"Point","coordinates":[135.8510233862,34.6019371579]},"properties":{"Name":"天理市立東部公民館","Jusho":"奈良県天理市豊井町87","洪水":"◎","がけ崩れ、土石流及び地滑り":"◎","高潮":"","地震":"◎","津波":"","大規模な火事":"","内水氾濫":"◎","火山現象":"","指定避難所との重複":"◎","備考":""}},
{"type":"Feature","geometry":{"type":"Point","coordinates":[135.8146731557,34.5871833065]},"properties":{"Name":"天理市立井戸堂小学校","Jusho":"奈良県天理市西井戸堂町301","洪水":"◎","がけ崩れ、土石流及び地滑り":"◎","高潮":"","地震":"◎","津波":"","大規模な火事":"◎","内水氾濫":"◎","火山現象":"","指定避難所との重複":"◎","備考":""}},
{"type":"Feature","geometry":{"type":"Point","coordinates":[135.8171127346,34.5819861001]},"properties":{"Name":"天理市立井戸堂公民館","Jusho":"奈良県天理市西井戸堂町122-4","洪水":"◎","がけ崩れ、土石流及び地滑り":"◎","高潮":"","地震":"◎","津波":"","大規模な火事":"","内水氾濫":"◎","火山現象":"","指定避難所との重複":"◎","備考":""}},
{"type":"Feature","geometry":{"type":"Point","coordinates":[135.8143685190,34.5875757051]},"properties":{"Name":"天理市立井戸堂幼稚園","Jusho":"奈良県天理市西井戸堂町406","洪水":"◎","がけ崩れ、土石流及び地滑り":"◎","高潮":"","地震":"◎","津波":"","大規模な火事":"","内水氾濫":"◎","火山現象":"","指定避難所との重複":"◎","備考":""}},
{"type":"Feature","geometry":{"type":"Point","coordinates":[135.8187810748,34.5987036508]},"properties":{"Name":"天理市立前栽小学校","Jusho":"奈良県天理市前栽町329","洪水":"◎","がけ崩れ、土石流及び地滑り":"◎","高潮":"","地震":"◎","津波":"","大規模な火事":"◎","内水氾濫":"◎","火山現象":"","指定避難所との重複":"◎","備考":""}},
{"type":"Feature","geometry":{"type":"Point","coordinates":[135.8166434806,34.6033737933]},"properties":{"Name":"天理市立前栽幼稚園","Jusho":"奈良県天理市杉本町243-1","洪水":"◎","がけ崩れ、土石流及び地滑り":"◎","高潮":"","地震":"◎","津波":"","大規模な火事":"","内水氾濫":"◎","火山現象":"","指定避難所との重複":"◎","備考":""}},
{"type":"Feature","geometry":{"type":"Point","coordinates":[135.8168887629,34.5989603779]},"properties":{"Name":"天理市立前栽公民館","Jusho":"奈良県天理市杉本町351-3","洪水":"◎","がけ崩れ、土石流及び地滑り":"◎","高潮":"","地震":"◎","津波":"","大規模な火事":"","内水氾濫":"◎","火山現象":"","指定避難所との重複":"◎","備考":""}},
{"type":"Feature","geometry":{"type":"Point","coordinates":[135.7958324051,34.5945624080]},"properties":{"Name":"天理市立二階堂小学校","Jusho":"奈良県天理市二階堂南菅田町640-1","洪水":"","がけ崩れ、土石流及び地滑り":"◎","高潮":"","地震":"◎","津波":"","大規模な火事":"◎","内水氾濫":"","火山現象":"","指定避難所との重複":"◎","備考":""}},
{"type":"Feature","geometry":{"type":"Point","coordinates":[135.7948240395,34.5934461512]},"properties":{"Name":"天理市立二階堂幼稚園","Jusho":"奈良県天理市二階堂南菅田町38-1","洪水":"","がけ崩れ、土石流及び地滑り":"◎","高潮":"","地震":"◎","津波":"","大規模な火事":"","内水氾濫":"","火山現象":"","指定避難所との重複":"◎","備考":""}},
{"type":"Feature","geometry":{"type":"Point","coordinates":[135.8031907622,34.5999651266]},"properties":{"Name":"天理市立西中学校","Jusho":"奈良県天理市二階堂上ノ庄町210-1","洪水":"◎","がけ崩れ、土石流及び地滑り":"◎","高潮":"","地震":"◎","津波":"","大規模な火事":"◎","内水氾濫":"◎","火山現象":"","指定避難所との重複":"◎","備考":""}},
{"type":"Feature","geometry":{"type":"Point","coordinates":[135.8052667920,34.6000711021]},"properties":{"Name":"奈良県立二階堂高等学校","Jusho":"奈良県天理市荒蒔町100-1","洪水":"◎","がけ崩れ、土石流及び地滑り":"◎","高潮":"","地震":"◎","津波":"","大規模な火事":"◎","内水氾濫":"◎","火山現象":"","指定避難所との重複":"◎","備考":""}},
{"type":"Feature","geometry":{"type":"Point","coordinates":[135.7962821396,34.5913917536]},"properties":{"Name":"天理市立二階堂公民館","Jusho":"奈良県天理市嘉幡町520","洪水":"◎","がけ崩れ、土石流及び地滑り":"◎","高潮":"","地震":"◎","津波":"","大規模な火事":"","内水氾濫":"◎","火山現象":"","指定避難所との重複":"◎","備考":""}},
{"type":"Feature","geometry":{"type":"Point","coordinates":[135.7962499531,34.5916655516]},"properties":{"Name":"天理市立二階堂体育館","Jusho":"奈良県天理市嘉幡町520","洪水":"◎","がけ崩れ、土石流及び地滑り":"◎","高潮":"","地震":"","津波":"","大規模な火事":"","内水氾濫":"◎","火山現象":"","指定避難所との重複":"◎","備考":""}},
{"type":"Feature","geometry":{"type":"Point","coordinates":[135.7970740342,34.5886560122]},"properties":{"Name":"天理市立嘉幡保育所","Jusho":"奈良県天理市嘉幡町425","洪水":"◎","がけ崩れ、土石流及び地滑り":"◎","高潮":"","地震":"◎","津波":"","大規模な火事":"","内水氾濫":"◎","火山現象":"","指定避難所との重複":"◎","備考":""}},
{"type":"Feature","geometry":{"type":"Point","coordinates":[135.7965647869,34.5786741819]},"properties":{"Name":"奈良県立二階堂養護学校","Jusho":"奈良県天理市庵治町358-1","洪水":"◎","がけ崩れ、土石流及び地滑り":"◎","高潮":"","地震":"◎","津波":"","大規模な火事":"◎","内水氾濫":"◎","火山現象":"","指定避難所との重複":"◎","備考":""}},
{"type":"Feature","geometry":{"type":"Point","coordinates":[135.8423800784,34.5721208766]},"properties":{"Name":"天理市立朝和小学校","Jusho":"奈良県天理市成願寺町420","洪水":"◎","がけ崩れ、土石流及び地滑り":"◎","高潮":"","地震":"◎","津波":"","大規模な火事":"◎","内水氾濫":"◎","火山現象":"","指定避難所との重複":"◎","備考":""}},
{"type":"Feature","geometry":{"type":"Point","coordinates":[135.8427682816,34.5710533377]},"properties":{"Name":"天理市立朝和幼稚園","Jusho":"奈良県天理市成願寺町386","洪水":"◎","がけ崩れ、土石流及び地滑り":"◎","高潮":"","地震":"◎","津波":"","大規模な火事":"","内水氾濫":"◎","火山現象":"","指定避難所との重複":"◎","備考":""}},
{"type":"Feature","geometry":{"type":"Point","coordinates":[135.8408100576,34.5753315799]},"properties":{"Name":"天理市立朝和公民館","Jusho":"奈良県天理市三昧田町460-3","洪水":"◎","がけ崩れ、土石流及び地滑り":"◎","高潮":"","地震":"◎","津波":"","大規模な火事":"","内水氾濫":"◎","火山現象":"","指定避難所との重複":"◎","備考":""}},
{"type":"Feature","geometry":{"type":"Point","coordinates":[135.8345419415,34.5714392052]},"properties":{"Name":"天理市立南中学校","Jusho":"奈良県天理市兵庫町336-2","洪水":"◎","がけ崩れ、土石流及び地滑り":"◎","高潮":"","地震":"◎","津波":"","大規模な火事":"◎","内水氾濫":"◎","火山現象":"","指定避難所との重複":"◎","備考":""}},
{"type":"Feature","geometry":{"type":"Point","coordinates":[135.8203209719,34.5756666289]},"properties":{"Name":"天理市立総合体育館","Jusho":"奈良県天理市西長柄町595","洪水":"◎","がけ崩れ、土石流及び地滑り":"◎","高潮":"","地震":"◎","津波":"","大規模な火事":"","内水氾濫":"◎","火山現象":"","指定避難所との重複":"◎","備考":""}},
{"type":"Feature","geometry":{"type":"Point","coordinates":[135.9175780238,34.6133289630]},"properties":{"Name":"天理市立福住小学校","Jusho":"奈良県天理市福住町1954-1","洪水":"","がけ崩れ、土石流及び地滑り":"","高潮":"","地震":"◎","津波":"","大規模な火事":"◎","内水氾濫":"","火山現象":"","指定避難所との重複":"◎","備考":""}},
{"type":"Feature","geometry":{"type":"Point","coordinates":[135.9144239731,34.6128054806]},"properties":{"Name":"天理市立福住中学校","Jusho":"奈良県天理市福住町2105","洪水":"◎","がけ崩れ、土石流及び地滑り":"◎","高潮":"","地震":"◎","津波":"","大規模な火事":"◎","内水氾濫":"◎","火山現象":"","指定避難所との重複":"◎","備考":""}},
{"type":"Feature","geometry":{"type":"Point","coordinates":[135.9156470604,34.6114986402]},"properties":{"Name":"天理市立福住公民館","Jusho":"奈良県天理市福住町2025","洪水":"◎","がけ崩れ、土石流及び地滑り":"◎","高潮":"","地震":"◎","津波":"","大規模な火事":"","内水氾濫":"◎","火山現象":"","指定避難所との重複":"◎","備考":""}},
{"type":"Feature","geometry":{"type":"Point","coordinates":[135.9112427610,34.6088251962]},"properties":{"Name":"旧天理市立福住幼稚園","Jusho":"奈良県天理市福住町3902","洪水":"◎","がけ崩れ、土石流及び地滑り":"◎","高潮":"","地震":"◎","津波":"","大規模な火事":"","内水氾濫":"◎","火山現象":"","指定避難所との重複":"◎","備考":""}},
{"type":"Feature","geometry":{"type":"Point","coordinates":[135.9026278922,34.6056322157]},"properties":{"Name":"旧天理市福祉センター","Jusho":"奈良県天理市福住町4890","洪水":"◎","がけ崩れ、土石流及び地滑り":"◎","高潮":"","地震":"","津波":"","大規模な火事":"","内水氾濫":"◎","火山現象":"","指定避難所との重複":"◎","備考":""}},
{"type":"Feature","geometry":{"type":"Point","coordinates":[135.9378113846,34.6275531250]},"properties":{"Name":"天理市立やまだこども園","Jusho":"奈良県天理市山田町1560","洪水":"","がけ崩れ、土石流及び地滑り":"","高潮":"","地震":"◎","津波":"","大規模な火事":"","内水氾濫":"","火山現象":"","指定避難所との重複":"◎","備考":""}},
{"type":"Feature","geometry":{"type":"Point","coordinates":[135.8309056016,34.6202087165]},"properties":{"Name":"天理市立櫟本小学校","Jusho":"奈良県天理市櫟本町2426-1","洪水":"◎","がけ崩れ、土石流及び地滑り":"◎","高潮":"","地震":"◎","津波":"","大規模な火事":"◎","内水氾濫":"◎","火山現象":"","指定避難所との重複":"◎","備考":""}},
{"type":"Feature","geometry":{"type":"Point","coordinates":[135.8328700840,34.6197785607]},"properties":{"Name":"天理市立櫟本公民館","Jusho":"奈良県天理市櫟本町2460-1","洪水":"◎","がけ崩れ、土石流及び地滑り":"◎","高潮":"","地震":"◎","津波":"","大規模な火事":"","内水氾濫":"◎","火山現象":"","指定避難所との重複":"◎","備考":""}},
{"type":"Feature","geometry":{"type":"Point","coordinates":[135.8290139659,34.6231675972]},"properties":{"Name":"天理市立櫟本幼稚園","Jusho":"奈良県天理市櫟本町2066","洪水":"◎","がけ崩れ、土石流及び地滑り":"◎","高潮":"","地震":"◎","津波":"","大規模な火事":"","内水氾濫":"◎","火山現象":"","指定避難所との重複":"◎","備考":""}},
{"type":"Feature","geometry":{"type":"Point","coordinates":[135.8231843034,34.6209272000]},"properties":{"Name":"奈良県立添上高等学校","Jusho":"奈良県天理市櫟本町1532-2","洪水":"","がけ崩れ、土石流及び地滑り":"◎","高潮":"","地震":"◎","津波":"","大規模な火事":"◎","内水氾濫":"","火山現象":"","指定避難所との重複":"◎","備考":""}},
{"type":"Feature","geometry":{"type":"Point","coordinates":[135.8438400245,34.5588729692]},"properties":{"Name":"天理市立柳本小学校","Jusho":"奈良県天理市柳本町1213","洪水":"◎","がけ崩れ、土石流及び地滑り":"◎","高潮":"","地震":"◎","津波":"","大規模な火事":"◎","内水氾濫":"◎","火山現象":"","指定避難所との重複":"◎","備考":""}},
{"type":"Feature","geometry":{"type":"Point","coordinates":[135.8437463113,34.5593933220]},"properties":{"Name":"天理市立柳本公民館","Jusho":"奈良県天理市柳本町1127","洪水":"◎","がけ崩れ、土石流及び地滑り":"◎","高潮":"","地震":"◎","津波":"","大規模な火事":"","内水氾濫":"◎","火山現象":"","指定避難所との重複":"◎","備考":""}},
{"type":"Feature","geometry":{"type":"Point","coordinates":[135.8440551749,34.5606103840]},"properties":{"Name":"天理市障害者ふれあいセンター","Jusho":"奈良県天理市柳本町719","洪水":"◎","がけ崩れ、土石流及び地滑り":"◎","高潮":"","地震":"◎","津波":"","大規模な火事":"","内水氾濫":"◎","火山現象":"","指定避難所との重複":"◎","備考":""}},
{"type":"Feature","geometry":{"type":"Point","coordinates":[135.8356899089,34.5613256183]},"properties":{"Name":"天理市立柳本幼稚園","Jusho":"奈良県天理市柳本町891-2","洪水":"◎","がけ崩れ、土石流及び地滑り":"◎","高潮":"","地震":"◎","津波":"","大規模な火事":"","内水氾濫":"◎","火山現象":"","指定避難所との重複":"◎","備考":""}},
{"type":"Feature","geometry":{"type":"Point","coordinates":[135.8254022174,34.5585621149]},"properties":{"Name":"天理市立式上公民館","Jusho":"奈良県天理市遠田町45-9","洪水":"◎","がけ崩れ、土石流及び地滑り":"◎","高潮":"","地震":"◎","津波":"","大規模な火事":"","内水氾濫":"◎","火山現象":"","指定避難所との重複":"◎","備考":""}},
{"type":"Feature","geometry":{"type":"Point","coordinates":[135.8491699573,34.5602677037]},"properties":{"Name":"天理市トレイルセンター","Jusho":"奈良県天理市柳本町577-1","洪水":"◎","がけ崩れ、土石流及び地滑り":"◎","高潮":"","地震":"◎","津波":"","大規模な火事":"","内水氾濫":"◎","火山現象":"","指定避難所との重複":"◎","備考":""}},
{"type":"Feature","geometry":{"type":"Point","coordinates":[135.8378361236,34.6234807539]},"properties":{"Name":"櫟本高塚公園","Jusho":"奈良県天理市櫟本町2533-4他","洪水":"◎","がけ崩れ、土石流及び地滑り":"◎","高潮":"","地震":"◎","津波":"","大規模な火事":"◎","内水氾濫":"◎","火山現象":"","指定避難所との重複":"","備考":""}},
{"type":"Feature","geometry":{"type":"Point","coordinates":[135.8193768343,34.5746418923]},"properties":{"Name":"天理市長柄運動公園","Jusho":"奈良県天理市西長柄町595","洪水":"◎","がけ崩れ、土石流及び地滑り":"◎","高潮":"","地震":"◎","津波":"","大規模な火事":"◎","内水氾濫":"◎","火山現象":"","指定避難所との重複":"","備考":""}},
{"type":"Feature","geometry":{"type":"Point","coordinates":[135.8310031007,34.6004178544]},"properties":{"Name":"天理駅前広場","Jusho":"奈良県天理市川原城町803","洪水":"◎","がけ崩れ、土石流及び地滑り":"◎","高潮":"","地震":"◎","津波":"","大規模な火事":"◎","内水氾濫":"◎","火山現象":"","指定避難所との重複":"","備考":""}},
{"type":"Feature","geometry":{"type":"Point","coordinates":[135.8056377099,34.5221293086]},"properties":{"Name":"耳成小学校体育館","Jusho":"奈良県橿原市葛本町625","洪水":"◎","がけ崩れ、土石流及び地滑り":"◎","高潮":"","地震":"◎","津波":"","大規模な火事":"◎","内水氾濫":"◎","火山現象":"","指定避難所との重複":"◎","備考":""}},
{"type":"Feature","geometry":{"type":"Point","coordinates":[135.8094069219,34.5187807376]},"properties":{"Name":"耳成南小学校体育館","Jusho":"奈良県橿原市常盤町3","洪水":"◎","がけ崩れ、土石流及び地滑り":"◎","高潮":"","地震":"◎","津波":"","大規模な火事":"◎","内水氾濫":"◎","火山現象":"","指定避難所との重複":"◎","備考":""}},
{"type":"Feature","geometry":{"type":"Point","coordinates":[135.7898058768,34.5222212176]},"properties":{"Name":"耳成西小学校体育館","Jusho":"奈良県橿原市上品寺町455-1","洪水":"◎","がけ崩れ、土石流及び地滑り":"◎","高潮":"","地震":"◎","津波":"","大規模な火事":"◎","内水氾濫":"◎","火山現象":"","指定避難所との重複":"◎","備考":""}},
{"type":"Feature","geometry":{"type":"Point","coordinates":[135.8044878369,34.5194710829]},"properties":{"Name":"八木中学校体育館","Jusho":"奈良県橿原市新賀町33","洪水":"◎","がけ崩れ、土石流及び地滑り":"◎","高潮":"","地震":"◎","津波":"","大規模な火事":"◎","内水氾濫":"◎","火山現象":"","指定避難所との重複":"◎","備考":""}},
{"type":"Feature","geometry":{"type":"Point","coordinates":[135.8058681567,34.5231676593]},"properties":{"Name":"耳成地区公民館","Jusho":"奈良県橿原市葛本町593","洪水":"◎","がけ崩れ、土石流及び地滑り":"◎","高潮":"","地震":"◎","津波":"","大規模な火事":"◎","内水氾濫":"◎","火山現象":"","指定避難所との重複":"◎","備考":""}},
{"type":"Feature","geometry":{"type":"Point","coordinates":[135.8099043662,34.5312239250]},"properties":{"Name":"福祉センター「やわらぎの郷」","Jusho":"奈良県橿原市十市町63-1","洪水":"◎","がけ崩れ、土石流及び地滑り":"◎","高潮":"","地震":"◎","津波":"","大規模な火事":"◎","内水氾濫":"◎","火山現象":"","指定避難所との重複":"◎","備考":""}},
{"type":"Feature","geometry":{"type":"Point","coordinates":[135.7864517090,34.5299685696]},"properties":{"Name":"橿原中学校体育館","Jusho":"奈良県橿原市西新堂町26-1","洪水":"◎","がけ崩れ、土石流及び地滑り":"◎","高潮":"","地震":"◎","津波":"","大規模な火事":"◎","内水氾濫":"◎","火山現象":"","指定避難所との重複":"◎","備考":""}},
{"type":"Feature","geometry":{"type":"Point","coordinates":[135.7892099806,34.5263313772]},"properties":{"Name":"多地区公民館","Jusho":"奈良県橿原市新口町244-2","洪水":"◎","がけ崩れ、土石流及び地滑り":"◎","高潮":"","地震":"◎","津波":"","大規模な火事":"◎","内水氾濫":"◎","火山現象":"","指定避難所との重複":"◎","備考":""}},
{"type":"Feature","geometry":{"type":"Point","coordinates":[135.7970858785,34.5056204056]},"properties":{"Name":"晩成小学校体育館","Jusho":"奈良県橿原市小房町1-54","洪水":"◎","がけ崩れ、土石流及び地滑り":"◎","高潮":"","地震":"◎","津波":"","大規模な火事":"◎","内水氾濫":"◎","火山現象":"","指定避難所との重複":"◎","備考":""}},
{"type":"Feature","geometry":{"type":"Point","coordinates":[135.7960490535,34.5114999620]},"properties":{"Name":"八木地区公民館","Jusho":"奈良県橿原市北八木町2-1-6","洪水":"◎","がけ崩れ、土石流及び地滑り":"◎","高潮":"","地震":"◎","津波":"","大規模な火事":"◎","内水氾濫":"◎","火山現象":"","指定避難所との重複":"◎","備考":""}},
{"type":"Feature","geometry":{"type":"Point","coordinates":[135.7969561803,34.5005931050]},"properties":{"Name":"中央公民館・分館","Jusho":"奈良県橿原市小房町11-4","洪水":"◎","がけ崩れ、土石流及び地滑り":"◎","高潮":"","地震":"","津波":"","大規模な火事":"◎","内水氾濫":"◎","火山現象":"","指定避難所との重複":"◎","備考":""}},
{"type":"Feature","geometry":{"type":"Point","coordinates":[135.7972351300,34.5000846970]},"properties":{"Name":"市立中央体育館","Jusho":"奈良県橿原市小房町11-1","洪水":"◎","がけ崩れ、土石流及び地滑り":"◎","高潮":"","地震":"◎","津波":"","大規模な火事":"◎","内水氾濫":"◎","火山現象":"","指定避難所との重複":"◎","備考":""}},
{"type":"Feature","geometry":{"type":"Point","coordinates":[135.7969838849,34.4998239777]},"properties":{"Name":"中央公民館","Jusho":"奈良県橿原市小房町11-1","洪水":"◎","がけ崩れ、土石流及び地滑り":"◎","高潮":"","地震":"","津波":"","大規模な火事":"◎","内水氾濫":"◎","火山現象":"","指定避難所との重複":"◎","備考":""}},
{"type":"Feature","geometry":{"type":"Point","coordinates":[135.7997172475,34.5094125499]},"properties":{"Name":"奈良県立畝傍高等学校","Jusho":"奈良県橿原市八木町3-13-2","洪水":"◎","がけ崩れ、土石流及び地滑り":"◎","高潮":"","地震":"◎","津波":"","大規模な火事":"◎","内水氾濫":"◎","火山現象":"","指定避難所との重複":"◎","備考":""}},
{"type":"Feature","geometry":{"type":"Point","coordinates":[135.8030777190,34.5009839051]},"properties":{"Name":"鴨公小学校体育館","Jusho":"奈良県橿原市縄手町324","洪水":"◎","がけ崩れ、土石流及び地滑り":"◎","高潮":"","地震":"◎","津波":"","大規模な火事":"◎","内水氾濫":"◎","火山現象":"","指定避難所との重複":"◎","備考":""}},
{"type":"Feature","geometry":{"type":"Point","coordinates":[135.8038660523,34.5046651060]},"properties":{"Name":"鴨公地区公民館","Jusho":"奈良県橿原市醍醐町42-2","洪水":"◎","がけ崩れ、土石流及び地滑り":"◎","高潮":"","地震":"◎","津波":"","大規模な火事":"◎","内水氾濫":"◎","火山現象":"","指定避難所との重複":"◎","備考":""}},
{"type":"Feature","geometry":{"type":"Point","coordinates":[135.8032195569,34.4965312474]},"properties":{"Name":"飛騨コミュニティーセンター","Jusho":"奈良県橿原市飛騨町94-2","洪水":"◎","がけ崩れ、土石流及び地滑り":"◎","高潮":"","地震":"","津波":"","大規模な火事":"◎","内水氾濫":"◎","火山現象":"","指定避難所との重複":"◎","備考":""}},
{"type":"Feature","geometry":{"type":"Point","coordinates":[135.8209103698,34.5046944944]},"properties":{"Name":"香久山小学校体育館","Jusho":"奈良県橿原市膳夫町98-1","洪水":"◎","がけ崩れ、土石流及び地滑り":"◎","高潮":"","地震":"◎","津波":"","大規模な火事":"◎","内水氾濫":"◎","火山現象":"","指定避難所との重複":"◎","備考":""}},
{"type":"Feature","geometry":{"type":"Point","coordinates":[135.8229872960,34.5082404224]},"properties":{"Name":"香久山地区公民館","Jusho":"奈良県橿原市膳夫町477","洪水":"◎","がけ崩れ、土石流及び地滑り":"◎","高潮":"","地震":"◎","津波":"","大規模な火事":"◎","内水氾濫":"◎","火山現象":"","指定避難所との重複":"◎","備考":""}},
{"type":"Feature","geometry":{"type":"Point","coordinates":[135.8240854099,34.4917404308]},"properties":{"Name":"香久山体育館","Jusho":"奈良県橿原市南山町624","洪水":"◎","がけ崩れ、土石流及び地滑り":"◎","高潮":"","地震":"◎","津波":"","大規模な火事":"◎","内水氾濫":"◎","火山現象":"","指定避難所との重複":"◎","備考":""}},
{"type":"Feature","geometry":{"type":"Point","coordinates":[135.7927004034,34.4799382922]},"properties":{"Name":"畝傍南小学校体育館","Jusho":"奈良県橿原市見瀬町164","洪水":"◎","がけ崩れ、土石流及び地滑り":"◎","高潮":"","地震":"◎","津波":"","大規模な火事":"◎","内水氾濫":"◎","火山現象":"","指定避難所との重複":"◎","備考":""}},
{"type":"Feature","geometry":{"type":"Point","coordinates":[135.8015922540,34.4799090954]},"properties":{"Name":"畝傍東小学校体育館","Jusho":"奈良県橿原市大軽町283","洪水":"◎","がけ崩れ、土石流及び地滑り":"◎","高潮":"","地震":"◎","津波":"","大規模な火事":"◎","内水氾濫":"◎","火山現象":"","指定避難所との重複":"◎","備考":""}},
{"type":"Feature","geometry":{"type":"Point","coordinates":[135.7946529077,34.4962865494]},"properties":{"Name":"畝傍北小学校体育館","Jusho":"奈良県橿原市大久保町156","洪水":"◎","がけ崩れ、土石流及び地滑り":"◎","高潮":"","地震":"◎","津波":"","大規模な火事":"◎","内水氾濫":"◎","火山現象":"","指定避難所との重複":"◎","備考":""}},
{"type":"Feature","geometry":{"type":"Point","coordinates":[135.8015761192,34.4853412064]},"properties":{"Name":"畝傍中学校体育館","Jusho":"奈良県橿原市石川町204","洪水":"◎","がけ崩れ、土石流及び地滑り":"◎","高潮":"","地震":"◎","津波":"","大規模な火事":"◎","内水氾濫":"◎","火山現象":"","指定避難所との重複":"◎","備考":""}},
{"type":"Feature","geometry":{"type":"Point","coordinates":[135.7926321184,34.4806571691]},"properties":{"Name":"畝傍地区公民館","Jusho":"奈良県橿原市見瀬町202-1","洪水":"◎","がけ崩れ、土石流及び地滑り":"◎","高潮":"","地震":"◎","津波":"","大規模な火事":"◎","内水氾濫":"◎","火山現象":"","指定避難所との重複":"◎","備考":""}},
{"type":"Feature","geometry":{"type":"Point","coordinates":[135.7944515879,34.4986807998]},"properties":{"Name":"大久保コミュニティーセンター","Jusho":"奈良県橿原市大久保町15-1","洪水":"◎","がけ崩れ、土石流及び地滑り":"◎","高潮":"","地震":"","津波":"","大規模な火事":"◎","内水氾濫":"◎","火山現象":"","指定避難所との重複":"◎","備考":""}},
{"type":"Feature","geometry":{"type":"Point","coordinates":[135.7903161577,34.4704311610]},"properties":{"Name":"白橿南小学校体育館","Jusho":"奈良県橿原市白橿町8-19-1","洪水":"◎","がけ崩れ、土石流及び地滑り":"◎","高潮":"","地震":"◎","津波":"","大規模な火事":"◎","内水氾濫":"◎","火山現象":"","指定避難所との重複":"◎","備考":""}},
{"type":"Feature","geometry":{"type":"Point","coordinates":[135.7860365141,34.4792098680]},"properties":{"Name":"白橿北小学校体育館","Jusho":"奈良県橿原市白橿町3-10-2","洪水":"◎","がけ崩れ、土石流及び地滑り":"◎","高潮":"","地震":"◎","津波":"","大規模な火事":"◎","内水氾濫":"◎","火山現象":"","指定避難所との重複":"◎","備考":""}},
{"type":"Feature","geometry":{"type":"Point","coordinates":[135.7919606106,34.4684927621]},"properties":{"Name":"白橿中学校体育館","Jusho":"奈良県橿原市白橿町8-12-1","洪水":"◎","がけ崩れ、土石流及び地滑り":"◎","高潮":"","地震":"◎","津波":"","大規模な火事":"◎","内水氾濫":"◎","火山現象":"","指定避難所との重複":"◎","備考":""}},
{"type":"Feature","geometry":{"type":"Point","coordinates":[135.7911155057,34.4750117706]},"properties":{"Name":"白橿地区公民館","Jusho":"奈良県橿原市白橿町2-32-11","洪水":"◎","がけ崩れ、土石流及び地滑り":"◎","高潮":"","地震":"◎","津波":"","大規模な火事":"◎","内水氾濫":"◎","火山現象":"","指定避難所との重複":"◎","備考":""}},
{"type":"Feature","geometry":{"type":"Point","coordinates":[135.7857504292,34.5052477761]},"properties":{"Name":"今井小学校体育館","Jusho":"奈良県橿原市今井町3-4-46","洪水":"◎","がけ崩れ、土石流及び地滑り":"◎","高潮":"","地震":"◎","津波":"","大規模な火事":"◎","内水氾濫":"◎","火山現象":"","指定避難所との重複":"◎","備考":""}},
{"type":"Feature","geometry":{"type":"Point","coordinates":[135.7834640670,34.5094672768]},"properties":{"Name":"大成中学校体育館","Jusho":"奈良県橿原市小綱町77-2","洪水":"◎","がけ崩れ、土石流及び地滑り":"◎","高潮":"","地震":"◎","津波":"","大規模な火事":"◎","内水氾濫":"◎","火山現象":"","指定避難所との重複":"◎","備考":""}},
{"type":"Feature","geometry":{"type":"Point","coordinates":[135.7888911258,34.5053056041]},"properties":{"Name":"今井地区公民館","Jusho":"奈良県橿原市今井町2-3-23","洪水":"◎","がけ崩れ、土石流及び地滑り":"◎","高潮":"","地震":"◎","津波":"","大規模な火事":"◎","内水氾濫":"◎","火山現象":"","指定避難所との重複":"◎","備考":""}},
{"type":"Feature","geometry":{"type":"Point","coordinates":[135.7785878433,34.5149706521]},"properties":{"Name":"真菅小学校体育館","Jusho":"奈良県橿原市曽我町710","洪水":"◎","がけ崩れ、土石流及び地滑り":"◎","高潮":"","地震":"◎","津波":"","大規模な火事":"◎","内水氾濫":"◎","火山現象":"","指定避難所との重複":"◎","備考":""}},
{"type":"Feature","geometry":{"type":"Point","coordinates":[135.7795682816,34.5281395515]},"properties":{"Name":"真菅北小学校体育館","Jusho":"奈良県橿原市大垣町220-1","洪水":"◎","がけ崩れ、土石流及び地滑り":"◎","高潮":"","地震":"◎","津波":"","大規模な火事":"◎","内水氾濫":"◎","火山現象":"","指定避難所との重複":"◎","備考":""}},
{"type":"Feature","geometry":{"type":"Point","coordinates":[135.7787902882,34.5120411015]},"properties":{"Name":"真菅地区公民館","Jusho":"奈良県橿原市曽我町1281-18","洪水":"◎","がけ崩れ、土石流及び地滑り":"◎","高潮":"","地震":"◎","津波":"","大規模な火事":"◎","内水氾濫":"◎","火山現象":"","指定避難所との重複":"◎","備考":""}},
{"type":"Feature","geometry":{"type":"Point","coordinates":[135.7688904596,34.5181719016]},"properties":{"Name":"曽我川緑地体育館","Jusho":"奈良県橿原市曽我町1212","洪水":"◎","がけ崩れ、土石流及び地滑り":"◎","高潮":"","地震":"◎","津波":"","大規模な火事":"◎","内水氾濫":"◎","火山現象":"","指定避難所との重複":"◎","備考":""}},
{"type":"Feature","geometry":{"type":"Point","coordinates":[135.7672284253,34.5001430088]},"properties":{"Name":"金橋小学校体育館","Jusho":"奈良県橿原市雲悌町216-1","洪水":"◎","がけ崩れ、土石流及び地滑り":"◎","高潮":"","地震":"◎","津波":"","大規模な火事":"◎","内水氾濫":"◎","火山現象":"","指定避難所との重複":"◎","備考":""}},
{"type":"Feature","geometry":{"type":"Point","coordinates":[135.7720514888,34.4878076383]},"properties":{"Name":"光陽中学校体育館","Jusho":"奈良県橿原市古川町20","洪水":"◎","がけ崩れ、土石流及び地滑り":"◎","高潮":"","地震":"◎","津波":"","大規模な火事":"◎","内水氾濫":"◎","火山現象":"","指定避難所との重複":"◎","備考":""}},
{"type":"Feature","geometry":{"type":"Point","coordinates":[135.7722120004,34.5003776680]},"properties":{"Name":"金橋地区公民館","Jusho":"奈良県橿原市雲梯町927","洪水":"◎","がけ崩れ、土石流及び地滑り":"◎","高潮":"","地震":"◎","津波":"","大規模な火事":"◎","内水氾濫":"◎","火山現象":"","指定避難所との重複":"◎","備考":""}},
{"type":"Feature","geometry":{"type":"Point","coordinates":[135.7707661166,34.4755864424]},"properties":{"Name":"新沢小学校体育館","Jusho":"奈良県橿原市一町1296","洪水":"◎","がけ崩れ、土石流及び地滑り":"◎","高潮":"","地震":"◎","津波":"","大規模な火事":"◎","内水氾濫":"◎","火山現象":"","指定避難所との重複":"◎","備考":""}},
{"type":"Feature","geometry":{"type":"Point","coordinates":[135.7714883549,34.4767334309]},"properties":{"Name":"新沢地区公民館","Jusho":"奈良県橿原市川西町611","洪水":"◎","がけ崩れ、土石流及び地滑り":"◎","高潮":"","地震":"◎","津波":"","大規模な火事":"◎","内水氾濫":"◎","火山現象":"","指定避難所との重複":"◎","備考":""}},
{"type":"Feature","geometry":{"type":"Point","coordinates":[135.7728304390,34.4798351445]},"properties":{"Name":"橿原市新沢千塚公園拠点施設","Jusho":"奈良県橿原市川西町855-1","洪水":"◎","がけ崩れ、土石流及び地滑り":"◎","高潮":"","地震":"◎","津波":"","大規模な火事":"◎","内水氾濫":"◎","火山現象":"","指定避難所との重複":"◎","備考":""}},
{"type":"Feature","geometry":{"type":"Point","coordinates":[135.7773602776,34.4764482433]},"properties":{"Name":"奈良県立橿原高等学校","Jusho":"奈良県橿原市北越智町282","洪水":"◎","がけ崩れ、土石流及び地滑り":"◎","高潮":"","地震":"◎","津波":"","大規模な火事":"◎","内水氾濫":"◎","火山現象":"","指定避難所との重複":"◎","備考":""}},
{"type":"Feature","geometry":{"type":"Point","coordinates":[135.7716620752,34.4980423837]},"properties":{"Name":"橿原運動公園","Jusho":"奈良県橿原市雲梯町323-2外","洪水":"◎","がけ崩れ、土石流及び地滑り":"◎","高潮":"","地震":"◎","津波":"","大規模な火事":"◎","内水氾濫":"◎","火山現象":"","指定避難所との重複":"","備考":""}},
{"type":"Feature","geometry":{"type":"Point","coordinates":[135.7733530573,34.4782790165]},"properties":{"Name":"新沢千塚古墳群公園","Jusho":"奈良県橿原市川西町755-3外","洪水":"◎","がけ崩れ、土石流及び地滑り":"◎","高潮":"","地震":"◎","津波":"","大規模な火事":"◎","内水氾濫":"◎","火山現象":"","指定避難所との重複":"","備考":""}},
{"type":"Feature","geometry":{"type":"Point","coordinates":[135.8458210000,34.5126400000]},"properties":{"Name":"まほろばセンター","Jusho":"奈良県桜井市桜井1259","洪水":"◎","がけ崩れ、土石流及び地滑り":"◎","高潮":"","地震":"◎","津波":"","大規模な火事":"◎","内水氾濫":"","火山現象":"","指定避難所との重複":"◎","備考":""}},
{"type":"Feature","geometry":{"type":"Point","coordinates":[135.8463265000,34.5051461800]},"properties":{"Name":"桜井小学校 体育館","Jusho":"奈良県桜井市谷957","洪水":"◎","がけ崩れ、土石流及び地滑り":"◎","高潮":"","地震":"◎","津波":"","大規模な火事":"◎","内水氾濫":"","火山現象":"","指定避難所との重複":"◎","備考":"小・中学校では、利用区分の「体育館」には校舎を含む。"}},
{"type":"Feature","geometry":{"type":"Point","coordinates":[135.8458490000,34.5049693500]},"properties":{"Name":"桜井小学校 グラウンド","Jusho":"奈良県桜井市谷957","洪水":"","がけ崩れ、土石流及び地滑り":"","高潮":"","地震":"◎","津波":"","大規模な火事":"◎","内水氾濫":"","火山現象":"","指定避難所との重複":"","備考":""}},
{"type":"Feature","geometry":{"type":"Point","coordinates":[135.8581277000,34.5159223700]},"properties":{"Name":"城島小学校 体育館","Jusho":"奈良県桜井市外山330","洪水":"◎","がけ崩れ、土石流及び地滑り":"◎","高潮":"","地震":"◎","津波":"","大規模な火事":"◎","内水氾濫":"","火山現象":"","指定避難所との重複":"◎","備考":"小・中学校では、利用区分の「体育館」には校舎を含む。"}},
{"type":"Feature","geometry":{"type":"Point","coordinates":[135.8575644000,34.5151090700]},"properties":{"Name":"城島小学校 グラウンド","Jusho":"奈良県桜井市外山330","洪水":"","がけ崩れ、土石流及び地滑り":"","高潮":"","地震":"◎","津波":"","大規模な火事":"◎","内水氾濫":"","火山現象":"","指定避難所との重複":"","備考":""}},
{"type":"Feature","geometry":{"type":"Point","coordinates":[135.8622188000,34.4991435700]},"properties":{"Name":"桜井中学校 体育館","Jusho":"奈良県桜井市浅古593","洪水":"◎","がけ崩れ、土石流及び地滑り":"◎","高潮":"","地震":"◎","津波":"","大規模な火事":"◎","内水氾濫":"","火山現象":"","指定避難所との重複":"◎","備考":"小・中学校では、利用区分の「体育館」には校舎を含む。"}},
{"type":"Feature","geometry":{"type":"Point","coordinates":[135.8621974000,34.4984273600]},"properties":{"Name":"桜井中学校 グラウンド","Jusho":"奈良県桜井市浅古593","洪水":"","がけ崩れ、土石流及び地滑り":"","高潮":"","地震":"◎","津波":"","大規模な火事":"◎","内水氾濫":"","火山現象":"","指定避難所との重複":"","備考":""}},
{"type":"Feature","geometry":{"type":"Point","coordinates":[135.8526563000,34.5026022800]},"properties":{"Name":"桜井南小学校 体育館","Jusho":"奈良県桜井市浅古21","洪水":"◎","がけ崩れ、土石流及び地滑り":"◎","高潮":"","地震":"◎","津波":"","大規模な火事":"◎","内水氾濫":"","火山現象":"","指定避難所との重複":"◎","備考":"小・中学校では、利用区分の「体育館」には校舎を含む。"}},
{"type":"Feature","geometry":{"type":"Point","coordinates":[135.8517819000,34.5025934400]},"properties":{"Name":"桜井南小学校 グラウンド","Jusho":"奈良県桜井市浅古21","洪水":"","がけ崩れ、土石流及び地滑り":"","高潮":"","地震":"◎","津波":"","大規模な火事":"◎","内水氾濫":"","火山現象":"","指定避難所との重複":"","備考":""}},
{"type":"Feature","geometry":{"type":"Point","coordinates":[135.8393370000,34.4956460500]},"properties":{"Name":"安倍小学校 体育館","Jusho":"奈良県桜井市生田578","洪水":"◎","がけ崩れ、土石流及び地滑り":"◎","高潮":"","地震":"◎","津波":"","大規模な火事":"◎","内水氾濫":"","火山現象":"","指定避難所との重複":"◎","備考":"小・中学校では、利用区分の「体育館」には校舎を含む。"}},
{"type":"Feature","geometry":{"type":"Point","coordinates":[135.8386986000,34.4962517500]},"properties":{"Name":"安倍小学校 グラウンド","Jusho":"奈良県桜井市生田578","洪水":"","がけ崩れ、土石流及び地滑り":"","高潮":"","地震":"◎","津波":"","大規模な火事":"◎","内水氾濫":"","火山現象":"","指定避難所との重複":"","備考":""}},
{"type":"Feature","geometry":{"type":"Point","coordinates":[135.8627450000,34.4915540000]},"properties":{"Name":"高齢者総合福祉センター","Jusho":"奈良県桜井市倉橋1166","洪水":"◎","がけ崩れ、土石流及び地滑り":"◎","高潮":"","地震":"◎","津波":"","大規模な火事":"◎","内水氾濫":"","火山現象":"","指定避難所との重複":"◎","備考":""}},
{"type":"Feature","geometry":{"type":"Point","coordinates":[135.8624516000,34.4914623500]},"properties":{"Name":"高齢者総合福祉センター 駐車場","Jusho":"奈良県桜井市倉橋1166","洪水":"","がけ崩れ、土石流及び地滑り":"","高潮":"","地震":"◎","津波":"","大規模な火事":"◎","内水氾濫":"","火山現象":"","指定避難所との重複":"","備考":""}},
{"type":"Feature","geometry":{"type":"Point","coordinates":[135.9086974000,34.5679720900]},"properties":{"Name":"上之郷体育館 体育館","Jusho":"奈良県桜井市笠82","洪水":"◎","がけ崩れ、土石流及び地滑り":"◎","高潮":"","地震":"◎","津波":"","大規模な火事":"◎","内水氾濫":"","火山現象":"","指定避難所との重複":"◎","備考":"避難施設が土砂災害警戒区域にあるため、周辺状況をみて利用可能か判断する。"}},
{"type":"Feature","geometry":{"type":"Point","coordinates":[135.9087993000,34.5684094000]},"properties":{"Name":"上之郷体育館 グラウンド","Jusho":"奈良県桜井市笠82","洪水":"","がけ崩れ、土石流及び地滑り":"","高潮":"","地震":"◎","津波":"","大規模な火事":"◎","内水氾濫":"","火山現象":"","指定避難所との重複":"","備考":""}},
{"type":"Feature","geometry":{"type":"Point","coordinates":[135.9155754000,34.5725204000]},"properties":{"Name":"上之郷公民館","Jusho":"奈良県桜井市小夫3266","洪水":"◎","がけ崩れ、土石流及び地滑り":"◎","高潮":"","地震":"","津波":"","大規模な火事":"◎","内水氾濫":"","火山現象":"","指定避難所との重複":"◎","備考":""}},
{"type":"Feature","geometry":{"type":"Point","coordinates":[135.9159027000,34.5724806500]},"properties":{"Name":"上之郷公民館 駐車場","Jusho":"奈良県桜井市小夫3266","洪水":"","がけ崩れ、土石流及び地滑り":"","高潮":"","地震":"◎","津波":"","大規模な火事":"◎","内水氾濫":"","火山現象":"","指定避難所との重複":"","備考":""}},
{"type":"Feature","geometry":{"type":"Point","coordinates":[135.9013716000,34.5273027900]},"properties":{"Name":"初瀬観光センター","Jusho":"奈良県桜井市初瀬1593-2","洪水":"◎","がけ崩れ、土石流及び地滑り":"◎","高潮":"","地震":"◎","津波":"","大規模な火事":"◎","内水氾濫":"","火山現象":"","指定避難所との重複":"◎","備考":"避難施設が土砂災害警戒区域にあるため、周辺状況をみて利用可能か判断する。"}},
{"type":"Feature","geometry":{"type":"Point","coordinates":[135.9012804000,34.5272188200]},"properties":{"Name":"初瀬観光センター 駐車場","Jusho":"奈良県桜井市初瀬1593-2","洪水":"","がけ崩れ、土石流及び地滑り":"","高潮":"","地震":"◎","津波":"","大規模な火事":"◎","内水氾濫":"","火山現象":"","指定避難所との重複":"","備考":""}},
{"type":"Feature","geometry":{"type":"Point","coordinates":[135.9052280000,34.5268230000]},"properties":{"Name":"桜井東ふれあいセンター","Jusho":"奈良県桜井市初瀬2337","洪水":"◎","がけ崩れ、土石流及び地滑り":"◎","高潮":"","地震":"","津波":"","大規模な火事":"◎","内水氾濫":"","火山現象":"","指定避難所との重複":"◎","備考":"避難施設が土砂災害警戒区域にあるため、周辺状況をみて利用可能か判断する。"}},
{"type":"Feature","geometry":{"type":"Point","coordinates":[135.8987561000,34.5262797600]},"properties":{"Name":"桜井東ふれあいセンター分館","Jusho":"奈良県桜井市初瀬1626-1","洪水":"◎","がけ崩れ、土石流及び地滑り":"◎","高潮":"","地震":"◎","津波":"","大規模な火事":"◎","内水氾濫":"","火山現象":"","指定避難所との重複":"◎","備考":""}},
{"type":"Feature","geometry":{"type":"Point","coordinates":[135.8986223000,34.5273883400]},"properties":{"Name":"初瀬小学校 体育館","Jusho":"奈良県桜井市初瀬1556","洪水":"◎","がけ崩れ、土石流及び地滑り":"◎","高潮":"","地震":"◎","津波":"","大規模な火事":"◎","内水氾濫":"","火山現象":"","指定避難所との重複":"◎","備考":"小・中学校では、利用区分の「体育館」には校舎を含む。"}},
{"type":"Feature","geometry":{"type":"Point","coordinates":[135.8991051000,34.5271452700]},"properties":{"Name":"初瀬小学校 グラウンド","Jusho":"奈良県桜井市初瀬1556","洪水":"","がけ崩れ、土石流及び地滑り":"","高潮":"","地震":"◎","津波":"","大規模な火事":"◎","内水氾濫":"","火山現象":"","指定避難所との重複":"","備考":""}},
{"type":"Feature","geometry":{"type":"Point","coordinates":[135.8958781000,34.5257069000]},"properties":{"Name":"桜井東中学校 体育館","Jusho":"奈良県桜井市初瀬1655","洪水":"◎","がけ崩れ、土石流及び地滑り":"◎","高潮":"","地震":"◎","津波":"","大規模な火事":"◎","内水氾濫":"","火山現象":"","指定避難所との重複":"◎","備考":"小・中学校では、利用区分の「体育館」には校舎を含む。 避難施設が土砂災害警戒区域にあるため、周辺状況をみて利用可能か判断する。"}},
{"type":"Feature","geometry":{"type":"Point","coordinates":[135.8956957000,34.5251456100]},"properties":{"Name":"桜井東中学校 グラウンド","Jusho":"奈良県桜井市初瀬1655","洪水":"","がけ崩れ、土石流及び地滑り":"","高潮":"","地震":"◎","津波":"","大規模な火事":"◎","内水氾濫":"","火山現象":"","指定避難所との重複":"","備考":""}},
{"type":"Feature","geometry":{"type":"Point","coordinates":[135.9337145000,34.5324376400]},"properties":{"Name":"吉隠公民館","Jusho":"奈良県桜井市吉隠726","洪水":"◎","がけ崩れ、土石流及び地滑り":"◎","高潮":"","地震":"","津波":"","大規模な火事":"◎","内水氾濫":"","火山現象":"","指定避難所との重複":"◎","備考":""}},
{"type":"Feature","geometry":{"type":"Point","coordinates":[135.9336876000,34.5321813300]},"properties":{"Name":"吉隠公民館 グラウンド","Jusho":"奈良県桜井市吉隠726","洪水":"","がけ崩れ、土石流及び地滑り":"","高潮":"","地震":"◎","津波":"","大規模な火事":"◎","内水氾濫":"","火山現象":"","指定避難所との重複":"","備考":""}},
{"type":"Feature","geometry":{"type":"Point","coordinates":[135.8756768000,34.5221999900]},"properties":{"Name":"朝倉小学校 体育館","Jusho":"奈良県桜井市黒崎626","洪水":"◎","がけ崩れ、土石流及び地滑り":"◎","高潮":"","地震":"◎","津波":"","大規模な火事":"◎","内水氾濫":"","火山現象":"","指定避難所との重複":"◎","備考":"小・中学校では、利用区分の「体育館」には校舎を含む。 避難施設が土砂災害警戒区域にあるため、周辺状況をみて利用可能か判断する。"}},
{"type":"Feature","geometry":{"type":"Point","coordinates":[135.8765834000,34.5220453000]},"properties":{"Name":"朝倉小学校 グラウンド","Jusho":"奈良県桜井市黒崎626","洪水":"","がけ崩れ、土石流及び地滑り":"","高潮":"","地震":"◎","津波":"","大規模な火事":"◎","内水氾濫":"","火山現象":"","指定避難所との重複":"","備考":""}},
{"type":"Feature","geometry":{"type":"Point","coordinates":[135.8260684000,34.5183999700]},"properties":{"Name":"大福小学校 体育館","Jusho":"奈良県桜井市大福820","洪水":"◎","がけ崩れ、土石流及び地滑り":"◎","高潮":"","地震":"◎","津波":"","大規模な火事":"◎","内水氾濫":"","火山現象":"","指定避難所との重複":"◎","備考":"小・中学校では、利用区分の「体育館」には校舎を含む。"}},
{"type":"Feature","geometry":{"type":"Point","coordinates":[135.8253603000,34.5184043900]},"properties":{"Name":"大福小学校 グラウンド","Jusho":"奈良県桜井市大福820","洪水":"","がけ崩れ、土石流及び地滑り":"","高潮":"","地震":"◎","津波":"","大規模な火事":"◎","内水氾濫":"","火山現象":"","指定避難所との重複":"","備考":""}},
{"type":"Feature","geometry":{"type":"Point","coordinates":[135.8290430000,34.5102407500]},"properties":{"Name":"桜井市西老人憩いの家","Jusho":"奈良県桜井市大福77-1","洪水":"◎","がけ崩れ、土石流及び地滑り":"◎","高潮":"","地震":"","津波":"","大規模な火事":"◎","内水氾濫":"","火山現象":"","指定避難所との重複":"◎","備考":""}},
{"type":"Feature","geometry":{"type":"Point","coordinates":[135.8292200000,34.5091670000]},"properties":{"Name":"第１保育所","Jusho":"奈良県桜井市吉備648-1","洪水":"◎","がけ崩れ、土石流及び地滑り":"◎","高潮":"","地震":"◎","津波":"","大規模な火事":"◎","内水氾濫":"","火山現象":"","指定避難所との重複":"◎","備考":""}},
{"type":"Feature","geometry":{"type":"Point","coordinates":[135.8289840000,34.5091130000]},"properties":{"Name":"桜井西ふれあいセンター","Jusho":"奈良県桜井市吉備646-16","洪水":"◎","がけ崩れ、土石流及び地滑り":"◎","高潮":"","地震":"","津波":"","大規模な火事":"◎","内水氾濫":"","火山現象":"","指定避難所との重複":"◎","備考":""}},
{"type":"Feature","geometry":{"type":"Point","coordinates":[135.8262132000,34.5131674700]},"properties":{"Name":"桜井西ふれあいセンター分館","Jusho":"奈良県桜井市西之宮211-1","洪水":"◎","がけ崩れ、土石流及び地滑り":"◎","高潮":"","地震":"◎","津波":"","大規模な火事":"◎","内水氾濫":"","火山現象":"","指定避難所との重複":"◎","備考":""}},
{"type":"Feature","geometry":{"type":"Point","coordinates":[135.8383099000,34.5188240000]},"properties":{"Name":"桜井西小学校 体育館","Jusho":"奈良県桜井市上之庄594-1","洪水":"◎","がけ崩れ、土石流及び地滑り":"◎","高潮":"","地震":"◎","津波":"","大規模な火事":"◎","内水氾濫":"","火山現象":"","指定避難所との重複":"◎","備考":"小・中学校では、利用区分の「体育館」には校舎を含む。"}},
{"type":"Feature","geometry":{"type":"Point","coordinates":[135.8390287000,34.5181919400]},"properties":{"Name":"桜井西小学校 グラウンド","Jusho":"奈良県桜井市上之庄594-1","洪水":"","がけ崩れ、土石流及び地滑り":"","高潮":"","地震":"◎","津波":"","大規模な火事":"◎","内水氾濫":"","火山現象":"","指定避難所との重複":"","備考":""}},
{"type":"Feature","geometry":{"type":"Point","coordinates":[135.8304421000,34.5186657400]},"properties":{"Name":"桜井西中学校 体育館","Jusho":"奈良県桜井市大福747","洪水":"◎","がけ崩れ、土石流及び地滑り":"◎","高潮":"","地震":"◎","津波":"","大規模な火事":"◎","内水氾濫":"","火山現象":"","指定避難所との重複":"◎","備考":"小・中学校では、利用区分の「体育館」には校舎を含む。"}},
{"type":"Feature","geometry":{"type":"Point","coordinates":[135.8310215000,34.5179099200]},"properties":{"Name":"桜井西中学校 グラウンド","Jusho":"奈良県桜井市大福747","洪水":"","がけ崩れ、土石流及び地滑り":"","高潮":"","地震":"◎","津波":"","大規模な火事":"◎","内水氾濫":"","火山現象":"","指定避難所との重複":"","備考":""}},
{"type":"Feature","geometry":{"type":"Point","coordinates":[135.8395053000,34.5303711200]},"properties":{"Name":"芝運動公園","Jusho":"奈良県桜井市三輪686","洪水":"","がけ崩れ、土石流及び地滑り":"","高潮":"","地震":"◎","津波":"","大規模な火事":"◎","内水氾濫":"","火山現象":"","指定避難所との重複":"","備考":""}},
{"type":"Feature","geometry":{"type":"Point","coordinates":[135.8408684000,34.5291471100]},"properties":{"Name":"総合体育館","Jusho":"奈良県桜井市三輪686","洪水":"◎","がけ崩れ、土石流及び地滑り":"◎","高潮":"","地震":"◎","津波":"","大規模な火事":"◎","内水氾濫":"","火山現象":"","指定避難所との重複":"◎","備考":""}},
{"type":"Feature","geometry":{"type":"Point","coordinates":[135.8411956000,34.5297835000]},"properties":{"Name":"桜井市民体育館","Jusho":"奈良県桜井市芝54-1","洪水":"","がけ崩れ、土石流及び地滑り":"◎","高潮":"","地震":"","津波":"","大規模な火事":"◎","内水氾濫":"","火山現象":"","指定避難所との重複":"◎","備考":""}},
{"type":"Feature","geometry":{"type":"Point","coordinates":[135.8502320000,34.5253139000]},"properties":{"Name":"三輪小学校 体育館","Jusho":"奈良県桜井市三輪324","洪水":"◎","がけ崩れ、土石流及び地滑り":"◎","高潮":"","地震":"◎","津波":"","大規模な火事":"◎","内水氾濫":"","火山現象":"","指定避難所との重複":"◎","備考":"小・中学校では、利用区分の「体育館」には校舎を含む。 避難施設が土砂災害警戒区域にあるため、周辺状況をみて利用可能か判断する。"}},
{"type":"Feature","geometry":{"type":"Point","coordinates":[135.8505646000,34.5256674700]},"properties":{"Name":"三輪小学校 グラウンド","Jusho":"奈良県桜井市三輪324","洪水":"","がけ崩れ、土石流及び地滑り":"","高潮":"","地震":"◎","津波":"","大規模な火事":"◎","内水氾濫":"","火山現象":"","指定避難所との重複":"","備考":""}},
{"type":"Feature","geometry":{"type":"Point","coordinates":[135.8424300000,34.5318466700]},"properties":{"Name":"大三輪中学校 体育館","Jusho":"奈良県桜井市芝1401","洪水":"◎","がけ崩れ、土石流及び地滑り":"◎","高潮":"","地震":"◎","津波":"","大規模な火事":"◎","内水氾濫":"","火山現象":"","指定避難所との重複":"◎","備考":"小・中学校では、利用区分の「体育館」には校舎を含む。"}},
{"type":"Feature","geometry":{"type":"Point","coordinates":[135.8429557000,34.5321781200]},"properties":{"Name":"大三輪中学校 グラウンド","Jusho":"奈良県桜井市芝1401","洪水":"","がけ崩れ、土石流及び地滑り":"","高潮":"","地震":"◎","津波":"","大規模な火事":"◎","内水氾濫":"","火山現象":"","指定避難所との重複":"","備考":""}},
{"type":"Feature","geometry":{"type":"Point","coordinates":[135.8431386000,34.5358302600]},"properties":{"Name":"織田小学校 体育館","Jusho":"奈良県桜井市芝1177","洪水":"◎","がけ崩れ、土石流及び地滑り":"◎","高潮":"","地震":"◎","津波":"","大規模な火事":"◎","内水氾濫":"","火山現象":"","指定避難所との重複":"◎","備考":"小・中学校では、利用区分の「体育館」には校舎を含む。"}},
{"type":"Feature","geometry":{"type":"Point","coordinates":[135.8434766000,34.5362589100]},"properties":{"Name":"織田小学校 グラウンド","Jusho":"奈良県桜井市芝1177","洪水":"","がけ崩れ、土石流及び地滑り":"","高潮":"","地震":"◎","津波":"","大規模な火事":"◎","内水氾濫":"","火山現象":"","指定避難所との重複":"","備考":""}},
{"type":"Feature","geometry":{"type":"Point","coordinates":[135.8343143000,34.5465983200]},"properties":{"Name":"纒向小学校 体育館","Jusho":"奈良県桜井市東田339","洪水":"◎","がけ崩れ、土石流及び地滑り":"◎","高潮":"","地震":"◎","津波":"","大規模な火事":"◎","内水氾濫":"","火山現象":"","指定避難所との重複":"◎","備考":"小・中学校では、利用区分の「体育館」には校舎を含む。"}},
{"type":"Feature","geometry":{"type":"Point","coordinates":[135.8350868000,34.5458692600]},"properties":{"Name":"纒向小学校 グラウンド","Jusho":"奈良県桜井市東田339","洪水":"","がけ崩れ、土石流及び地滑り":"","高潮":"","地震":"◎","津波":"","大規模な火事":"◎","内水氾濫":"","火山現象":"","指定避難所との重複":"","備考":""}},
{"type":"Feature","geometry":{"type":"Point","coordinates":[135.8323101000,34.5374923500]},"properties":{"Name":"桜井北ふれあいセンター","Jusho":"奈良県桜井市豊田311-2","洪水":"◎","がけ崩れ、土石流及び地滑り":"◎","高潮":"","地震":"","津波":"","大規模な火事":"◎","内水氾濫":"","火山現象":"","指定避難所との重複":"◎","備考":""}},
{"type":"Feature","geometry":{"type":"Point","coordinates":[135.8315550000,34.5386595000]},"properties":{"Name":"第５保育所","Jusho":"奈良県桜井市豊前267","洪水":"◎","がけ崩れ、土石流及び地滑り":"◎","高潮":"","地震":"","津波":"","大規模な火事":"◎","内水氾濫":"","火山現象":"","指定避難所との重複":"◎","備考":""}},
{"type":"Feature","geometry":{"type":"Point","coordinates":[135.8325890000,34.5378414500]},"properties":{"Name":"桜井北ふれあいセンター分館","Jusho":"奈良県桜井市豊田314-2","洪水":"◎","がけ崩れ、土石流及び地滑り":"◎","高潮":"","地震":"◎","津波":"","大規模な火事":"◎","内水氾濫":"","火山現象":"","指定避難所との重複":"◎","備考":""}},
{"type":"Feature","geometry":{"type":"Point","coordinates":[135.8517698000,34.5062062800]},"properties":{"Name":"図書館","Jusho":"奈良県桜井市河西31","洪水":"◎","がけ崩れ、土石流及び地滑り":"◎","高潮":"","地震":"◎","津波":"","大規模な火事":"◎","内水氾濫":"","火山現象":"","指定避難所との重複":"◎","備考":"避難施設が土砂災害警戒区域にあるため、周辺状況をみて利用可能か判断する。"}},
{"type":"Feature","geometry":{"type":"Point","coordinates":[135.8511421000,34.5065687700]},"properties":{"Name":"図書館 駐車場","Jusho":"奈良県桜井市河西31","洪水":"","がけ崩れ、土石流及び地滑り":"","高潮":"","地震":"◎","津波":"","大規模な火事":"◎","内水氾濫":"","火山現象":"","指定避難所との重複":"","備考":""}},
{"type":"Feature","geometry":{"type":"Point","coordinates":[135.8704015000,34.5025333900]},"properties":{"Name":"桜井市グリーンパーク","Jusho":"奈良県桜井市浅古485-1","洪水":"◎","がけ崩れ、土石流及び地滑り":"◎","高潮":"","地震":"◎","津波":"","大規模な火事":"◎","内水氾濫":"","火山現象":"","指定避難所との重複":"◎","備考":""}},
{"type":"Feature","geometry":{"type":"Point","coordinates":[135.8452757000,34.5138718900]},"properties":{"Name":"天理教明和大教会","Jusho":"奈良県桜井市川合254-1","洪水":"◎","がけ崩れ、土石流及び地滑り":"◎","高潮":"","地震":"◎","津波":"","大規模な火事":"◎","内水氾濫":"","火山現象":"","指定避難所との重複":"◎","備考":""}},
{"type":"Feature","geometry":{"type":"Point","coordinates":[135.8446181000,34.5057245100]},"properties":{"Name":"桜井公園","Jusho":"奈良県桜井市谷565外","洪水":"","がけ崩れ、土石流及び地滑り":"","高潮":"","地震":"◎","津波":"","大規模な火事":"◎","内水氾濫":"","火山現象":"","指定避難所との重複":"","備考":""}},
{"type":"Feature","geometry":{"type":"Point","coordinates":[135.8396695000,34.5015802700]},"properties":{"Name":"安倍史跡公園","Jusho":"奈良県桜井市安倍木材団地1-8-6","洪水":"","がけ崩れ、土石流及び地滑り":"","高潮":"","地震":"◎","津波":"","大規模な火事":"◎","内水氾濫":"","火山現象":"","指定避難所との重複":"","備考":""}},
{"type":"Feature","geometry":{"type":"Point","coordinates":[135.8694805000,34.5150961800]},"properties":{"Name":"朝倉台２号公園","Jusho":"奈良県桜井市慈恩寺1000-135外","洪水":"","がけ崩れ、土石流及び地滑り":"","高潮":"","地震":"◎","津波":"","大規模な火事":"◎","内水氾濫":"","火山現象":"","指定避難所との重複":"","備考":""}},
{"type":"Feature","geometry":{"type":"Point","coordinates":[135.8403068000,34.5441375100]},"properties":{"Name":"旧纒向小学校跡地","Jusho":"奈良県桜井市辻24-1","洪水":"","がけ崩れ、土石流及び地滑り":"","高潮":"","地震":"◎","津波":"","大規模な火事":"◎","内水氾濫":"","火山現象":"","指定避難所との重複":"","備考":""}},
{"type":"Feature","geometry":{"type":"Point","coordinates":[135.8326083000,34.5373941600]},"properties":{"Name":"豊田児童公園","Jusho":"奈良県桜井市","洪水":"","がけ崩れ、土石流及び地滑り":"","高潮":"","地震":"◎","津波":"","大規模な火事":"◎","内水氾濫":"","火山現象":"","指定避難所との重複":"","備考":""}},
{"type":"Feature","geometry":{"type":"Point","coordinates":[135.8335061000,34.5355696300]},"properties":{"Name":"高齢者ふれあい広場","Jusho":"奈良県桜井市芝24-1","洪水":"","がけ崩れ、土石流及び地滑り":"","高潮":"","地震":"◎","津波":"","大規模な火事":"◎","内水氾濫":"","火山現象":"","指定避難所との重複":"","備考":""}},
{"type":"Feature","geometry":{"type":"Point","coordinates":[135.8208574000,34.5165548200]},"properties":{"Name":"なかつみち児童公園","Jusho":"奈良県桜井市大福370","洪水":"","がけ崩れ、土石流及び地滑り":"","高潮":"","地震":"◎","津波":"","大規模な火事":"◎","内水氾濫":"","火山現象":"","指定避難所との重複":"","備考":""}},
{"type":"Feature","geometry":{"type":"Point","coordinates":[135.8279681000,34.5105593100]},"properties":{"Name":"大福吉備中央公園","Jusho":"奈良県桜井市大福107","洪水":"","がけ崩れ、土石流及び地滑り":"","高潮":"","地震":"◎","津波":"","大規模な火事":"◎","内水氾濫":"","火山現象":"","指定避難所との重複":"","備考":""}},
{"type":"Feature","geometry":{"type":"Point","coordinates":[135.8449966000,34.5186082300]},"properties":{"Name":"桜井中央児童公園","Jusho":"奈良県桜井市粟殿1001","洪水":"","がけ崩れ、土石流及び地滑り":"","高潮":"","地震":"◎","津波":"","大規模な火事":"◎","内水氾濫":"","火山現象":"","指定避難所との重複":"","備考":""}},
{"type":"Feature","geometry":{"type":"Point","coordinates":[135.8754806000,34.5152622800]},"properties":{"Name":"朝倉台４号公園","Jusho":"奈良県桜井市朝倉台西6-1370","洪水":"","がけ崩れ、土石流及び地滑り":"","高潮":"","地震":"◎","津波":"","大規模な火事":"◎","内水氾濫":"","火山現象":"","指定避難所との重複":"","備考":""}},
{"type":"Feature","geometry":{"type":"Point","coordinates":[135.8459489000,34.5104952100]},"properties":{"Name":"昭和児童公園","Jusho":"奈良県桜井市桜井243-1","洪水":"","がけ崩れ、土石流及び地滑り":"","高潮":"","地震":"◎","津波":"","大規模な火事":"◎","内水氾濫":"","火山現象":"","指定避難所との重複":"","備考":""}},
{"type":"Feature","geometry":{"type":"Point","coordinates":[135.8621401000,34.4639416800]},"properties":{"Name":"多武峰第１駐車場","Jusho":"奈良県桜井市多武峰473外","洪水":"","がけ崩れ、土石流及び地滑り":"","高潮":"","地震":"◎","津波":"","大規模な火事":"◎","内水氾濫":"","火山現象":"","指定避難所との重複":"","備考":""}},
{"type":"Feature","geometry":{"type":"Point","coordinates":[135.8371382000,34.5206874700]},"properties":{"Name":"イオン桜井店 駐車場","Jusho":"奈良県桜井市上之庄278-1","洪水":"","がけ崩れ、土石流及び地滑り":"","高潮":"","地震":"◎","津波":"","大規模な火事":"◎","内水氾濫":"","火山現象":"","指定避難所との重複":"","備考":""}},
{"type":"Feature","geometry":{"type":"Point","coordinates":[135.8311808000,34.5225051900]},"properties":{"Name":"LAMU（ラ・ムー）桜井店 駐車場","Jusho":"奈良県桜井市東新堂500","洪水":"","がけ崩れ、土石流及び地滑り":"","高潮":"","地震":"◎","津波":"","大規模な火事":"◎","内水氾濫":"","火山現象":"","指定避難所との重複":"","備考":""}},
{"type":"Feature","geometry":{"type":"Point","coordinates":[135.6920901000,34.3536762300]},"properties":{"Name":"市民会館","Jusho":"奈良県五條市本町３丁目１-１３","洪水":"◎","がけ崩れ、土石流及び地滑り":"◎","高潮":"","地震":"◎","津波":"","大規模な火事":"◎","内水氾濫":"◎","火山現象":"","指定避難所との重複":"◎","備考":""}},
{"type":"Feature","geometry":{"type":"Point","coordinates":[135.6914604000,34.3531436800]},"properties":{"Name":"中央体育館","Jusho":"奈良県五條市本町３丁目１-１３","洪水":"◎","がけ崩れ、土石流及び地滑り":"◎","高潮":"","地震":"◎","津波":"","大規模な火事":"◎","内水氾濫":"◎","火山現象":"","指定避難所との重複":"◎","備考":""}},
{"type":"Feature","geometry":{"type":"Point","coordinates":[135.6920311000,34.3538917600]},"properties":{"Name":"中央公民館","Jusho":"奈良県五條市本町３丁目１-１３","洪水":"◎","がけ崩れ、土石流及び地滑り":"◎","高潮":"","地震":"◎","津波":"","大規模な火事":"◎","内水氾濫":"◎","火山現象":"","指定避難所との重複":"◎","備考":""}},
{"type":"Feature","geometry":{"type":"Point","coordinates":[135.6925144000,34.3516173600]},"properties":{"Name":"五條小学校","Jusho":"奈良県五條市本町１丁目１-４","洪水":"◎","がけ崩れ、土石流及び地滑り":"◎","高潮":"","地震":"◎","津波":"","大規模な火事":"◎","内水氾濫":"◎","火山現象":"","指定避難所との重複":"◎","備考":""}},
{"type":"Feature","geometry":{"type":"Point","coordinates":[135.7016922000,34.3513318700]},"properties":{"Name":"人権総合センター","Jusho":"奈良県五條市五條４丁目１-３","洪水":"","がけ崩れ、土石流及び地滑り":"◎","高潮":"","地震":"◎","津波":"","大規模な火事":"◎","内水氾濫":"◎","火山現象":"","指定避難所との重複":"◎","備考":""}},
{"type":"Feature","geometry":{"type":"Point","coordinates":[135.7031132000,34.3518762800]},"properties":{"Name":"五條東体育館","Jusho":"奈良県五條市五條４丁目２-６","洪水":"","がけ崩れ、土石流及び地滑り":"◎","高潮":"","地震":"◎","津波":"","大規模な火事":"◎","内水氾濫":"◎","火山現象":"","指定避難所との重複":"◎","備考":""}},
{"type":"Feature","geometry":{"type":"Point","coordinates":[135.6894707000,34.3529153700]},"properties":{"Name":"五條中学校","Jusho":"奈良県五條市下之町５０","洪水":"◎","がけ崩れ、土石流及び地滑り":"◎","高潮":"","地震":"◎","津波":"","大規模な火事":"◎","内水氾濫":"◎","火山現象":"","指定避難所との重複":"◎","備考":""}},
{"type":"Feature","geometry":{"type":"Point","coordinates":[135.6956163000,34.3557326000]},"properties":{"Name":"旧五條高等学校跡地","Jusho":"奈良県五條市岡口1丁目１１１-２","洪水":"◎","がけ崩れ、土石流及び地滑り":"◎","高潮":"","地震":"◎","津波":"","大規模な火事":"◎","内水氾濫":"◎","火山現象":"","指定避難所との重複":"","備考":""}},
{"type":"Feature","geometry":{"type":"Point","coordinates":[135.7001189000,34.3558637200]},"properties":{"Name":"五条駅前臨時駐車場","Jusho":"奈良県五條市須恵３丁目２４０-１","洪水":"◎","がけ崩れ、土石流及び地滑り":"◎","高潮":"","地震":"◎","津波":"","大規模な火事":"◎","内水氾濫":"◎","火山現象":"","指定避難所との重複":"","備考":""}},
{"type":"Feature","geometry":{"type":"Point","coordinates":[135.7066612000,34.3507436400]},"properties":{"Name":"五條中央公園","Jusho":"奈良県五條市五條４丁目１０","洪水":"","がけ崩れ、土石流及び地滑り":"◎","高潮":"","地震":"◎","津波":"","大規模な火事":"◎","内水氾濫":"◎","火山現象":"","指定避難所との重複":"","備考":""}},
{"type":"Feature","geometry":{"type":"Point","coordinates":[135.6915710000,34.3526328200]},"properties":{"Name":"本町３丁目市駐車場","Jusho":"奈良県五條市本町３丁目１０１","洪水":"◎","がけ崩れ、土石流及び地滑り":"◎","高潮":"","地震":"◎","津波":"","大規模な火事":"◎","内水氾濫":"◎","火山現象":"","指定避難所との重複":"","備考":""}},
{"type":"Feature","geometry":{"type":"Point","coordinates":[135.6986601000,34.3536837600]},"properties":{"Name":"須恵公民館","Jusho":"奈良県五條市須恵３丁目４-４４","洪水":"◎","がけ崩れ、土石流及び地滑り":"◎","高潮":"","地震":"◎","津波":"","大規模な火事":"◎","内水氾濫":"◎","火山現象":"","指定避難所との重複":"◎","備考":""}},
{"type":"Feature","geometry":{"type":"Point","coordinates":[135.6778700000,34.3438450000]},"properties":{"Name":"二見文化体育センター","Jusho":"奈良県五條市二見７丁目６-５０","洪水":"◎","がけ崩れ、土石流及び地滑り":"◎","高潮":"","地震":"◎","津波":"","大規模な火事":"◎","内水氾濫":"◎","火山現象":"","指定避難所との重複":"◎","備考":""}},
{"type":"Feature","geometry":{"type":"Point","coordinates":[135.6858580000,34.3441980000]},"properties":{"Name":"二見公民館","Jusho":"奈良県五條市二見２丁目５-１","洪水":"◎","がけ崩れ、土石流及び地滑り":"◎","高潮":"","地震":"◎","津波":"","大規模な火事":"◎","内水氾濫":"◎","火山現象":"","指定避難所との重複":"◎","備考":""}},
{"type":"Feature","geometry":{"type":"Point","coordinates":[135.6892327000,34.3445216000]},"properties":{"Name":"二見保育所跡地","Jusho":"奈良県五條市二見４丁目４","洪水":"◎","がけ崩れ、土石流及び地滑り":"◎","高潮":"","地震":"◎","津波":"","大規模な火事":"◎","内水氾濫":"◎","火山現象":"","指定避難所との重複":"","備考":""}},
{"type":"Feature","geometry":{"type":"Point","coordinates":[135.6867608851,34.3396019989]},"properties":{"Name":"衛生センター","Jusho":"奈良県五條市二見５丁目４-２","洪水":"","がけ崩れ、土石流及び地滑り":"◎","高潮":"","地震":"◎","津波":"","大規模な火事":"◎","内水氾濫":"◎","火山現象":"","指定避難所との重複":"","備考":""}},
{"type":"Feature","geometry":{"type":"Point","coordinates":[135.6717721000,34.3358766700]},"properties":{"Name":"上野公園","Jusho":"奈良県五條市上野町２４６","洪水":"","がけ崩れ、土石流及び地滑り":"◎","高潮":"","地震":"◎","津波":"","大規模な火事":"◎","内水氾濫":"◎","火山現象":"","指定避難所との重複":"◎","備考":""}},
{"type":"Feature","geometry":{"type":"Point","coordinates":[135.6791795000,34.3350537400]},"properties":{"Name":"阪合部小学校","Jusho":"奈良県五條市中町３１","洪水":"◎","がけ崩れ、土石流及び地滑り":"◎","高潮":"","地震":"◎","津波":"","大規模な火事":"◎","内水氾濫":"◎","火山現象":"","指定避難所との重複":"◎","備考":""}},
{"type":"Feature","geometry":{"type":"Point","coordinates":[135.6895841000,34.3242536600]},"properties":{"Name":"プレディアゴルフ場","Jusho":"奈良県五條市阪合部新田町４４１-１","洪水":"◎","がけ崩れ、土石流及び地滑り":"◎","高潮":"","地震":"◎","津波":"","大規模な火事":"◎","内水氾濫":"◎","火山現象":"","指定避難所との重複":"◎","備考":""}},
{"type":"Feature","geometry":{"type":"Point","coordinates":[135.6705323000,34.3078000400]},"properties":{"Name":"田殿集会所","Jusho":"奈良県五條市田殿町２４５","洪水":"◎","がけ崩れ、土石流及び地滑り":"◎","高潮":"","地震":"◎","津波":"","大規模な火事":"◎","内水氾濫":"◎","火山現象":"","指定避難所との重複":"◎","備考":""}},
{"type":"Feature","geometry":{"type":"Point","coordinates":[135.6776153000,34.3664444100]},"properties":{"Name":"牧野小学校","Jusho":"奈良県五條市中之町９２１","洪水":"◎","がけ崩れ、土石流及び地滑り":"◎","高潮":"","地震":"◎","津波":"","大規模な火事":"◎","内水氾濫":"◎","火山現象":"","指定避難所との重複":"◎","備考":""}},
{"type":"Feature","geometry":{"type":"Point","coordinates":[135.6662985000,34.3638946700]},"properties":{"Name":"五條西中学校","Jusho":"奈良県五條市大澤町３７４","洪水":"◎","がけ崩れ、土石流及び地滑り":"◎","高潮":"","地震":"◎","津波":"","大規模な火事":"◎","内水氾濫":"◎","火山現象":"","指定避難所との重複":"◎","備考":""}},