var osaka={"type":"FeatureCollection","name":"osaka","features":[
{"type":"Feature","geometry":{"type":"Point","coordinates":[135.5746412000,34.7137142000]},"properties":{"Name":"鶴見緑地","Jusho":"大阪府大阪市鶴見区緑地公園、緑３、浜１大阪府守口市大字高瀬旧馬場","洪水":"","がけ崩れ、土石流及び地滑り":"","高潮":"","地震":"◎","津波":"◎","大規模な火事":"◎","内水氾濫":"","火山現象":"","指定避難所との重複":"","備考":""}},
{"type":"Feature","geometry":{"type":"Point","coordinates":[135.5191280000,34.6960324300]},"properties":{"Name":"滝川小学校（運動場）","Jusho":"大阪府大阪市北区天満１-24-15","洪水":"","がけ崩れ、土石流及び地滑り":"","高潮":"","地震":"◎","津波":"◎","大規模な火事":"","内水氾濫":"","火山現象":"","指定避難所との重複":"◎","備考":""}},
{"type":"Feature","geometry":{"type":"Point","coordinates":[135.5185889000,34.6961013500]},"properties":{"Name":"滝川小学校","Jusho":"大阪府大阪市北区天満1-24-15","洪水":"◎","がけ崩れ、土石流及び地滑り":"","高潮":"","地震":"","津波":"◎","大規模な火事":"","内水氾濫":"","火山現象":"","指定避難所との重複":"◎","備考":""}},
{"type":"Feature","geometry":{"type":"Point","coordinates":[135.5284465000,34.6866750300]},"properties":{"Name":"大阪城公園","Jusho":"大阪府大阪市中央区大阪城","洪水":"","がけ崩れ、土石流及び地滑り":"","高潮":"","地震":"◎","津波":"◎","大規模な火事":"◎","内水氾濫":"","火山現象":"","指定避難所との重複":"","備考":""}},
{"type":"Feature","geometry":{"type":"Point","coordinates":[135.5132502000,34.6978875600]},"properties":{"Name":"堀川小学校（運動場）","Jusho":"大阪府大阪市北区東天満２-10-７","洪水":"","がけ崩れ、土石流及び地滑り":"","高潮":"","地震":"◎","津波":"◎","大規模な火事":"","内水氾濫":"","火山現象":"","指定避難所との重複":"◎","備考":""}},
{"type":"Feature","geometry":{"type":"Point","coordinates":[135.5128948000,34.6976510500]},"properties":{"Name":"堀川小学校","Jusho":"大阪府大阪市北区東天満2-10-7","洪水":"◎","がけ崩れ、土石流及び地滑り":"","高潮":"","地震":"","津波":"◎","大規模な火事":"","内水氾濫":"","火山現象":"","指定避難所との重複":"◎","備考":""}},
{"type":"Feature","geometry":{"type":"Point","coordinates":[135.4943668000,34.6857796300]},"properties":{"Name":"靭公園","Jusho":"大阪府大阪市西区靭本町１、２","洪水":"","がけ崩れ、土石流及び地滑り":"","高潮":"","地震":"◎","津波":"","大規模な火事":"◎","内水氾濫":"","火山現象":"","指定避難所との重複":"","備考":""}},
{"type":"Feature","geometry":{"type":"Point","coordinates":[135.5067585000,34.6964161000]},"properties":{"Name":"西天満小学校（運動場）","Jusho":"大阪府大阪市北区西天満３-12-21","洪水":"","がけ崩れ、土石流及び地滑り":"","高潮":"","地震":"◎","津波":"◎","大規模な火事":"","内水氾濫":"","火山現象":"","指定避難所との重複":"◎","備考":""}},
{"type":"Feature","geometry":{"type":"Point","coordinates":[135.5070625000,34.6965528300]},"properties":{"Name":"西天満小学校","Jusho":"大阪府大阪市北区西天満3-12-21","洪水":"◎","がけ崩れ、土石流及び地滑り":"","高潮":"","地震":"","津波":"◎","大規模な火事":"","内水氾濫":"","火山現象":"","指定避難所との重複":"◎","備考":""}},
{"type":"Feature","geometry":{"type":"Point","coordinates":[135.5108279000,34.6485549300]},"properties":{"Name":"天王寺公園","Jusho":"大阪府大阪市天王寺区茶臼山町","洪水":"","がけ崩れ、土石流及び地滑り":"","高潮":"","地震":"◎","津波":"◎","大規模な火事":"◎","内水氾濫":"","火山現象":"","指定避難所との重複":"","備考":""}},
{"type":"Feature","geometry":{"type":"Point","coordinates":[135.5099803000,34.7100006400]},"properties":{"Name":"もと北天満小学校（運動場）","Jusho":"大阪府大阪市北区浪花町14-６","洪水":"","がけ崩れ、土石流及び地滑り":"","高潮":"","地震":"◎","津波":"◎","大規模な火事":"","内水氾濫":"","火山現象":"","指定避難所との重複":"","備考":""}},
{"type":"Feature","geometry":{"type":"Point","coordinates":[135.5135786577,34.7088206057]},"properties":{"Name":"菅北小学校","Jusho":"大阪府大阪市北区菅栄町9-5","洪水":"◎","がけ崩れ、土石流及び地滑り":"","高潮":"","地震":"","津波":"◎","大規模な火事":"","内水氾濫":"","火山現象":"","指定避難所との重複":"◎","備考":""}},
{"type":"Feature","geometry":{"type":"Point","coordinates":[135.5210338000,34.6130702500]},"properties":{"Name":"長居公園","Jusho":"大阪府大阪市東住吉区長居公園","洪水":"","がけ崩れ、土石流及び地滑り":"","高潮":"","地震":"◎","津波":"◎","大規模な火事":"◎","内水氾濫":"","火山現象":"","指定避難所との重複":"","備考":""}},
{"type":"Feature","geometry":{"type":"Point","coordinates":[135.5068964000,34.7043709400]},"properties":{"Name":"扇町小学校（運動場）","Jusho":"大阪府大阪市北区扇町２-７-24","洪水":"","がけ崩れ、土石流及び地滑り":"","高潮":"","地震":"◎","津波":"◎","大規模な火事":"","内水氾濫":"","火山現象":"","指定避難所との重複":"◎","備考":""}},
{"type":"Feature","geometry":{"type":"Point","coordinates":[135.5159413000,34.7132406000]},"properties":{"Name":"豊崎東小学校","Jusho":"大阪府大阪市北区長柄中2-3-30","洪水":"◎","がけ崩れ、土石流及び地滑り":"","高潮":"","地震":"","津波":"◎","大規模な火事":"","内水氾濫":"","火山現象":"","指定避難所との重複":"◎","備考":""}},
{"type":"Feature","geometry":{"type":"Point","coordinates":[135.5612022000,34.6027122600]},"properties":{"Name":"瓜破霊園","Jusho":"大阪府大阪市平野区瓜破東４","洪水":"","がけ崩れ、土石流及び地滑り":"","高潮":"","地震":"◎","津波":"◎","大規模な火事":"◎","内水氾濫":"","火山現象":"","指定避難所との重複":"","備考":""}},
{"type":"Feature","geometry":{"type":"Point","coordinates":[135.5138594423,34.7086706625]},"properties":{"Name":"菅北小学校（運動場）","Jusho":"大阪府大阪市北区菅栄町９-５","洪水":"","がけ崩れ、土石流及び地滑り":"","高潮":"","地震":"◎","津波":"◎","大規模な火事":"","内水氾濫":"","火山現象":"","指定避難所との重複":"◎","備考":""}},
{"type":"Feature","geometry":{"type":"Point","coordinates":[135.5059297000,34.7127664500]},"properties":{"Name":"豊崎本庄小学校","Jusho":"大阪府大阪市北区本庄西2-1-16","洪水":"◎","がけ崩れ、土石流及び地滑り":"","高潮":"","地震":"","津波":"◎","大規模な火事":"","内水氾濫":"","火山現象":"","指定避難所との重複":"◎","備考":""}},
{"type":"Feature","geometry":{"type":"Point","coordinates":[135.5075496000,34.5925208800]},"properties":{"Name":"大阪市立大学","Jusho":"大阪府大阪市住吉区杉本３","洪水":"","がけ崩れ、土石流及び地滑り":"","高潮":"","地震":"◎","津波":"◎","大規模な火事":"◎","内水氾濫":"","火山現象":"","指定避難所との重複":"","備考":""}},
{"type":"Feature","geometry":{"type":"Point","coordinates":[135.5136408000,34.7167737800]},"properties":{"Name":"豊仁小学校（運動場）","Jusho":"大阪府大阪市北区長柄西２-６-20","洪水":"","がけ崩れ、土石流及び地滑り":"","高潮":"","地震":"◎","津波":"◎","大規模な火事":"","内水氾濫":"","火山現象":"","指定避難所との重複":"◎","備考":""}},
{"type":"Feature","geometry":{"type":"Point","coordinates":[135.4940067000,34.7135476500]},"properties":{"Name":"中津小学校","Jusho":"大阪府大阪市北区中津3-34-18","洪水":"◎","がけ崩れ、土石流及び地滑り":"","高潮":"","地震":"","津波":"◎","大規模な火事":"","内水氾濫":"","火山現象":"","指定避難所との重複":"◎","備考":""}},
{"type":"Feature","geometry":{"type":"Point","coordinates":[135.4228864000,34.7012341200]},"properties":{"Name":"西淀川中島地区","Jusho":"大阪府大阪市西淀川区中島１","洪水":"","がけ崩れ、土石流及び地滑り":"","高潮":"","地震":"◎","津波":"","大規模な火事":"◎","内水氾濫":"","火山現象":"","指定避難所との重複":"","備考":""}},
{"type":"Feature","geometry":{"type":"Point","coordinates":[135.5156695000,34.7133155700]},"properties":{"Name":"豊崎東小学校（運動場）","Jusho":"大阪府大阪市北区長柄中２-３-30","洪水":"","がけ崩れ、土石流及び地滑り":"","高潮":"","地震":"◎","津波":"◎","大規模な火事":"","内水氾濫":"","火山現象":"","指定避難所との重複":"◎","備考":""}},
{"type":"Feature","geometry":{"type":"Point","coordinates":[135.4824030000,34.7039919400]},"properties":{"Name":"大淀小学校","Jusho":"大阪府大阪市北区大淀中4-10-33","洪水":"◎","がけ崩れ、土石流及び地滑り":"","高潮":"","地震":"","津波":"◎","大規模な火事":"","内水氾濫":"","火山現象":"","指定避難所との重複":"◎","備考":""}},
{"type":"Feature","geometry":{"type":"Point","coordinates":[135.4462238000,34.6603512800]},"properties":{"Name":"八幡屋公園","Jusho":"大阪府大阪市港区田中３","洪水":"","がけ崩れ、土石流及び地滑り":"","高潮":"","地震":"◎","津波":"","大規模な火事":"◎","内水氾濫":"","火山現象":"","指定避難所との重複":"","備考":""}},
{"type":"Feature","geometry":{"type":"Point","coordinates":[135.5060388000,34.7124842300]},"properties":{"Name":"豊崎本庄小学校（運動場）","Jusho":"大阪府大阪市北区本庄西２-１-16","洪水":"","がけ崩れ、土石流及び地滑り":"","高潮":"","地震":"◎","津波":"◎","大規模な火事":"","内水氾濫":"","火山現象":"","指定避難所との重複":"◎","備考":""}},
{"type":"Feature","geometry":{"type":"Point","coordinates":[135.5134029098,34.7170559747]},"properties":{"Name":"豊仁小学校","Jusho":"大阪府大阪市北区長柄西2-6-20","洪水":"◎","がけ崩れ、土石流及び地滑り":"","高潮":"","地震":"","津波":"◎","大規模な火事":"","内水氾濫":"","火山現象":"","指定避難所との重複":"◎","備考":""}},
{"type":"Feature","geometry":{"type":"Point","coordinates":[135.5380794000,34.7288683300]},"properties":{"Name":"城北公園","Jusho":"大阪府大阪市旭区生江３","洪水":"","がけ崩れ、土石流及び地滑り":"","高潮":"","地震":"◎","津波":"◎","大規模な火事":"◎","内水氾濫":"","火山現象":"","指定避難所との重複":"","備考":""}},
{"type":"Feature","geometry":{"type":"Point","coordinates":[135.5006386000,34.7123269800]},"properties":{"Name":"豊崎小学校（運動場）","Jusho":"大阪府大阪市北区豊崎４-５-９","洪水":"","がけ崩れ、土石流及び地滑り":"","高潮":"","地震":"◎","津波":"","大規模な火事":"","内水氾濫":"","火山現象":"","指定避難所との重複":"◎","備考":""}},
{"type":"Feature","geometry":{"type":"Point","coordinates":[135.5005563000,34.7126003800]},"properties":{"Name":"豊崎小学校","Jusho":"大阪府大阪市北区豊崎4-5-9","洪水":"◎","がけ崩れ、土石流及び地滑り":"","高潮":"","地震":"","津波":"◎","大規模な火事":"","内水氾濫":"","火山現象":"","指定避難所との重複":"◎","備考":""}},
{"type":"Feature","geometry":{"type":"Point","coordinates":[135.4321690000,34.6318290100]},"properties":{"Name":"南港中央公園","Jusho":"大阪府大阪市住之江区南港東８","洪水":"","がけ崩れ、土石流及び地滑り":"","高潮":"","地震":"◎","津波":"","大規模な火事":"◎","内水氾濫":"","火山現象":"","指定避難所との重複":"","備考":""}},
{"type":"Feature","geometry":{"type":"Point","coordinates":[135.4943142000,34.7133183500]},"properties":{"Name":"中津小学校（運動場）","Jusho":"大阪府大阪市北区中津３-34-18","洪水":"","がけ崩れ、土石流及び地滑り":"","高潮":"","地震":"◎","津波":"","大規模な火事":"","内水氾濫":"","火山現象":"","指定避難所との重複":"◎","備考":""}},
{"type":"Feature","geometry":{"type":"Point","coordinates":[135.5064733810,34.7046776899]},"properties":{"Name":"扇町小学校","Jusho":"大阪府大阪市北区扇町2-7-24","洪水":"◎","がけ崩れ、土石流及び地滑り":"","高潮":"","地震":"","津波":"◎","大規模な火事":"","内水氾濫":"","火山現象":"","指定避難所との重複":"◎","備考":""}},
{"type":"Feature","geometry":{"type":"Point","coordinates":[135.5019429000,34.6040875400]},"properties":{"Name":"沢之町公園一帯","Jusho":"大阪府大阪市住吉区南住吉３","洪水":"","がけ崩れ、土石流及び地滑り":"","高潮":"","地震":"◎","津波":"◎","大規模な火事":"◎","内水氾濫":"","火山現象":"","指定避難所との重複":"","備考":""}},
{"type":"Feature","geometry":{"type":"Point","coordinates":[135.4887893000,34.7083098200]},"properties":{"Name":"大阪YMCAインターナショナルスクール（運動場）","Jusho":"大阪府大阪市北区中津６-７-34","洪水":"","がけ崩れ、土石流及び地滑り":"","高潮":"","地震":"◎","津波":"","大規模な火事":"","内水氾濫":"","火山現象":"","指定避難所との重複":"◎","備考":""}},
{"type":"Feature","geometry":{"type":"Point","coordinates":[135.5208641000,34.6984189700]},"properties":{"Name":"北稜中学校","Jusho":"大阪府大阪市北区天満橋1-1-58","洪水":"◎","がけ崩れ、土石流及び地滑り":"","高潮":"","地震":"","津波":"◎","大規模な火事":"","内水氾濫":"","火山現象":"","指定避難所との重複":"◎","備考":""}},
{"type":"Feature","geometry":{"type":"Point","coordinates":[135.4933598000,34.6619271700]},"properties":{"Name":"浪速公園一帯","Jusho":"大阪府大阪市浪速区塩草１","洪水":"","がけ崩れ、土石流及び地滑り":"","高潮":"","地震":"◎","津波":"","大規模な火事":"◎","内水氾濫":"","火山現象":"","指定避難所との重複":"","備考":""}},
{"type":"Feature","geometry":{"type":"Point","coordinates":[135.4823457000,34.7036391300]},"properties":{"Name":"大淀小学校（運動場）","Jusho":"大阪府大阪市北区大淀中４-10-33","洪水":"","がけ崩れ、土石流及び地滑り":"","高潮":"","地震":"◎","津波":"","大規模な火事":"","内水氾濫":"","火山現象":"","指定避難所との重複":"◎","備考":""}},
{"type":"Feature","geometry":{"type":"Point","coordinates":[135.4865098000,34.7037607000]},"properties":{"Name":"大淀中学校","Jusho":"大阪府大阪市北区大淀中2-1-11","洪水":"◎","がけ崩れ、土石流及び地滑り":"","高潮":"","地震":"","津波":"◎","大規模な火事":"","内水氾濫":"","火山現象":"","指定避難所との重複":"◎","備考":""}},
{"type":"Feature","geometry":{"type":"Point","coordinates":[135.5597885000,34.6443195600]},"properties":{"Name":"巽東緑地","Jusho":"大阪府大阪市生野区巽東４","洪水":"","がけ崩れ、土石流及び地滑り":"","高潮":"","地震":"◎","津波":"◎","大規模な火事":"◎","内水氾濫":"","火山現象":"","指定避難所との重複":"","備考":""}},
{"type":"Feature","geometry":{"type":"Point","coordinates":[135.5204582000,34.6982249100]},"properties":{"Name":"北稜中学校（運動場）","Jusho":"大阪府大阪市北区天満橋１-１-58","洪水":"","がけ崩れ、土石流及び地滑り":"","高潮":"","地震":"◎","津波":"◎","大規模な火事":"","内水氾濫":"","火山現象":"","指定避難所との重複":"◎","備考":""}},
{"type":"Feature","geometry":{"type":"Point","coordinates":[135.5091038896,34.7156284125]},"properties":{"Name":"豊崎中学校","Jusho":"大阪府大阪市北区本庄東3-4-8","洪水":"◎","がけ崩れ、土石流及び地滑り":"","高潮":"","地震":"","津波":"◎","大規模な火事":"","内水氾濫":"","火山現象":"","指定避難所との重複":"◎","備考":""}},
{"type":"Feature","geometry":{"type":"Point","coordinates":[135.5447402000,34.7038603800]},"properties":{"Name":"蒲生公園一帯","Jusho":"大阪府大阪市城東区中央３","洪水":"","がけ崩れ、土石流及び地滑り":"","高潮":"","地震":"◎","津波":"","大規模な火事":"◎","内水氾濫":"","火山現象":"","指定避難所との重複":"","備考":""}},
{"type":"Feature","geometry":{"type":"Point","coordinates":[135.5069831000,34.7036779700]},"properties":{"Name":"天満中学校（運動場）","Jusho":"大阪府大阪市北区神山町12-９","洪水":"","がけ崩れ、土石流及び地滑り":"","高潮":"","地震":"◎","津波":"◎","大規模な火事":"","内水氾濫":"","火山現象":"","指定避難所との重複":"◎","備考":""}},
{"type":"Feature","geometry":{"type":"Point","coordinates":[135.5172558000,34.7133454500]},"properties":{"Name":"新豊崎中学校","Jusho":"大阪府大阪市北区長柄東2-2-30","洪水":"◎","がけ崩れ、土石流及び地滑り":"","高潮":"","地震":"","津波":"◎","大規模な火事":"","内水氾濫":"","火山現象":"","指定避難所との重複":"◎","備考":""}},
{"type":"Feature","geometry":{"type":"Point","coordinates":[135.5179066000,34.7131249700]},"properties":{"Name":"新豊崎中学校（運動場）","Jusho":"大阪府大阪市北区長柄東２-２-30","洪水":"","がけ崩れ、土石流及び地滑り":"","高潮":"","地震":"◎","津波":"◎","大規模な火事":"","内水氾濫":"","火山現象":"","指定避難所との重複":"◎","備考":""}},
{"type":"Feature","geometry":{"type":"Point","coordinates":[135.5069169000,34.7031928500]},"properties":{"Name":"天満中学校","Jusho":"大阪府大阪市北区神山町12-9","洪水":"◎","がけ崩れ、土石流及び地滑り":"","高潮":"","地震":"","津波":"◎","大規模な火事":"","内水氾濫":"","火山現象":"","指定避難所との重複":"◎","備考":""}},
{"type":"Feature","geometry":{"type":"Point","coordinates":[135.5094061000,34.7160385000]},"properties":{"Name":"豊崎中学校（運動場）","Jusho":"大阪府大阪市北区本庄東３-４-８","洪水":"","がけ崩れ、土石流及び地滑り":"","高潮":"","地震":"◎","津波":"◎","大規模な火事":"","内水氾濫":"","火山現象":"","指定避難所との重複":"◎","備考":""}},
{"type":"Feature","geometry":{"type":"Point","coordinates":[135.5177446000,34.6989862400]},"properties":{"Name":"扇町総合高等学校","Jusho":"大阪府大阪市北区松ヶ枝町1-38","洪水":"◎","がけ崩れ、土石流及び地滑り":"","高潮":"","地震":"","津波":"◎","大規模な火事":"","内水氾濫":"","火山現象":"","指定避難所との重複":"◎","備考":""}},
{"type":"Feature","geometry":{"type":"Point","coordinates":[135.4868656000,34.7040054700]},"properties":{"Name":"大淀中学校（運動場）","Jusho":"大阪府大阪市北区大淀中２-１-11","洪水":"","がけ崩れ、土石流及び地滑り":"","高潮":"","地震":"◎","津波":"","大規模な火事":"","内水氾濫":"","火山現象":"","指定避難所との重複":"◎","備考":""}},
{"type":"Feature","geometry":{"type":"Point","coordinates":[135.5174563000,34.7144580000]},"properties":{"Name":"市営長柄東住宅2号館","Jusho":"大阪府大阪市北区長柄東2-5","洪水":"◎","がけ崩れ、土石流及び地滑り":"","高潮":"","地震":"","津波":"◎","大規模な火事":"","内水氾濫":"","火山現象":"","指定避難所との重複":"","備考":""}},
{"type":"Feature","geometry":{"type":"Point","coordinates":[135.5168505000,34.6990832700]},"properties":{"Name":"扇町総合高等学校（運動場）","Jusho":"大阪府大阪市北区松ヶ枝町１-38","洪水":"","がけ崩れ、土石流及び地滑り":"","高潮":"","地震":"◎","津波":"◎","大規模な火事":"","内水氾濫":"","火山現象":"","指定避難所との重複":"◎","備考":""}},
{"type":"Feature","geometry":{"type":"Point","coordinates":[135.5174885000,34.7140787800]},"properties":{"Name":"市営長柄東住宅3号館","Jusho":"大阪府大阪市北区長柄東2-5","洪水":"◎","がけ崩れ、土石流及び地滑り":"","高潮":"","地震":"","津波":"◎","大規模な火事":"","内水氾濫":"","火山現象":"","指定避難所との重複":"","備考":""}},
{"type":"Feature","geometry":{"type":"Point","coordinates":[135.5101228000,34.6938354100]},"properties":{"Name":"菅南幼稚園（運動場）","Jusho":"大阪府大阪市北区菅原町11-２","洪水":"","がけ崩れ、土石流及び地滑り":"","高潮":"","地震":"◎","津波":"◎","大規模な火事":"","内水氾濫":"","火山現象":"","指定避難所との重複":"","備考":""}},
{"type":"Feature","geometry":{"type":"Point","coordinates":[135.5166677000,34.7139376700]},"properties":{"Name":"市営長柄東住宅4号館","Jusho":"大阪府大阪市北区長柄東2-6","洪水":"◎","がけ崩れ、土石流及び地滑り":"","高潮":"","地震":"","津波":"◎","大規模な火事":"","内水氾濫":"","火山現象":"","指定避難所との重複":"","備考":""}},
{"type":"Feature","geometry":{"type":"Point","coordinates":[135.5089794000,34.7038690900]},"properties":{"Name":"扇町公園","Jusho":"大阪府大阪市北区扇町１-１","洪水":"","がけ崩れ、土石流及び地滑り":"","高潮":"","地震":"◎","津波":"◎","大規模な火事":"","内水氾濫":"","火山現象":"","指定避難所との重複":"","備考":""}},
{"type":"Feature","geometry":{"type":"Point","coordinates":[135.5166302000,34.7143389400]},"properties":{"Name":"市営長柄東住宅5号館","Jusho":"大阪府大阪市北区長柄東2-6","洪水":"◎","がけ崩れ、土石流及び地滑り":"","高潮":"","地震":"","津波":"◎","大規模な火事":"","内水氾濫":"","火山現象":"","指定避難所との重複":"","備考":""}},
{"type":"Feature","geometry":{"type":"Point","coordinates":[135.5157121000,34.6917942100]},"properties":{"Name":"南天満公園","Jusho":"大阪府大阪市北区天神橋１-３　ほか","洪水":"","がけ崩れ、土石流及び地滑り":"","高潮":"","地震":"◎","津波":"◎","大規模な火事":"","内水氾濫":"","火山現象":"","指定避難所との重複":"","備考":""}},
{"type":"Feature","geometry":{"type":"Point","coordinates":[135.5169735000,34.7142287000]},"properties":{"Name":"市営長柄東住宅6号館","Jusho":"大阪府大阪市北区長柄東2-6","洪水":"◎","がけ崩れ、土石流及び地滑り":"","高潮":"","地震":"","津波":"◎","大規模な火事":"","内水氾濫":"","火山現象":"","指定避難所との重複":"","備考":""}},
{"type":"Feature","geometry":{"type":"Point","coordinates":[135.5080395000,34.6985556900]},"properties":{"Name":"西天満公園","Jusho":"大阪府大阪市北区西天満５-７","洪水":"","がけ崩れ、土石流及び地滑り":"","高潮":"","地震":"◎","津波":"◎","大規模な火事":"","内水氾濫":"","火山現象":"","指定避難所との重複":"","備考":""}},
{"type":"Feature","geometry":{"type":"Point","coordinates":[135.5080869000,34.7053569900]},"properties":{"Name":"市営扇町住宅1号館","Jusho":"大阪府大阪市北区扇町2-3","洪水":"◎","がけ崩れ、土石流及び地滑り":"","高潮":"","地震":"","津波":"◎","大規模な火事":"","内水氾濫":"","火山現象":"","指定避難所との重複":"","備考":""}},
{"type":"Feature","geometry":{"type":"Point","coordinates":[135.5185984000,34.7008642700]},"properties":{"Name":"東天満公園","Jusho":"大阪府大阪市北区天満橋１-７","洪水":"","がけ崩れ、土石流及び地滑り":"","高潮":"","地震":"◎","津波":"◎","大規模な火事":"","内水氾濫":"","火山現象":"","指定避難所との重複":"","備考":""}},
{"type":"Feature","geometry":{"type":"Point","coordinates":[135.5162157000,34.7153368000]},"properties":{"Name":"市営長柄東第2住宅1号館","Jusho":"大阪府大阪市北区長柄東2-7","洪水":"◎","がけ崩れ、土石流及び地滑り":"","高潮":"","地震":"","津波":"◎","大規模な火事":"","内水氾濫":"","火山現象":"","指定避難所との重複":"","備考":""}},
{"type":"Feature","geometry":{"type":"Point","coordinates":[135.5146168000,34.6941259600]},"properties":{"Name":"滝川公園","Jusho":"大阪府大阪市北区天満４-７","洪水":"","がけ崩れ、土石流及び地滑り":"","高潮":"","地震":"◎","津波":"◎","大規模な火事":"","内水氾濫":"","火山現象":"","指定避難所との重複":"","備考":""}},
{"type":"Feature","geometry":{"type":"Point","coordinates":[135.5141350000,34.7107611500]},"properties":{"Name":"市営長柄中住宅1号館","Jusho":"大阪府大阪市北区長柄中1-2","洪水":"◎","がけ崩れ、土石流及び地滑り":"","高潮":"","地震":"","津波":"◎","大規模な火事":"","内水氾濫":"","火山現象":"","指定避難所との重複":"","備考":""}},
{"type":"Feature","geometry":{"type":"Point","coordinates":[135.5145533000,34.7087940600]},"properties":{"Name":"菅北公園","Jusho":"大阪府大阪市北区菅栄町４","洪水":"","がけ崩れ、土石流及び地滑り":"","高潮":"","地震":"◎","津波":"◎","大規模な火事":"","内水氾濫":"","火山現象":"","指定避難所との重複":"","備考":""}},
{"type":"Feature","geometry":{"type":"Point","coordinates":[135.5151373000,34.7107363700]},"properties":{"Name":"市営長柄中住宅2号館","Jusho":"大阪府大阪市北区長柄中1-1","洪水":"◎","がけ崩れ、土石流及び地滑り":"","高潮":"","地震":"","津波":"◎","大規模な火事":"","内水氾濫":"","火山現象":"","指定避難所との重複":"","備考":""}},
{"type":"Feature","geometry":{"type":"Point","coordinates":[135.5143253000,34.7010141200]},"properties":{"Name":"与力町公園","Jusho":"大阪府大阪市北区与力町５","洪水":"","がけ崩れ、土石流及び地滑り":"","高潮":"","地震":"◎","津波":"◎","大規模な火事":"","内水氾濫":"","火山現象":"","指定避難所との重複":"","備考":""}},
{"type":"Feature","geometry":{"type":"Point","coordinates":[135.5019500000,34.7047255700]},"properties":{"Name":"ボートピア梅田（北大阪堂山ビル）","Jusho":"大阪府大阪市北区堂山町18-8","洪水":"◎","がけ崩れ、土石流及び地滑り":"","高潮":"","地震":"","津波":"◎","大規模な火事":"","内水氾濫":"","火山現象":"","指定避難所との重複":"","備考":""}},
{"type":"Feature","geometry":{"type":"Point","coordinates":[135.5070733000,34.7013003200]},"properties":{"Name":"野崎公園","Jusho":"大阪府大阪市北区野崎町２","洪水":"","がけ崩れ、土石流及び地滑り":"","高潮":"","地震":"◎","津波":"◎","大規模な火事":"","内水氾濫":"","火山現象":"","指定避難所との重複":"","備考":""}},
{"type":"Feature","geometry":{"type":"Point","coordinates":[135.5036896000,34.7002830600]},"properties":{"Name":"兎我野町　聚楽マンション","Jusho":"大阪府大阪市北区兎我野町9-2","洪水":"◎","がけ崩れ、土石流及び地滑り":"","高潮":"","地震":"","津波":"◎","大規模な火事":"","内水氾濫":"","火山現象":"","指定避難所との重複":"","備考":""}},
{"type":"Feature","geometry":{"type":"Point","coordinates":[135.5088153000,34.7072435000]},"properties":{"Name":"黒崎町公園","Jusho":"大阪府大阪市北区黒崎町５","洪水":"","がけ崩れ、土石流及び地滑り":"","高潮":"","地震":"◎","津波":"◎","大規模な火事":"","内水氾濫":"","火山現象":"","指定避難所との重複":"","備考":""}},
{"type":"Feature","geometry":{"type":"Point","coordinates":[135.5006178000,34.7109798000]},"properties":{"Name":"コープ・ジャペン","Jusho":"大阪府大阪市北区豊崎2-8-11","洪水":"◎","がけ崩れ、土石流及び地滑り":"","高潮":"","地震":"","津波":"◎","大規模な火事":"","内水氾濫":"","火山現象":"","指定避難所との重複":"","備考":""}},
{"type":"Feature","geometry":{"type":"Point","coordinates":[135.5075841000,34.7096598000]},"properties":{"Name":"浮田公園","Jusho":"大阪府大阪市北区浮田２-５","洪水":"","がけ崩れ、土石流及び地滑り":"","高潮":"","地震":"◎","津波":"◎","大規模な火事":"","内水氾濫":"","火山現象":"","指定避難所との重複":"","備考":""}},
{"type":"Feature","geometry":{"type":"Point","coordinates":[135.5105917000,34.7061938100]},"properties":{"Name":"第10新興ビル","Jusho":"大阪府大阪市北区浪花町1-23","洪水":"◎","がけ崩れ、土石流及び地滑り":"","高潮":"","地震":"","津波":"◎","大規模な火事":"","内水氾濫":"","火山現象":"","指定避難所との重複":"","備考":""}},
{"type":"Feature","geometry":{"type":"Point","coordinates":[135.4933844000,34.7101492300]},"properties":{"Name":"中津中央公園","Jusho":"大阪府大阪市北区中津３-４","洪水":"","がけ崩れ、土石流及び地滑り":"","高潮":"","地震":"◎","津波":"","大規模な火事":"","内水氾濫":"","火山現象":"","指定避難所との重複":"","備考":""}},
{"type":"Feature","geometry":{"type":"Point","coordinates":[135.4908397000,34.7098332900]},"properties":{"Name":"平成医療学園専門学校 中津第１校舎","Jusho":"大阪府大阪市北区中津6-10-15","洪水":"◎","がけ崩れ、土石流及び地滑り":"","高潮":"","地震":"","津波":"◎","大規模な火事":"","内水氾濫":"","火山現象":"","指定避難所との重複":"","備考":""}},
{"type":"Feature","geometry":{"type":"Point","coordinates":[135.5121047000,34.7004587400]},"properties":{"Name":"堀川児童遊園","Jusho":"大阪府大阪市北区天神橋３-４","洪水":"","がけ崩れ、土石流及び地滑り":"","高潮":"","地震":"◎","津波":"◎","大規模な火事":"","内水氾濫":"","火山現象":"","指定避難所との重複":"","備考":""}},
{"type":"Feature","geometry":{"type":"Point","coordinates":[135.4901281000,34.7099930500]},"properties":{"Name":"平成医療学園専門学校 中津第２校舎","Jusho":"大阪府大阪市北区中津6-9-38","洪水":"◎","がけ崩れ、土石流及び地滑り":"","高潮":"","地震":"","津波":"◎","大規模な火事":"","内水氾濫":"","火山現象":"","指定避難所との重複":"","備考":""}},
{"type":"Feature","geometry":{"type":"Point","coordinates":[135.5080414000,34.7094372200]},"properties":{"Name":"浮田西児童遊園","Jusho":"大阪府大阪市北区浮田２-２","洪水":"","がけ崩れ、土石流及び地滑り":"","高潮":"","地震":"◎","津波":"◎","大規模な火事":"","内水氾濫":"","火山現象":"","指定避難所との重複":"","備考":""}},
{"type":"Feature","geometry":{"type":"Point","coordinates":[135.5116217000,34.7103671600]},"properties":{"Name":"大阪市立住まい情報センター等 建物","Jusho":"大阪府大阪市北区天神橋6-4-20","洪水":"◎","がけ崩れ、土石流及び地滑り":"","高潮":"","地震":"","津波":"◎","大規模な火事":"","内水氾濫":"","火山現象":"","指定避難所との重複":"","備考":""}},
{"type":"Feature","geometry":{"type":"Point","coordinates":[135.5206949000,34.7132050000]},"properties":{"Name":"毛馬桜之宮公園（毛馬公園）","Jusho":"大阪府大阪市北区長柄東２","洪水":"","がけ崩れ、土石流及び地滑り":"","高潮":"","地震":"◎","津波":"◎","大規模な火事":"","内水氾濫":"","火山現象":"","指定避難所との重複":"","備考":""}},
{"type":"Feature","geometry":{"type":"Point","coordinates":[135.4850960000,34.7007063900]},"properties":{"Name":"（宗）本門佛立宗清風寺","Jusho":"大阪府大阪市北区大淀南2-5-5","洪水":"◎","がけ崩れ、土石流及び地滑り":"","高潮":"","地震":"","津波":"◎","大規模な火事":"","内水氾濫":"","火山現象":"","指定避難所との重複":"","備考":""}},
{"type":"Feature","geometry":{"type":"Point","coordinates":[135.5163880000,34.7113293600]},"properties":{"Name":"鶴満寺公園","Jusho":"大阪府大阪市北区長柄東１-３","洪水":"","がけ崩れ、土石流及び地滑り":"","高潮":"","地震":"◎","津波":"◎","大規模な火事":"","内水氾濫":"","火山現象":"","指定避難所との重複":"","備考":""}},
{"type":"Feature","geometry":{"type":"Point","coordinates":[135.4892332068,34.7085468469]},"properties":{"Name":"大阪YMCAインターナショナルスクール （西側校舎、東側校舎、体育館）","Jusho":"大阪府大阪市北区中津6-7-34","洪水":"◎","がけ崩れ、土石流及び地滑り":"","高潮":"","地震":"","津波":"◎","大規模な火事":"","内水氾濫":"","火山現象":"","指定避難所との重複":"◎","備考":""}},
{"type":"Feature","geometry":{"type":"Point","coordinates":[135.5043044000,34.7156836800]},"properties":{"Name":"本庄公園","Jusho":"大阪府大阪市北区本庄西３-11","洪水":"","がけ崩れ、土石流及び地滑り":"","高潮":"","地震":"◎","津波":"","大規模な火事":"","内水氾濫":"","火山現象":"","指定避難所との重複":"","備考":""}},
{"type":"Feature","geometry":{"type":"Point","coordinates":[135.4947888000,34.7088703800]},"properties":{"Name":"平成医療学園専門学校 なにわ歯科衛生専門学校","Jusho":"大阪府大阪市北区大深町2-179","洪水":"◎","がけ崩れ、土石流及び地滑り":"","高潮":"","地震":"","津波":"◎","大規模な火事":"","内水氾濫":"","火山現象":"","指定避難所との重複":"","備考":""}},
{"type":"Feature","geometry":{"type":"Point","coordinates":[135.4886875000,34.7050079600]},"properties":{"Name":"大淀中公園","Jusho":"大阪府大阪市北区大淀中１-９","洪水":"","がけ崩れ、土石流及び地滑り":"","高潮":"","地震":"◎","津波":"","大規模な火事":"","内水氾濫":"","火山現象":"","指定避難所との重複":"","備考":""}},
{"type":"Feature","geometry":{"type":"Point","coordinates":[135.4853586000,34.7007994000]},"properties":{"Name":"特別養護老人ホーム 淳風おおさか","Jusho":"大阪府大阪市北区大淀南2-5-20","洪水":"◎","がけ崩れ、土石流及び地滑り":"","高潮":"","地震":"","津波":"◎","大規模な火事":"","内水氾濫":"","火山現象":"","指定避難所との重複":"◎","備考":""}},
{"type":"Feature","geometry":{"type":"Point","coordinates":[135.4993275000,34.7104603200]},"properties":{"Name":"豊崎南公園","Jusho":"大阪府大阪市北区豊崎３-７","洪水":"","がけ崩れ、土石流及び地滑り":"","高潮":"","地震":"◎","津波":"","大規模な火事":"","内水氾濫":"","火山現象":"","指定避難所との重複":"","備考":""}},
{"type":"Feature","geometry":{"type":"Point","coordinates":[135.5023834000,34.7006552100]},"properties":{"Name":"１２３＋Ｎ大阪本店","Jusho":"大阪府大阪市北区兎我野町16-11","洪水":"◎","がけ崩れ、土石流及び地滑り":"","高潮":"","地震":"","津波":"◎","大規模な火事":"","内水氾濫":"","火山現象":"","指定避難所との重複":"","備考":""}},
{"type":"Feature","geometry":{"type":"Point","coordinates":[135.5137421000,34.7174185000]},"properties":{"Name":"長柄公園","Jusho":"大阪府大阪市北区長柄西２-７","洪水":"","がけ崩れ、土石流及び地滑り":"","高潮":"","地震":"◎","津波":"◎","大規模な火事":"","内水氾濫":"","火山現象":"","指定避難所との重複":"","備考":""}},
{"type":"Feature","geometry":{"type":"Point","coordinates":[135.4919635000,34.6917939200]},"properties":{"Name":"国立国際美術館","Jusho":"大阪府大阪市北区中之島4-2-55","洪水":"◎","がけ崩れ、土石流及び地滑り":"","高潮":"","地震":"","津波":"◎","大規模な火事":"","内水氾濫":"","火山現象":"","指定避難所との重複":"","備考":""}},
{"type":"Feature","geometry":{"type":"Point","coordinates":[135.4879330000,34.7034809300]},"properties":{"Name":"大淀南公園","Jusho":"大阪府大阪市北区大淀南１-８","洪水":"","がけ崩れ、土石流及び地滑り":"","高潮":"","地震":"◎","津波":"","大規模な火事":"","内水氾濫":"","火山現象":"","指定避難所との重複":"","備考":""}},
{"type":"Feature","geometry":{"type":"Point","coordinates":[135.4855120000,34.7084953300]},"properties":{"Name":"市営大淀北住宅1号館","Jusho":"大阪府大阪市北区大淀北１-５-19","洪水":"◎","がけ崩れ、土石流及び地滑り":"","高潮":"","地震":"","津波":"◎","大規模な火事":"","内水氾濫":"","火山現象":"","指定避難所との重複":"","備考":""}},
{"type":"Feature","geometry":{"type":"Point","coordinates":[135.4980230000,34.7136870200]},"properties":{"Name":"中津東公園","Jusho":"大阪府大阪市北区中津２-１","洪水":"","がけ崩れ、土石流及び地滑り":"","高潮":"","地震":"◎","津波":"","大規模な火事":"","内水氾濫":"","火山現象":"","指定避難所との重複":"","備考":""}},
{"type":"Feature","geometry":{"type":"Point","coordinates":[135.4916275000,34.7091073200]},"properties":{"Name":"市営中津第3住宅1号館","Jusho":"大阪府大阪市北区中津６-２-24","洪水":"◎","がけ崩れ、土石流及び地滑り":"","高潮":"","地震":"","津波":"◎","大規模な火事":"","内水氾濫":"","火山現象":"","指定避難所との重複":"","備考":""}},
{"type":"Feature","geometry":{"type":"Point","coordinates":[135.5021649000,34.7164659700]},"properties":{"Name":"豊崎北公園","Jusho":"大阪府大阪市北区豊崎６-13","洪水":"","がけ崩れ、土石流及び地滑り":"","高潮":"","地震":"◎","津波":"","大規模な火事":"","内水氾濫":"","火山現象":"","指定避難所との重複":"","備考":""}},
{"type":"Feature","geometry":{"type":"Point","coordinates":[135.4869995000,34.7099922100]},"properties":{"Name":"阪急観光バス株式会社 （立体駐車場2階部分）","Jusho":"大阪府大阪市北区中津７-７-19","洪水":"◎","がけ崩れ、土石流及び地滑り":"","高潮":"","地震":"","津波":"◎","大規模な火事":"","内水氾濫":"","火山現象":"","指定避難所との重複":"","備考":""}},
{"type":"Feature","geometry":{"type":"Point","coordinates":[135.4866450000,34.7079516700]},"properties":{"Name":"大淀北公園","Jusho":"大阪府大阪市北区大淀北１-４","洪水":"","がけ崩れ、土石流及び地滑り":"","高潮":"","地震":"◎","津波":"","大規模な火事":"","内水氾濫":"","火山現象":"","指定避難所との重複":"","備考":""}},
{"type":"Feature","geometry":{"type":"Point","coordinates":[135.4895257000,34.7032282700]},"properties":{"Name":"ＪＴ大阪ビル","Jusho":"大阪府大阪市北区大淀南１-５-10","洪水":"◎","がけ崩れ、土石流及び地滑り":"","高潮":"","地震":"","津波":"◎","大規模な火事":"","内水氾濫":"","火山現象":"","指定避難所との重複":"","備考":""}},
{"type":"Feature","geometry":{"type":"Point","coordinates":[135.5148366000,34.7102561900]},"properties":{"Name":"国分寺公園","Jusho":"大阪府大阪市北区国分寺１-５","洪水":"","がけ崩れ、土石流及び地滑り":"","高潮":"","地震":"◎","津波":"◎","大規模な火事":"","内水氾濫":"","火山現象":"","指定避難所との重複":"","備考":""}},
{"type":"Feature","geometry":{"type":"Point","coordinates":[135.4926499000,34.7103318100]},"properties":{"Name":"大阪市立北スポーツセンター","Jusho":"大阪府大阪市北区中津３-４-27","洪水":"◎","がけ崩れ、土石流及び地滑り":"","高潮":"","地震":"","津波":"◎","大規模な火事":"","内水氾濫":"","火山現象":"","指定避難所との重複":"","備考":""}},
{"type":"Feature","geometry":{"type":"Point","coordinates":[135.5082529000,34.7133256700]},"properties":{"Name":"本庄川崎公園","Jusho":"大阪府大阪市北区本庄東２-６","洪水":"","がけ崩れ、土石流及び地滑り":"","高潮":"","地震":"◎","津波":"◎","大規模な火事":"","内水氾濫":"","火山現象":"","指定避難所との重複":"","備考":""}},
{"type":"Feature","geometry":{"type":"Point","coordinates":[135.5030118000,34.7064270400]},"properties":{"Name":"ヴェルデミキ","Jusho":"大阪府大阪市北区中崎西２-３-28","洪水":"◎","がけ崩れ、土石流及び地滑り":"","高潮":"","地震":"","津波":"◎","大規模な火事":"","内水氾濫":"","火山現象":"","指定避難所との重複":"","備考":""}},
{"type":"Feature","geometry":{"type":"Point","coordinates":[135.5091158000,34.7166630700]},"properties":{"Name":"本庄小公園","Jusho":"大阪府大阪市北区本庄東３-４","洪水":"","がけ崩れ、土石流及び地滑り":"","高潮":"","地震":"◎","津波":"◎","大規模な火事":"","内水氾濫":"","火山現象":"","指定避難所との重複":"","備考":""}},
{"type":"Feature","geometry":{"type":"Point","coordinates":[135.5274501000,34.6966008900]},"properties":{"Name":"桜宮小学校","Jusho":"大阪府大阪市都島区東野田町1-10-19","洪水":"◎","がけ崩れ、土石流及び地滑り":"","高潮":"","地震":"","津波":"◎","大規模な火事":"","内水氾濫":"","火山現象":"","指定避難所との重複":"◎","備考":""}},
{"type":"Feature","geometry":{"type":"Point","coordinates":[135.4826538000,34.7013862500]},"properties":{"Name":"浦江公園","Jusho":"大阪府大阪市北区大淀南３-３","洪水":"","がけ崩れ、土石流及び地滑り":"","高潮":"","地震":"◎","津波":"","大規模な火事":"","内水氾濫":"","火山現象":"","指定避難所との重複":"","備考":""}},
{"type":"Feature","geometry":{"type":"Point","coordinates":[135.5242351000,34.7028695171]},"properties":{"Name":"中野小学校","Jusho":"大阪府大阪市都島区中野町3-10-5","洪水":"◎","がけ崩れ、土石流及び地滑り":"","高潮":"","地震":"","津波":"◎","大規模な火事":"","内水氾濫":"","火山現象":"","指定避難所との重複":"◎","備考":""}},
{"type":"Feature","geometry":{"type":"Point","coordinates":[135.4987947000,34.7115050400]},"properties":{"Name":"豊崎西公園","Jusho":"大阪府大阪市北区豊崎５-５","洪水":"","がけ崩れ、土石流及び地滑り":"","高潮":"","地震":"◎","津波":"","大規模な火事":"","内水氾濫":"","火山現象":"","指定避難所との重複":"","備考":""}},
{"type":"Feature","geometry":{"type":"Point","coordinates":[135.5331981000,34.7186598800]},"properties":{"Name":"高倉小学校","Jusho":"大阪府大阪市都島区高倉町3-3-10","洪水":"◎","がけ崩れ、土石流及び地滑り":"","高潮":"","地震":"","津波":"◎","大規模な火事":"","内水氾濫":"","火山現象":"","指定避難所との重複":"◎","備考":""}},
{"type":"Feature","geometry":{"type":"Point","coordinates":[135.4914174000,34.7061223900]},"properties":{"Name":"中津南公園","Jusho":"大阪府大阪市北区中津５-３","洪水":"","がけ崩れ、土石流及び地滑り":"","高潮":"","地震":"◎","津波":"","大規模な火事":"","内水氾濫":"","火山現象":"","指定避難所との重複":"","備考":""}},
{"type":"Feature","geometry":{"type":"Point","coordinates":[135.5210341000,34.7221386100]},"properties":{"Name":"淀川小学校","Jusho":"大阪府大阪市都島区毛馬町3-5-39","洪水":"◎","がけ崩れ、土石流及び地滑り":"","高潮":"","地震":"","津波":"◎","大規模な火事":"","内水氾濫":"","火山現象":"","指定避難所との重複":"◎","備考":""}},
{"type":"Feature","geometry":{"type":"Point","coordinates":[135.4996258000,34.7139036700]},"properties":{"Name":"豊崎中公園","Jusho":"大阪府大阪市北区豊崎７-１","洪水":"","がけ崩れ、土石流及び地滑り":"","高潮":"","地震":"◎","津波":"","大規模な火事":"","内水氾濫":"","火山現象":"","指定避難所との重複":"","備考":""}},
{"type":"Feature","geometry":{"type":"Point","coordinates":[135.5275700000,34.7071553500]},"properties":{"Name":"都島小学校","Jusho":"大阪府大阪市都島区都島本通3-10-3","洪水":"◎","がけ崩れ、土石流及び地滑り":"","高潮":"","地震":"","津波":"◎","大規模な火事":"","内水氾濫":"","火山現象":"","指定避難所との重複":"◎","備考":""}},
{"type":"Feature","geometry":{"type":"Point","coordinates":[135.5017347000,34.7125679700]},"properties":{"Name":"豊崎東公園","Jusho":"大阪府大阪市北区豊崎４-７","洪水":"","がけ崩れ、土石流及び地滑り":"","高潮":"","地震":"◎","津波":"","大規模な火事":"","内水氾濫":"","火山現象":"","指定避難所との重複":"","備考":""}},
{"type":"Feature","geometry":{"type":"Point","coordinates":[135.5369093000,34.7132806300]},"properties":{"Name":"内代小学校","Jusho":"大阪府大阪市都島区内代町3-4-6","洪水":"◎","がけ崩れ、土石流及び地滑り":"","高潮":"","地震":"","津波":"◎","大規模な火事":"","内水氾濫":"","火山現象":"","指定避難所との重複":"◎","備考":""}},
{"type":"Feature","geometry":{"type":"Point","coordinates":[135.4963596000,34.7149109900]},"properties":{"Name":"中津公園","Jusho":"大阪府大阪市北区中津２-８","洪水":"","がけ崩れ、土石流及び地滑り":"","高潮":"","地震":"◎","津波":"","大規模な火事":"","内水氾濫":"","火山現象":"","指定避難所との重複":"","備考":""}},
{"type":"Feature","geometry":{"type":"Point","coordinates":[135.5337788000,34.7082904400]},"properties":{"Name":"東都島小学校","Jusho":"大阪府大阪市都島区都島本通4-24-20","洪水":"◎","がけ崩れ、土石流及び地滑り":"","高潮":"","地震":"","津波":"◎","大規模な火事":"","内水氾濫":"","火山現象":"","指定避難所との重複":"◎","備考":""}},
{"type":"Feature","geometry":{"type":"Point","coordinates":[135.4785602000,34.7047602400]},"properties":{"Name":"大淀西公園","Jusho":"大阪府大阪市北区大淀北２-１","洪水":"","がけ崩れ、土石流及び地滑り":"","高潮":"","地震":"◎","津波":"","大規模な火事":"","内水氾濫":"","火山現象":"","指定避難所との重複":"","備考":""}},
{"type":"Feature","geometry":{"type":"Point","coordinates":[135.5252992000,34.7231540800]},"properties":{"Name":"大東小学校","Jusho":"大阪府大阪市都島区毛馬町2-11-111","洪水":"◎","がけ崩れ、土石流及び地滑り":"","高潮":"","地震":"","津波":"◎","大規模な火事":"","内水氾濫":"","火山現象":"","指定避難所との重複":"◎","備考":""}},
{"type":"Feature","geometry":{"type":"Point","coordinates":[135.5065439000,34.7118371900]},"properties":{"Name":"本庄南公園","Jusho":"大阪府大阪市北区本庄西１-４","洪水":"","がけ崩れ、土石流及び地滑り":"","高潮":"","地震":"◎","津波":"","大規模な火事":"","内水氾濫":"","火山現象":"","指定避難所との重複":"","備考":""}},
{"type":"Feature","geometry":{"type":"Point","coordinates":[135.5268638000,34.7193964200]},"properties":{"Name":"友渕小学校","Jusho":"大阪府大阪市都島区友渕町1-3-123","洪水":"◎","がけ崩れ、土石流及び地滑り":"","高潮":"","地震":"","津波":"◎","大規模な火事":"","内水氾濫":"","火山現象":"","指定避難所との重複":"◎","備考":""}},
{"type":"Feature","geometry":{"type":"Point","coordinates":[135.5190762000,34.7120902500]},"properties":{"Name":"長柄東公園","Jusho":"大阪府大阪市北区長柄東１","洪水":"","がけ崩れ、土石流及び地滑り":"","高潮":"","地震":"◎","津波":"◎","大規模な火事":"","内水氾濫":"","火山現象":"","指定避難所との重複":"","備考":""}},
{"type":"Feature","geometry":{"type":"Point","coordinates":[135.5141828000,34.7146758100]},"properties":{"Name":"長柄西公園","Jusho":"大阪府大阪市北区長柄西1-7","洪水":"","がけ崩れ、土石流及び地滑り":"","高潮":"","地震":"◎","津波":"◎","大規模な火事":"","内水氾濫":"","火山現象":"","指定避難所との重複":"","備考":""}},
{"type":"Feature","geometry":{"type":"Point","coordinates":[135.5326160000,34.7126485200]},"properties":{"Name":"高倉中学校","Jusho":"大阪府大阪市都島区御幸町1-1-10","洪水":"◎","がけ崩れ、土石流及び地滑り":"","高潮":"","地震":"","津波":"◎","大規模な火事":"","内水氾濫":"","火山現象":"","指定避難所との重複":"◎","備考":""}},
{"type":"Feature","geometry":{"type":"Point","coordinates":[135.4811624000,34.7028601900]},"properties":{"Name":"大淀中５公園","Jusho":"大阪府大阪市北区大淀中5-8","洪水":"","がけ崩れ、土石流及び地滑り":"","高潮":"","地震":"◎","津波":"","大規模な火事":"","内水氾濫":"","火山現象":"","指定避難所との重複":"","備考":""}},
{"type":"Feature","geometry":{"type":"Point","coordinates":[135.5366841000,34.7016707600]},"properties":{"Name":"桜宮中学校","Jusho":"大阪府大阪市都島区東野田町5-16-10","洪水":"◎","がけ崩れ、土石流及び地滑り":"","高潮":"","地震":"","津波":"◎","大規模な火事":"","内水氾濫":"","火山現象":"","指定避難所との重複":"◎","備考":""}},
{"type":"Feature","geometry":{"type":"Point","coordinates":[135.4908060000,34.6973788200]},"properties":{"Name":"西梅田公園","Jusho":"大阪府大阪市北区梅田２","洪水":"","がけ崩れ、土石流及び地滑り":"","高潮":"","地震":"◎","津波":"","大規模な火事":"","内水氾濫":"","火山現象":"","指定避難所との重複":"","備考":""}},
{"type":"Feature","geometry":{"type":"Point","coordinates":[135.5255613356,34.7027737479]},"properties":{"Name":"都島中学校","Jusho":"大阪府大阪市都島区中野町3-9-33","洪水":"◎","がけ崩れ、土石流及び地滑り":"","高潮":"","地震":"","津波":"◎","大規模な火事":"","内水氾濫":"","火山現象":"","指定避難所との重複":"◎","備考":""}},
{"type":"Feature","geometry":{"type":"Point","coordinates":[135.5079257000,34.6959165900]},"properties":{"Name":"西天満どんぐり公園","Jusho":"大阪府大阪市北区西天満３","洪水":"","がけ崩れ、土石流及び地滑り":"","高潮":"","地震":"◎","津波":"◎","大規模な火事":"","内水氾濫":"","火山現象":"","指定避難所との重複":"","備考":""}},
{"type":"Feature","geometry":{"type":"Point","coordinates":[135.5192734000,34.7221916900]},"properties":{"Name":"淀川中学校","Jusho":"大阪府大阪市都島区毛馬町3-5-12","洪水":"◎","がけ崩れ、土石流及び地滑り":"","高潮":"","地震":"","津波":"◎","大規模な火事":"","内水氾濫":"","火山現象":"","指定避難所との重複":"◎","備考":""}},
{"type":"Feature","geometry":{"type":"Point","coordinates":[135.5274731356,34.6962069974]},"properties":{"Name":"桜宮小学校（運動場）","Jusho":"大阪府大阪市都島区東野田町１-10-19","洪水":"","がけ崩れ、土石流及び地滑り":"","高潮":"","地震":"◎","津波":"◎","大規模な火事":"","内水氾濫":"","火山現象":"","指定避難所との重複":"◎","備考":""}},
{"type":"Feature","geometry":{"type":"Point","coordinates":[135.5263445000,34.7160737700]},"properties":{"Name":"友渕中学校","Jusho":"大阪府大阪市都島区友渕町1-5-151","洪水":"◎","がけ崩れ、土石流及び地滑り":"","高潮":"","地震":"","津波":"◎","大規模な火事":"","内水氾濫":"","火山現象":"","指定避難所との重複":"◎","備考":""}},
{"type":"Feature","geometry":{"type":"Point","coordinates":[135.5246253000,34.7029351193]},"properties":{"Name":"中野小学校（運動場）","Jusho":"大阪府大阪市都島区中野町３-10-５","洪水":"","がけ崩れ、土石流及び地滑り":"","高潮":"","地震":"◎","津波":"","大規模な火事":"","内水氾濫":"","火山現象":"","指定避難所との重複":"◎","備考":""}},
{"type":"Feature","geometry":{"type":"Point","coordinates":[135.5236879000,34.7270000200]},"properties":{"Name":"桜宮高等学校","Jusho":"大阪府大阪市都島区毛馬町5-22-28","洪水":"◎","がけ崩れ、土石流及び地滑り":"","高潮":"","地震":"","津波":"◎","大規模な火事":"","内水氾濫":"","火山現象":"","指定避難所との重複":"◎","備考":""}},
{"type":"Feature","geometry":{"type":"Point","coordinates":[135.5280117000,34.7070024800]},"properties":{"Name":"都島小学校（運動場）","Jusho":"大阪府大阪市都島区都島本通３-10-３","洪水":"","がけ崩れ、土石流及び地滑り":"","高潮":"","地震":"◎","津波":"","大規模な火事":"","内水氾濫":"","火山現象":"","指定避難所との重複":"◎","備考":""}},
{"type":"Feature","geometry":{"type":"Point","coordinates":[135.5286258000,34.6994530700]},"properties":{"Name":"東高等学校","Jusho":"大阪府大阪市都島区東野田町4-15-14","洪水":"◎","がけ崩れ、土石流及び地滑り":"","高潮":"","地震":"","津波":"◎","大規模な火事":"","内水氾濫":"","火山現象":"","指定避難所との重複":"◎","備考":""}},
{"type":"Feature","geometry":{"type":"Point","coordinates":[135.5336433000,34.7080782200]},"properties":{"Name":"東都島小学校（運動場）","Jusho":"大阪府大阪市都島区都島本通４-24-20","洪水":"","がけ崩れ、土石流及び地滑り":"","高潮":"","地震":"◎","津波":"","大規模な火事":"","内水氾濫":"","火山現象":"","指定避難所との重複":"◎","備考":""}},
{"type":"Feature","geometry":{"type":"Point","coordinates":[135.5256417000,34.7107093400]},"properties":{"Name":"都島工業高等学校","Jusho":"大阪府大阪市都島区善源寺町1-5-64","洪水":"◎","がけ崩れ、土石流及び地滑り":"","高潮":"","地震":"","津波":"◎","大規模な火事":"","内水氾濫":"","火山現象":"","指定避難所との重複":"◎","備考":""}},
{"type":"Feature","geometry":{"type":"Point","coordinates":[135.5372597000,34.7131233500]},"properties":{"Name":"内代小学校（運動場）","Jusho":"大阪府大阪市都島区内代町３-４-６","洪水":"","がけ崩れ、土石流及び地滑り":"","高潮":"","地震":"◎","津波":"◎","大規模な火事":"","内水氾濫":"","火山現象":"","指定避難所との重複":"◎","備考":""}},
{"type":"Feature","geometry":{"type":"Point","coordinates":[135.5220847000,34.7246509300]},"properties":{"Name":"市営毛馬住宅6号館","Jusho":"大阪府大阪市都島区毛馬町4-6","洪水":"◎","がけ崩れ、土石流及び地滑り":"","高潮":"","地震":"","津波":"◎","大規模な火事":"","内水氾濫":"","火山現象":"","指定避難所との重複":"","備考":""}},
{"type":"Feature","geometry":{"type":"Point","coordinates":[135.5336183000,34.7181366400]},"properties":{"Name":"高倉小学校（運動場）","Jusho":"大阪府大阪市都島区高倉町３-３-10","洪水":"","がけ崩れ、土石流及び地滑り":"","高潮":"","地震":"◎","津波":"","大規模な火事":"","内水氾濫":"","火山現象":"","指定避難所との重複":"◎","備考":""}},
{"type":"Feature","geometry":{"type":"Point","coordinates":[135.5198249000,34.7197656800]},"properties":{"Name":"市営毛馬南住宅1号館","Jusho":"大阪府大阪市都島区毛馬町1-21","洪水":"◎","がけ崩れ、土石流及び地滑り":"","高潮":"","地震":"","津波":"◎","大規模な火事":"","内水氾濫":"","火山現象":"","指定避難所との重複":"","備考":""}},
{"type":"Feature","geometry":{"type":"Point","coordinates":[135.5259215000,34.7194155300]},"properties":{"Name":"友渕小学校（運動場）","Jusho":"大阪府大阪市都島区友渕町１-３-123","洪水":"","がけ崩れ、土石流及び地滑り":"","高潮":"","地震":"◎","津波":"◎","大規模な火事":"","内水氾濫":"","火山現象":"","指定避難所との重複":"◎","備考":""}},
{"type":"Feature","geometry":{"type":"Point","coordinates":[135.5316498000,34.7030499800]},"properties":{"Name":"市営都島中通住宅1号館","Jusho":"大阪府大阪市都島区都島中通2-1","洪水":"◎","がけ崩れ、土石流及び地滑り":"","高潮":"","地震":"","津波":"◎","大規模な火事":"","内水氾濫":"","火山現象":"","指定避難所との重複":"","備考":""}},
{"type":"Feature","geometry":{"type":"Point","coordinates":[135.5209286000,34.7217388500]},"properties":{"Name":"淀川小学校（運動場）","Jusho":"大阪府大阪市都島区毛馬町３-５-39","洪水":"","がけ崩れ、土石流及び地滑り":"","高潮":"","地震":"◎","津波":"◎","大規模な火事":"","内水氾濫":"","火山現象":"","指定避難所との重複":"◎","備考":""}},
{"type":"Feature","geometry":{"type":"Point","coordinates":[135.5316502000,34.7034331100]},"properties":{"Name":"市営都島中通住宅2号館","Jusho":"大阪府大阪市都島区都島中通2-9","洪水":"◎","がけ崩れ、土石流及び地滑り":"","高潮":"","地震":"","津波":"◎","大規模な火事":"","内水氾濫":"","火山現象":"","指定避難所との重複":"","備考":""}},
{"type":"Feature","geometry":{"type":"Point","coordinates":[135.5249577000,34.7230541400]},"properties":{"Name":"大東小学校（運動場）","Jusho":"大阪府大阪市都島区毛馬町２-11-111","洪水":"","がけ崩れ、土石流及び地滑り":"","高潮":"","地震":"◎","津波":"◎","大規模な火事":"","内水氾濫":"","火山現象":"","指定避難所との重複":"◎","備考":""}},
{"type":"Feature","geometry":{"type":"Point","coordinates":[135.5320045000,34.7196589400]},"properties":{"Name":"三和電装エンジニアリング㈱","Jusho":"大阪府大阪市都島区高倉町3-10-27","洪水":"◎","がけ崩れ、土石流及び地滑り":"","高潮":"","地震":"","津波":"◎","大規模な火事":"","内水氾濫":"","火山現象":"","指定避難所との重複":"","備考":""}},
{"type":"Feature","geometry":{"type":"Point","coordinates":[135.5363499000,34.7013726100]},"properties":{"Name":"桜宮中学校（運動場）","Jusho":"大阪府大阪市都島区東野田町５-16-10","洪水":"","がけ崩れ、土石流及び地滑り":"","高潮":"","地震":"◎","津波":"","大規模な火事":"","内水氾濫":"","火山現象":"","指定避難所との重複":"◎","備考":""}},
{"type":"Feature","geometry":{"type":"Point","coordinates":[135.5325567000,34.7073979100]},"properties":{"Name":"都島屋内プール","Jusho":"大阪府大阪市都島区都島本通4-12-7","洪水":"◎","がけ崩れ、土石流及び地滑り":"","高潮":"","地震":"","津波":"◎","大規模な火事":"","内水氾濫":"","火山現象":"","指定避難所との重複":"","備考":""}},
{"type":"Feature","geometry":{"type":"Point","coordinates":[135.5259401000,34.7028497991]},"properties":{"Name":"都島中学校（運動場）","Jusho":"大阪府大阪市都島区中野町３-９-33","洪水":"","がけ崩れ、土石流及び地滑り":"","高潮":"","地震":"◎","津波":"","大規模な火事":"","内水氾濫":"","火山現象":"","指定避難所との重複":"◎","備考":""}},
{"type":"Feature","geometry":{"type":"Point","coordinates":[135.5253659000,34.6960913500]},"properties":{"Name":"太閤園","Jusho":"大阪府大阪市都島区網島町9-10","洪水":"◎","がけ崩れ、土石流及び地滑り":"","高潮":"","地震":"","津波":"◎","大規模な火事":"","内水氾濫":"","火山現象":"","指定避難所との重複":"","備考":""}},
{"type":"Feature","geometry":{"type":"Point","coordinates":[135.5330791000,34.7126940900]},"properties":{"Name":"高倉中学校（運動場）","Jusho":"大阪府大阪市都島区御幸町１-１-10","洪水":"","がけ崩れ、土石流及び地滑り":"","高潮":"","地震":"◎","津波":"","大規模な火事":"","内水氾濫":"","火山現象":"","指定避難所との重複":"◎","備考":""}},
{"type":"Feature","geometry":{"type":"Point","coordinates":[135.5269767000,34.7109376100]},"properties":{"Name":"㈱ミルボン本社","Jusho":"大阪府大阪市都島区善源寺町2-3-35","洪水":"◎","がけ崩れ、土石流及び地滑り":"","高潮":"","地震":"","津波":"◎","大規模な火事":"","内水氾濫":"","火山現象":"","指定避難所との重複":"","備考":""}},
{"type":"Feature","geometry":{"type":"Point","coordinates":[135.5259547000,34.7166440600]},"properties":{"Name":"友渕中学校（運動場）","Jusho":"大阪府大阪市都島区友渕町１-５-151","洪水":"","がけ崩れ、土石流及び地滑り":"","高潮":"","地震":"◎","津波":"◎","大規模な火事":"","内水氾濫":"","火山現象":"","指定避難所との重複":"◎","備考":""}},
{"type":"Feature","geometry":{"type":"Point","coordinates":[135.5315327000,34.7042078100]},"properties":{"Name":"グランシエール都島","Jusho":"大阪府大阪市都島区都島中通２-10-26","洪水":"◎","がけ崩れ、土石流及び地滑り":"","高潮":"","地震":"","津波":"◎","大規模な火事":"","内水氾濫":"","火山現象":"","指定避難所との重複":"","備考":""}},
{"type":"Feature","geometry":{"type":"Point","coordinates":[135.5199136000,34.7220256100]},"properties":{"Name":"淀川中学校（運動場）","Jusho":"大阪府大阪市都島区毛馬町３-５-12","洪水":"","がけ崩れ、土石流及び地滑り":"","高潮":"","地震":"◎","津波":"◎","大規模な火事":"","内水氾濫":"","火山現象":"","指定避難所との重複":"◎","備考":""}},
{"type":"Feature","geometry":{"type":"Point","coordinates":[135.5315380000,34.7041416600]},"properties":{"Name":"ブリランテ都島","Jusho":"大阪府大阪市都島区都島中通２-10-25","洪水":"◎","がけ崩れ、土石流及び地滑り":"","高潮":"","地震":"","津波":"◎","大規模な火事":"","内水氾濫":"","火山現象":"","指定避難所との重複":"","備考":""}},
{"type":"Feature","geometry":{"type":"Point","coordinates":[135.5255469000,34.7102257300]},"properties":{"Name":"都島工業高等学校（運動場）","Jusho":"大阪府大阪市都島区善源寺町１-５-64","洪水":"","がけ崩れ、土石流及び地滑り":"","高潮":"","地震":"◎","津波":"◎","大規模な火事":"","内水氾濫":"","火山現象":"","指定避難所との重複":"◎","備考":""}},
{"type":"Feature","geometry":{"type":"Point","coordinates":[135.5315327000,34.7040622800]},"properties":{"Name":"クレールソフィア都島","Jusho":"大阪府大阪市都島区都島中通２-10-24","洪水":"◎","がけ崩れ、土石流及び地滑り":"","高潮":"","地震":"","津波":"◎","大規模な火事":"","内水氾濫":"","火山現象":"","指定避難所との重複":"","備考":""}},
{"type":"Feature","geometry":{"type":"Point","coordinates":[135.5246499000,34.7277554100]},"properties":{"Name":"桜宮高等学校（運動場）","Jusho":"大阪府大阪市都島区毛馬町５-22-28","洪水":"","がけ崩れ、土石流及び地滑り":"","高潮":"","地震":"◎","津波":"◎","大規模な火事":"","内水氾濫":"","火山現象":"","指定避難所との重複":"◎","備考":""}},
{"type":"Feature","geometry":{"type":"Point","coordinates":[135.5344612000,34.7139012000]},"properties":{"Name":"市営御幸住宅1号館","Jusho":"大阪府大阪市都島区御幸町１-７","洪水":"◎","がけ崩れ、土石流及び地滑り":"","高潮":"","地震":"","津波":"◎","大規模な火事":"","内水氾濫":"","火山現象":"","指定避難所との重複":"","備考":""}},
{"type":"Feature","geometry":{"type":"Point","coordinates":[135.5284344000,34.6989649900]},"properties":{"Name":"東高等学校（運動場）","Jusho":"大阪府大阪市都島区東野田町４-15-14","洪水":"","がけ崩れ、土石流及び地滑り":"","高潮":"","地震":"◎","津波":"◎","大規模な火事":"","内水氾濫":"","火山現象":"","指定避難所との重複":"◎","備考":""}},
{"type":"Feature","geometry":{"type":"Point","coordinates":[135.5344666000,34.7142848300]},"properties":{"Name":"市営御幸住宅2号館","Jusho":"大阪府大阪市都島区御幸町１-10","洪水":"◎","がけ崩れ、土石流及び地滑り":"","高潮":"","地震":"","津波":"◎","大規模な火事":"","内水氾濫":"","火山現象":"","指定避難所との重複":"","備考":""}},
{"type":"Feature","geometry":{"type":"Point","coordinates":[135.5219961000,34.7159248100]},"properties":{"Name":"毛馬桜之宮公園","Jusho":"大阪府大阪市都島区網島町、友渕町１","洪水":"","がけ崩れ、土石流及び地滑り":"","高潮":"","地震":"◎","津波":"◎","大規模な火事":"","内水氾濫":"","火山現象":"","指定避難所との重複":"","備考":""}},
{"type":"Feature","geometry":{"type":"Point","coordinates":[135.5335703000,34.7158184500]},"properties":{"Name":"市営御幸住宅3号館","Jusho":"大阪府大阪市都島区御幸町２-５","洪水":"◎","がけ崩れ、土石流及び地滑り":"","高潮":"","地震":"","津波":"◎","大規模な火事":"","内水氾濫":"","火山現象":"","指定避難所との重複":"","備考":""}},
{"type":"Feature","geometry":{"type":"Point","coordinates":[135.5280579000,34.6954358500]},"properties":{"Name":"東野田公園","Jusho":"大阪府大阪市都島区東野田町１-４","洪水":"","がけ崩れ、土石流及び地滑り":"","高潮":"","地震":"◎","津波":"◎","大規模な火事":"","内水氾濫":"","火山現象":"","指定避難所との重複":"","備考":""}},
{"type":"Feature","geometry":{"type":"Point","coordinates":[135.5362125000,34.7118963300]},"properties":{"Name":"市営内代第2住宅1号館","Jusho":"大阪府大阪市都島区内代町２-15-30","洪水":"◎","がけ崩れ、土石流及び地滑り":"","高潮":"","地震":"","津波":"◎","大規模な火事":"","内水氾濫":"","火山現象":"","指定避難所との重複":"","備考":""}},
{"type":"Feature","geometry":{"type":"Point","coordinates":[135.5352351068,34.7005784338]},"properties":{"Name":"桜之宮東公園","Jusho":"大阪府大阪市都島区東野田町５-10","洪水":"","がけ崩れ、土石流及び地滑り":"","高潮":"","地震":"◎","津波":"","大規模な火事":"","内水氾濫":"","火山現象":"","指定避難所との重複":"","備考":""}},
{"type":"Feature","geometry":{"type":"Point","coordinates":[135.4852806000,34.6972199800]},"properties":{"Name":"上福島小学校","Jusho":"大阪府大阪市福島区福島7-4-33","洪水":"◎","がけ崩れ、土石流及び地滑り":"","高潮":"","地震":"","津波":"◎","大規模な火事":"","内水氾濫":"","火山現象":"","指定避難所との重複":"◎","備考":""}},
{"type":"Feature","geometry":{"type":"Point","coordinates":[135.5216127000,34.7058725000]},"properties":{"Name":"中野公園","Jusho":"大阪府大阪市都島区中野町５-７","洪水":"","がけ崩れ、土石流及び地滑り":"","高潮":"","地震":"◎","津波":"◎","大規模な火事":"","内水氾濫":"","火山現象":"","指定避難所との重複":"","備考":""}},
{"type":"Feature","geometry":{"type":"Point","coordinates":[135.4832904000,34.6936444700]},"properties":{"Name":"福島小学校","Jusho":"大阪府大阪市福島区福島4-5-6","洪水":"◎","がけ崩れ、土石流及び地滑り":"","高潮":"","地震":"","津波":"◎","大規模な火事":"","内水氾濫":"","火山現象":"","指定避難所との重複":"◎","備考":""}},
{"type":"Feature","geometry":{"type":"Point","coordinates":[135.5243074000,34.7022086900]},"properties":{"Name":"中野南公園","Jusho":"大阪府大阪市都島区中野町３-１","洪水":"","がけ崩れ、土石流及び地滑り":"","高潮":"","地震":"◎","津波":"","大規模な火事":"","内水氾濫":"","火山現象":"","指定避難所との重複":"","備考":""}},
{"type":"Feature","geometry":{"type":"Point","coordinates":[135.4812567000,34.6917848700]},"properties":{"Name":"玉川小学校","Jusho":"大阪府大阪市福島区玉川2-13-16","洪水":"◎","がけ崩れ、土石流及び地滑り":"","高潮":"","地震":"","津波":"◎","大規模な火事":"","内水氾濫":"","火山現象":"","指定避難所との重複":"◎","備考":""}},
{"type":"Feature","geometry":{"type":"Point","coordinates":[135.5315973000,34.7053879000]},"properties":{"Name":"都島公園","Jusho":"大阪府大阪市都島区都島中通１、２","洪水":"","がけ崩れ、土石流及び地滑り":"","高潮":"","地震":"◎","津波":"","大規模な火事":"","内水氾濫":"","火山現象":"","指定避難所との重複":"","備考":""}},
{"type":"Feature","geometry":{"type":"Point","coordinates":[135.4823163000,34.6882123000]},"properties":{"Name":"下福島中学校","Jusho":"大阪府大阪市福島区玉川1-4-11","洪水":"◎","がけ崩れ、土石流及び地滑り":"","高潮":"","地震":"","津波":"◎","大規模な火事":"","内水氾濫":"","火山現象":"","指定避難所との重複":"◎","備考":""}},
{"type":"Feature","geometry":{"type":"Point","coordinates":[135.5221105000,34.7103988700]},"properties":{"Name":"かすがえ公園","Jusho":"大阪府大阪市都島区都島本通１-19、20","洪水":"","がけ崩れ、土石流及び地滑り":"","高潮":"","地震":"◎","津波":"◎","大規模な火事":"","内水氾濫":"","火山現象":"","指定避難所との重複":"","備考":""}},
{"type":"Feature","geometry":{"type":"Point","coordinates":[135.4734068000,34.6860083300]},"properties":{"Name":"野田小学校","Jusho":"大阪府大阪市福島区野田5-13-22","洪水":"◎","がけ崩れ、土石流及び地滑り":"","高潮":"","地震":"","津波":"◎","大規模な火事":"","内水氾濫":"","火山現象":"","指定避難所との重複":"◎","備考":""}},
{"type":"Feature","geometry":{"type":"Point","coordinates":[135.5283622000,34.7083509200]},"properties":{"Name":"敷島公園","Jusho":"大阪府大阪市都島区都島本通３-25","洪水":"","がけ崩れ、土石流及び地滑り":"","高潮":"","地震":"◎","津波":"","大規模な火事":"","内水氾濫":"","火山現象":"","指定避難所との重複":"","備考":""}},
{"type":"Feature","geometry":{"type":"Point","coordinates":[135.4727408000,34.6902187700]},"properties":{"Name":"吉野小学校","Jusho":"大阪府大阪市福島区吉野3-10-5","洪水":"◎","がけ崩れ、土石流及び地滑り":"","高潮":"","地震":"","津波":"◎","大規模な火事":"","内水氾濫":"","火山現象":"","指定避難所との重複":"◎","備考":""}},
{"type":"Feature","geometry":{"type":"Point","coordinates":[135.5322338000,34.7063768900]},"properties":{"Name":"東都島公園","Jusho":"大阪府大阪市都島区都島本通４-６","洪水":"","がけ崩れ、土石流及び地滑り":"","高潮":"","地震":"◎","津波":"","大規模な火事":"","内水氾濫":"","火山現象":"","指定避難所との重複":"","備考":""}},
{"type":"Feature","geometry":{"type":"Point","coordinates":[135.4691179000,34.6866601800]},"properties":{"Name":"野田中学校","Jusho":"大阪府大阪市福島区吉野5-9-4","洪水":"◎","がけ崩れ、土石流及び地滑り":"","高潮":"","地震":"","津波":"◎","大規模な火事":"","内水氾濫":"","火山現象":"","指定避難所との重複":"◎","備考":""}},
{"type":"Feature","geometry":{"type":"Point","coordinates":[135.5276939000,34.7108233500]},"properties":{"Name":"都島北一公園","Jusho":"大阪府大阪市都島区都島北通１-13","洪水":"","がけ崩れ、土石流及び地滑り":"","高潮":"","地震":"◎","津波":"◎","大規模な火事":"","内水氾濫":"","火山現象":"","指定避難所との重複":"","備考":""}},
{"type":"Feature","geometry":{"type":"Point","coordinates":[135.4709063000,34.6921745800]},"properties":{"Name":"大開小学校","Jusho":"大阪府大阪市福島区大開2-10-28","洪水":"◎","がけ崩れ、土石流及び地滑り":"","高潮":"","地震":"","津波":"◎","大規模な火事":"","内水氾濫":"","火山現象":"","指定避難所との重複":"◎","備考":""}},
{"type":"Feature","geometry":{"type":"Point","coordinates":[135.5335943000,34.7094623500]},"properties":{"Name":"都島北通公園","Jusho":"大阪府大阪市都島区都島北通２-４","洪水":"","がけ崩れ、土石流及び地滑り":"","高潮":"","地震":"◎","津波":"","大規模な火事":"","内水氾濫":"","火山現象":"","指定避難所との重複":"","備考":""}},
{"type":"Feature","geometry":{"type":"Point","coordinates":[135.4791387000,34.6988011000]},"properties":{"Name":"鷺洲小学校","Jusho":"大阪府大阪市福島区鷺洲5-6-8","洪水":"◎","がけ崩れ、土石流及び地滑り":"","高潮":"","地震":"","津波":"◎","大規模な火事":"","内水氾濫":"","火山現象":"","指定避難所との重複":"◎","備考":""}},
{"type":"Feature","geometry":{"type":"Point","coordinates":[135.5240365000,34.7105494800]},"properties":{"Name":"善源寺公園","Jusho":"大阪府大阪市都島区善源寺町１-４","洪水":"","がけ崩れ、土石流及び地滑り":"","高潮":"","地震":"◎","津波":"◎","大規模な火事":"","内水氾濫":"","火山現象":"","指定避難所との重複":"","備考":""}},
{"type":"Feature","geometry":{"type":"Point","coordinates":[135.4777571000,34.7009395000]},"properties":{"Name":"八阪中学校","Jusho":"大阪府大阪市福島区鷺洲6-1-13","洪水":"◎","がけ崩れ、土石流及び地滑り":"","高潮":"","地震":"","津波":"◎","大規模な火事":"","内水氾濫":"","火山現象":"","指定避難所との重複":"◎","備考":""}},
{"type":"Feature","geometry":{"type":"Point","coordinates":[135.5235736000,34.7119566200]},"properties":{"Name":"善源寺楠公園","Jusho":"大阪府大阪市都島区善源寺町１-11","洪水":"","がけ崩れ、土石流及び地滑り":"","高潮":"","地震":"◎","津波":"◎","大規模な火事":"","内水氾濫":"","火山現象":"","指定避難所との重複":"","備考":""}},
{"type":"Feature","geometry":{"type":"Point","coordinates":[135.4752533000,34.6991729800]},"properties":{"Name":"海老江東小学校","Jusho":"大阪府大阪市福島区海老江1-6-19","洪水":"◎","がけ崩れ、土石流及び地滑り":"","高潮":"","地震":"","津波":"◎","大規模な火事":"","内水氾濫":"","火山現象":"","指定避難所との重複":"◎","備考":""}},
{"type":"Feature","geometry":{"type":"Point","coordinates":[135.5248283000,34.7193119300]},"properties":{"Name":"友渕中央公園","Jusho":"大阪府大阪市都島区友渕町１-３","洪水":"","がけ崩れ、土石流及び地滑り":"","高潮":"","地震":"◎","津波":"◎","大規模な火事":"","内水氾濫":"","火山現象":"","指定避難所との重複":"","備考":""}},
{"type":"Feature","geometry":{"type":"Point","coordinates":[135.4698463000,34.6974823400]},"properties":{"Name":"海老江西小学校","Jusho":"大阪府大阪市福島区海老江8-1-10","洪水":"◎","がけ崩れ、土石流及び地滑り":"","高潮":"","地震":"","津波":"◎","大規模な火事":"","内水氾濫":"","火山現象":"","指定避難所との重複":"◎","備考":""}},
{"type":"Feature","geometry":{"type":"Point","coordinates":[135.5295351000,34.7212611800]},"properties":{"Name":"友渕公園","Jusho":"大阪府大阪市都島区友渕町３-９","洪水":"","がけ崩れ、土石流及び地滑り":"","高潮":"","地震":"◎","津波":"","大規模な火事":"","内水氾濫":"","火山現象":"","指定避難所との重複":"","備考":""}},
{"type":"Feature","geometry":{"type":"Point","coordinates":[135.4776483000,34.6844258400]},"properties":{"Name":"大阪市中央卸売市場本場","Jusho":"大阪府大阪市福島区野田1-1-86","洪水":"◎","がけ崩れ、土石流及び地滑り":"","高潮":"","地震":"","津波":"◎","大規模な火事":"","内水氾濫":"","火山現象":"","指定避難所との重複":"","備考":""}},
{"type":"Feature","geometry":{"type":"Point","coordinates":[135.5339155000,34.7139604600]},"properties":{"Name":"御幸南児童遊園","Jusho":"大阪府大阪市都島区御幸町１-７","洪水":"","がけ崩れ、土石流及び地滑り":"","高潮":"","地震":"◎","津波":"","大規模な火事":"","内水氾濫":"","火山現象":"","指定避難所との重複":"","備考":""}},
{"type":"Feature","geometry":{"type":"Point","coordinates":[135.4731100000,34.6915671900]},"properties":{"Name":"福島区民センター","Jusho":"大阪府大阪市福島区吉野3-17-23","洪水":"◎","がけ崩れ、土石流及び地滑り":"","高潮":"","地震":"","津波":"◎","大規模な火事":"","内水氾濫":"","火山現象":"","指定避難所との重複":"","備考":""}},
{"type":"Feature","geometry":{"type":"Point","coordinates":[135.5329266000,34.7154555900]},"properties":{"Name":"高倉中央公園","Jusho":"大阪府大阪市都島区御幸町２-４","洪水":"","がけ崩れ、土石流及び地滑り":"","高潮":"","地震":"◎","津波":"","大規模な火事":"","内水氾濫":"","火山現象":"","指定避難所との重複":"","備考":""}},
{"type":"Feature","geometry":{"type":"Point","coordinates":[135.4750295000,34.7020457600]},"properties":{"Name":"キコーナ海老江店","Jusho":"大阪府大阪市福島区海老江3-23-3","洪水":"◎","がけ崩れ、土石流及び地滑り":"","高潮":"","地震":"","津波":"◎","大規模な火事":"","内水氾濫":"","火山現象":"","指定避難所との重複":"","備考":""}},
{"type":"Feature","geometry":{"type":"Point","coordinates":[135.5338181000,34.7168878400]},"properties":{"Name":"御幸北児童遊園","Jusho":"大阪府大阪市都島区御幸町２-９","洪水":"","がけ崩れ、土石流及び地滑り":"","高潮":"","地震":"◎","津波":"","大規模な火事":"","内水氾濫":"","火山現象":"","指定避難所との重複":"","備考":""}},
{"type":"Feature","geometry":{"type":"Point","coordinates":[135.4721394000,34.7004416900]},"properties":{"Name":"㈱イシハラ","Jusho":"大阪府大阪市福島区海老江3-21-10","洪水":"◎","がけ崩れ、土石流及び地滑り":"","高潮":"","地震":"","津波":"◎","大規模な火事":"","内水氾濫":"","火山現象":"","指定避難所との重複":"","備考":""}},
{"type":"Feature","geometry":{"type":"Point","coordinates":[135.5362986000,34.7131722000]},"properties":{"Name":"内代公園","Jusho":"大阪府大阪市都島区内代町３-３","洪水":"","がけ崩れ、土石流及び地滑り":"","高潮":"","地震":"◎","津波":"◎","大規模な火事":"","内水氾濫":"","火山現象":"","指定避難所との重複":"","備考":""}},
{"type":"Feature","geometry":{"type":"Point","coordinates":[135.4769478000,34.6916884000]},"properties":{"Name":"㈱オールホンダビル","Jusho":"大阪府大阪市福島区吉野2-6-2","洪水":"◎","がけ崩れ、土石流及び地滑り":"","高潮":"","地震":"","津波":"◎","大規模な火事":"","内水氾濫":"","火山現象":"","指定避難所との重複":"","備考":""}},
{"type":"Feature","geometry":{"type":"Point","coordinates":[135.5279986000,34.7220213300]},"properties":{"Name":"東毛馬公園","Jusho":"大阪府大阪市都島区毛馬町２-５","洪水":"","がけ崩れ、土石流及び地滑り":"","高潮":"","地震":"◎","津波":"◎","大規模な火事":"","内水氾濫":"","火山現象":"","指定避難所との重複":"","備考":""}},
{"type":"Feature","geometry":{"type":"Point","coordinates":[135.4753579000,34.6901725900]},"properties":{"Name":"三興塗料㈱　三興ビル","Jusho":"大阪府大阪市福島区吉野3-12-25","洪水":"◎","がけ崩れ、土石流及び地滑り":"","高潮":"","地震":"","津波":"◎","大規模な火事":"","内水氾濫":"","火山現象":"","指定避難所との重複":"","備考":""}},
{"type":"Feature","geometry":{"type":"Point","coordinates":[135.5232341000,34.7212128200]},"properties":{"Name":"毛馬南公園","Jusho":"大阪府大阪市都島区毛馬町２-11","洪水":"","がけ崩れ、土石流及び地滑り":"","高潮":"","地震":"◎","津波":"◎","大規模な火事":"","内水氾濫":"","火山現象":"","指定避難所との重複":"","備考":""}},
{"type":"Feature","geometry":{"type":"Point","coordinates":[135.4759887000,34.6904573100]},"properties":{"Name":"ニシムラビル","Jusho":"大阪府大阪市福島区吉野2-2-12","洪水":"◎","がけ崩れ、土石流及び地滑り":"","高潮":"","地震":"","津波":"◎","大規模な火事":"","内水氾濫":"","火山現象":"","指定避難所との重複":"","備考":""}},
{"type":"Feature","geometry":{"type":"Point","coordinates":[135.5196127258,34.7205145277]},"properties":{"Name":"毛馬西公園","Jusho":"大阪府大阪市都島区毛馬町３-１","洪水":"","がけ崩れ、土石流及び地滑り":"","高潮":"","地震":"◎","津波":"◎","大規模な火事":"","内水氾濫":"","火山現象":"","指定避難所との重複":"","備考":""}},
{"type":"Feature","geometry":{"type":"Point","coordinates":[135.4754259000,34.6902825300]},"properties":{"Name":"㈱アークビルド　本社ビル","Jusho":"大阪府大阪市福島区吉野3-12-24","洪水":"◎","がけ崩れ、土石流及び地滑り":"","高潮":"","地震":"","津波":"◎","大規模な火事":"","内水氾濫":"","火山現象":"","指定避難所との重複":"","備考":""}},
{"type":"Feature","geometry":{"type":"Point","coordinates":[135.5216121000,34.7224954200]},"properties":{"Name":"毛馬中央公園","Jusho":"大阪府大阪市都島区毛馬町４-１","洪水":"","がけ崩れ、土石流及び地滑り":"","高潮":"","地震":"◎","津波":"◎","大規模な火事":"","内水氾濫":"","火山現象":"","指定避難所との重複":"","備考":""}},
{"type":"Feature","geometry":{"type":"Point","coordinates":[135.4725000000,34.6882052400]},"properties":{"Name":"大阪ファッションデザイン専門学校","Jusho":"大阪府大阪市福島区吉野4-2-13","洪水":"◎","がけ崩れ、土石流及び地滑り":"","高潮":"","地震":"","津波":"◎","大規模な火事":"","内水氾濫":"","火山現象":"","指定避難所との重複":"","備考":""}},
{"type":"Feature","geometry":{"type":"Point","coordinates":[135.5206192000,34.7246384200]},"properties":{"Name":"毛馬北公園","Jusho":"大阪府大阪市都島区毛馬町４-13","洪水":"","がけ崩れ、土石流及び地滑り":"","高潮":"","地震":"◎","津波":"◎","大規模な火事":"","内水氾濫":"","火山現象":"","指定避難所との重複":"","備考":""}},
{"type":"Feature","geometry":{"type":"Point","coordinates":[135.4761353000,34.6903826800]},"properties":{"Name":"東横イン大阪JR野田駅前","Jusho":"大阪府大阪市福島区吉野2-2-2","洪水":"◎","がけ崩れ、土石流及び地滑り":"","高潮":"","地震":"","津波":"◎","大規模な火事":"","内水氾濫":"","火山現象":"","指定避難所との重複":"","備考":""}},
{"type":"Feature","geometry":{"type":"Point","coordinates":[135.5250389000,34.7253490000]},"properties":{"Name":"毛馬東公園","Jusho":"大阪府大阪市都島区毛馬町５-５","洪水":"","がけ崩れ、土石流及び地滑り":"","高潮":"","地震":"◎","津波":"◎","大規模な火事":"","内水氾濫":"","火山現象":"","指定避難所との重複":"","備考":""}},
{"type":"Feature","geometry":{"type":"Point","coordinates":[135.4710124000,34.6979541100]},"properties":{"Name":"福島区在宅サービスセンター","Jusho":"大阪府大阪市福島区海老江6-2-22","洪水":"◎","がけ崩れ、土石流及び地滑り":"","高潮":"","地震":"","津波":"◎","大規模な火事":"","内水氾濫":"","火山現象":"","指定避難所との重複":"","備考":""}},
{"type":"Feature","geometry":{"type":"Point","coordinates":[135.5265607000,34.7260235400]},"properties":{"Name":"城北緑道公園","Jusho":"大阪府大阪市都島区毛馬町５、大東町２、３","洪水":"","がけ崩れ、土石流及び地滑り":"","高潮":"","地震":"◎","津波":"◎","大規模な火事":"","内水氾濫":"","火山現象":"","指定避難所との重複":"","備考":""}},
{"type":"Feature","geometry":{"type":"Point","coordinates":[135.4861410000,34.6972662900]},"properties":{"Name":"エトワール宮本","Jusho":"大阪府大阪市福島区福島7-5-19","洪水":"◎","がけ崩れ、土石流及び地滑り":"","高潮":"","地震":"","津波":"◎","大規模な火事":"","内水氾濫":"","火山現象":"","指定避難所との重複":"","備考":""}},
{"type":"Feature","geometry":{"type":"Point","coordinates":[135.5226424000,34.7073096500]},"properties":{"Name":"都島中央公園","Jusho":"大阪府大阪市都島区中野町５-15","洪水":"","がけ崩れ、土石流及び地滑り":"","高潮":"","地震":"◎","津波":"◎","大規模な火事":"","内水氾濫":"","火山現象":"","指定避難所との重複":"","備考":""}},
{"type":"Feature","geometry":{"type":"Point","coordinates":[135.4795502000,34.6868357800]},"properties":{"Name":"利州㈱","Jusho":"大阪府大阪市福島区野田2-2-16","洪水":"◎","がけ崩れ、土石流及び地滑り":"","高潮":"","地震":"","津波":"◎","大規模な火事":"","内水氾濫":"","火山現象":"","指定避難所との重複":"","備考":""}},
{"type":"Feature","geometry":{"type":"Point","coordinates":[135.5256983000,34.7058397200]},"properties":{"Name":"都島南通公園","Jusho":"大阪府大阪市都島区都島南通１-24","洪水":"","がけ崩れ、土石流及び地滑り":"","高潮":"","地震":"◎","津波":"","大規模な火事":"","内水氾濫":"","火山現象":"","指定避難所との重複":"","備考":""}},
{"type":"Feature","geometry":{"type":"Point","coordinates":[135.4868542000,34.6952432900]},"properties":{"Name":"福田ビル","Jusho":"大阪府大阪市福島区福島2-8-22","洪水":"◎","がけ崩れ、土石流及び地滑り":"","高潮":"","地震":"","津波":"◎","大規模な火事":"","内水氾濫":"","火山現象":"","指定避難所との重複":"","備考":""}},
{"type":"Feature","geometry":{"type":"Point","coordinates":[135.5200245000,34.7187154000]},"properties":{"Name":"蕪村公園","Jusho":"大阪府大阪市都島区毛馬町１-12","洪水":"","がけ崩れ、土石流及び地滑り":"","高潮":"","地震":"◎","津波":"◎","大規模な火事":"","内水氾濫":"","火山現象":"","指定避難所との重複":"","備考":""}},
{"type":"Feature","geometry":{"type":"Point","coordinates":[135.4707984000,34.6968254700]},"properties":{"Name":"ストークマンション野田阪神","Jusho":"大阪府大阪市福島区海老江7-17-14","洪水":"◎","がけ崩れ、土石流及び地滑り":"","高潮":"","地震":"","津波":"◎","大規模な火事":"","内水氾濫":"","火山現象":"","指定避難所との重複":"","備考":""}},
{"type":"Feature","geometry":{"type":"Point","coordinates":[135.5224413325,34.7169893344]},"properties":{"Name":"友渕小学校分校","Jusho":"大阪府大阪市都島区友渕町１-３-187","洪水":"","がけ崩れ、土石流及び地滑り":"","高潮":"","地震":"◎","津波":"◎","大規模な火事":"","内水氾濫":"","火山現象":"","指定避難所との重複":"◎","備考":""}},
{"type":"Feature","geometry":{"type":"Point","coordinates":[135.4887943000,34.6937539000]},"properties":{"Name":"朝日放送本社　リバーデッキ","Jusho":"大阪府大阪市福島区福島1-1-30","洪水":"◎","がけ崩れ、土石流及び地滑り":"","高潮":"","地震":"","津波":"◎","大規模な火事":"","内水氾濫":"","火山現象":"","指定避難所との重複":"","備考":""}},
{"type":"Feature","geometry":{"type":"Point","coordinates":[135.4851934000,34.6969548000]},"properties":{"Name":"上福島小学校（運動場）","Jusho":"大阪府大阪市福島区福島７-４-33","洪水":"","がけ崩れ、土石流及び地滑り":"","高潮":"","地震":"◎","津波":"","大規模な火事":"","内水氾濫":"","火山現象":"","指定避難所との重複":"◎","備考":""}},
{"type":"Feature","geometry":{"type":"Point","coordinates":[135.4713326000,34.6974493900]},"properties":{"Name":"野田YSビル","Jusho":"大阪府大阪市福島区海老江6-2-3","洪水":"◎","がけ崩れ、土石流及び地滑り":"","高潮":"","地震":"","津波":"◎","大規模な火事":"","内水氾濫":"","火山現象":"","指定避難所との重複":"","備考":""}},
{"type":"Feature","geometry":{"type":"Point","coordinates":[135.4836297154,34.6937563892]},"properties":{"Name":"福島小学校（運動場）","Jusho":"大阪府大阪市福島区福島４-５-６","洪水":"","がけ崩れ、土石流及び地滑り":"","高潮":"","地震":"◎","津波":"","大規模な火事":"","内水氾濫":"","火山現象":"","指定避難所との重複":"◎","備考":""}},
{"type":"Feature","geometry":{"type":"Point","coordinates":[135.4708202000,34.6977926300]},"properties":{"Name":"トーワユニ㈱","Jusho":"大阪府大阪市福島区海老江6-2-9","洪水":"◎","がけ崩れ、土石流及び地滑り":"","高潮":"","地震":"","津波":"◎","大規模な火事":"","内水氾濫":"","火山現象":"","指定避難所との重複":"","備考":""}},
{"type":"Feature","geometry":{"type":"Point","coordinates":[135.4808407000,34.6919233500]},"properties":{"Name":"玉川小学校（運動場）","Jusho":"大阪府大阪市福島区玉川２-13-16","洪水":"","がけ崩れ、土石流及び地滑り":"","高潮":"","地震":"◎","津波":"","大規模な火事":"","内水氾濫":"","火山現象":"","指定避難所との重複":"◎","備考":""}},
{"type":"Feature","geometry":{"type":"Point","coordinates":[135.4709167000,34.6983659900]},"properties":{"Name":"ハイパイル638","Jusho":"大阪府大阪市福島区海老江6-3-8","洪水":"◎","がけ崩れ、土石流及び地滑り":"","高潮":"","地震":"","津波":"◎","大規模な火事":"","内水氾濫":"","火山現象":"","指定避難所との重複":"","備考":""}},
{"type":"Feature","geometry":{"type":"Point","coordinates":[135.4815590000,34.6880704200]},"properties":{"Name":"下福島中学校（運動場）","Jusho":"大阪府大阪市福島区玉川１-４-11","洪水":"","がけ崩れ、土石流及び地滑り":"","高潮":"","地震":"◎","津波":"","大規模な火事":"","内水氾濫":"","火山現象":"","指定避難所との重複":"◎","備考":""}},
{"type":"Feature","geometry":{"type":"Point","coordinates":[135.4706742000,34.6940121700]},"properties":{"Name":"新生発条工業㈱内 ヴィクトワール福島","Jusho":"大阪府大阪市福島区大開1-18-8","洪水":"◎","がけ崩れ、土石流及び地滑り":"","高潮":"","地震":"","津波":"◎","大規模な火事":"","内水氾濫":"","火山現象":"","指定避難所との重複":"","備考":""}},
{"type":"Feature","geometry":{"type":"Point","coordinates":[135.4736983000,34.6861068400]},"properties":{"Name":"野田小学校（運動場）","Jusho":"大阪府大阪市福島区野田５-13-22","洪水":"","がけ崩れ、土石流及び地滑り":"","高潮":"","地震":"◎","津波":"","大規模な火事":"","内水氾濫":"","火山現象":"","指定避難所との重複":"◎","備考":""}},
{"type":"Feature","geometry":{"type":"Point","coordinates":[135.4897318000,34.6957954300]},"properties":{"Name":"セントラル70","Jusho":"大阪府大阪市福島区福島1-4-4","洪水":"◎","がけ崩れ、土石流及び地滑り":"","高潮":"","地震":"","津波":"◎","大規模な火事":"","内水氾濫":"","火山現象":"","指定避難所との重複":"","備考":""}},
{"type":"Feature","geometry":{"type":"Point","coordinates":[135.4732093000,34.6903172800]},"properties":{"Name":"吉野小学校（運動場）","Jusho":"大阪府大阪市福島区吉野３-10-５","洪水":"","がけ崩れ、土石流及び地滑り":"","高潮":"","地震":"◎","津波":"","大規模な火事":"","内水氾濫":"","火山現象":"","指定避難所との重複":"◎","備考":""}},
{"type":"Feature","geometry":{"type":"Point","coordinates":[135.4864489000,34.6921485700]},"properties":{"Name":"コミュニティプラザ大阪 （コンポ大阪ビル）","Jusho":"大阪府大阪市福島区福島3-1-73","洪水":"◎","がけ崩れ、土石流及び地滑り":"","高潮":"","地震":"","津波":"◎","大規模な火事":"","内水氾濫":"","火山現象":"","指定避難所との重複":"","備考":""}},
{"type":"Feature","geometry":{"type":"Point","coordinates":[135.4689905000,34.6869595800]},"properties":{"Name":"野田中学校（運動場）","Jusho":"大阪府大阪市福島区吉野５-９-４","洪水":"","がけ崩れ、土石流及び地滑り":"","高潮":"","地震":"◎","津波":"","大規模な火事":"","内水氾濫":"","火山現象":"","指定避難所との重複":"◎","備考":""}},
{"type":"Feature","geometry":{"type":"Point","coordinates":[135.4762896000,34.6936310400]},"properties":{"Name":"ロイヤルシティホール野田","Jusho":"大阪府大阪市福島区吉野1-22-8","洪水":"◎","がけ崩れ、土石流及び地滑り":"","高潮":"","地震":"","津波":"◎","大規模な火事":"","内水氾濫":"","火山現象":"","指定避難所との重複":"","備考":""}},
{"type":"Feature","geometry":{"type":"Point","coordinates":[135.4708544000,34.6923965900]},"properties":{"Name":"大開小学校（運動場）","Jusho":"大阪府大阪市福島区大開２-10-28","洪水":"","がけ崩れ、土石流及び地滑り":"","高潮":"","地震":"◎","津波":"","大規模な火事":"","内水氾濫":"","火山現象":"","指定避難所との重複":"◎","備考":""}},
{"type":"Feature","geometry":{"type":"Point","coordinates":[135.4770836000,34.6937060300]},"properties":{"Name":"プリプリ600","Jusho":"大阪府大阪市福島区吉野1-20-23","洪水":"◎","がけ崩れ、土石流及び地滑り":"","高潮":"","地震":"","津波":"◎","大規模な火事":"","内水氾濫":"","火山現象":"","指定避難所との重複":"","備考":""}},
{"type":"Feature","geometry":{"type":"Point","coordinates":[135.4786791000,34.6991807600]},"properties":{"Name":"鷺洲小学校（運動場）","Jusho":"大阪府大阪市福島区鷺洲５-６-８","洪水":"","がけ崩れ、土石流及び地滑り":"","高潮":"","地震":"◎","津波":"","大規模な火事":"","内水氾濫":"","火山現象":"","指定避難所との重複":"◎","備考":""}},
{"type":"Feature","geometry":{"type":"Point","coordinates":[135.4851470000,34.6952014200]},"properties":{"Name":"大阪トヨタ自動車㈱　本社ビル","Jusho":"大阪府大阪市福島区福島5-17-2","洪水":"◎","がけ崩れ、土石流及び地滑り":"","高潮":"","地震":"","津波":"◎","大規模な火事":"","内水氾濫":"","火山現象":"","指定避難所との重複":"","備考":""}},
{"type":"Feature","geometry":{"type":"Point","coordinates":[135.4778822000,34.7013643600]},"properties":{"Name":"八阪中学校（運動場）","Jusho":"大阪府大阪市福島区鷺洲６-１-13","洪水":"","がけ崩れ、土石流及び地滑り":"","高潮":"","地震":"◎","津波":"","大規模な火事":"","内水氾濫":"","火山現象":"","指定避難所との重複":"◎","備考":""}},
{"type":"Feature","geometry":{"type":"Point","coordinates":[135.4844107000,34.6933811700]},"properties":{"Name":"大阪澤久ビルディング","Jusho":"大阪府大阪市福島区福島3-10-4","洪水":"◎","がけ崩れ、土石流及び地滑り":"","高潮":"","地震":"","津波":"◎","大規模な火事":"","内水氾濫":"","火山現象":"","指定避難所との重複":"","備考":""}},
{"type":"Feature","geometry":{"type":"Point","coordinates":[135.4756091000,34.6988701400]},"properties":{"Name":"海老江東小学校（運動場）","Jusho":"大阪府大阪市福島区海老江１-６-19","洪水":"","がけ崩れ、土石流及び地滑り":"","高潮":"","地震":"◎","津波":"","大規模な火事":"","内水氾濫":"","火山現象":"","指定避難所との重複":"◎","備考":""}},
{"type":"Feature","geometry":{"type":"Point","coordinates":[135.4739059000,34.7015603000]},"properties":{"Name":"凸版印刷㈱　海老江新聞工場棟","Jusho":"大阪府大阪市福島区海老江3-22-61","洪水":"◎","がけ崩れ、土石流及び地滑り":"","高潮":"","地震":"","津波":"◎","大規模な火事":"","内水氾濫":"","火山現象":"","指定避難所との重複":"","備考":""}},
{"type":"Feature","geometry":{"type":"Point","coordinates":[135.4701807000,34.6975587900]},"properties":{"Name":"海老江西小学校（運動場）","Jusho":"大阪府大阪市福島区海老江８-１-10","洪水":"","がけ崩れ、土石流及び地滑り":"","高潮":"","地震":"◎","津波":"","大規模な火事":"","内水氾濫":"","火山現象":"","指定避難所との重複":"◎","備考":""}},
{"type":"Feature","geometry":{"type":"Point","coordinates":[135.4842432000,34.6983231200]},"properties":{"Name":"アーバンコート福島","Jusho":"大阪府大阪市福島区福島8-21-2","洪水":"◎","がけ崩れ、土石流及び地滑り":"","高潮":"","地震":"","津波":"◎","大規模な火事":"","内水氾濫":"","火山現象":"","指定避難所との重複":"","備考":""}},
{"type":"Feature","geometry":{"type":"Point","coordinates":[135.4888303000,34.6994440300]},"properties":{"Name":"上福島東公園","Jusho":"大阪府大阪市福島区福島６-７","洪水":"","がけ崩れ、土石流及び地滑り":"","高潮":"","地震":"◎","津波":"","大規模な火事":"","内水氾濫":"","火山現象":"","指定避難所との重複":"","備考":""}},
{"type":"Feature","geometry":{"type":"Point","coordinates":[135.4692768000,34.6859383000]},"properties":{"Name":"ヴェルドール野田","Jusho":"大阪府大阪市福島区吉野5-8-6","洪水":"◎","がけ崩れ、土石流及び地滑り":"","高潮":"","地震":"","津波":"◎","大規模な火事":"","内水氾濫":"","火山現象":"","指定避難所との重複":"","備考":""}},
{"type":"Feature","geometry":{"type":"Point","coordinates":[135.4858907000,34.7007355200]},"properties":{"Name":"上福島北公園","Jusho":"大阪府大阪市福島区福島７-23","洪水":"","がけ崩れ、土石流及び地滑り":"","高潮":"","地震":"◎","津波":"","大規模な火事":"","内水氾濫":"","火山現象":"","指定避難所との重複":"","備考":""}},
{"type":"Feature","geometry":{"type":"Point","coordinates":[135.4756252000,34.6852033300]},"properties":{"Name":"かね清ビル","Jusho":"大阪府大阪市福島区野田2-16-3","洪水":"◎","がけ崩れ、土石流及び地滑り":"","高潮":"","地震":"","津波":"◎","大規模な火事":"","内水氾濫":"","火山現象":"","指定避難所との重複":"","備考":""}},
{"type":"Feature","geometry":{"type":"Point","coordinates":[135.4848505000,34.6983484200]},"properties":{"Name":"上福島公園","Jusho":"大阪府大阪市福島区福島７-20","洪水":"","がけ崩れ、土石流及び地滑り":"","高潮":"","地震":"◎","津波":"","大規模な火事":"","内水氾濫":"","火山現象":"","指定避難所との重複":"","備考":""}},
{"type":"Feature","geometry":{"type":"Point","coordinates":[135.4758880000,34.6851327600]},"properties":{"Name":"大八ビル","Jusho":"大阪府大阪市福島区野田2-16-1","洪水":"◎","がけ崩れ、土石流及び地滑り":"","高潮":"","地震":"","津波":"◎","大規模な火事":"","内水氾濫":"","火山現象":"","指定避難所との重複":"","備考":""}},
{"type":"Feature","geometry":{"type":"Point","coordinates":[135.4834124000,34.6948286000]},"properties":{"Name":"福島西公園","Jusho":"大阪府大阪市福島区福島４-６","洪水":"","がけ崩れ、土石流及び地滑り":"","高潮":"","地震":"◎","津波":"","大規模な火事":"","内水氾濫":"","火山現象":"","指定避難所との重複":"","備考":""}},
{"type":"Feature","geometry":{"type":"Point","coordinates":[135.4702735000,34.6878410500]},"properties":{"Name":"レジデンス福島Ⅱ","Jusho":"大阪府大阪市福島区吉野４-24-20","洪水":"◎","がけ崩れ、土石流及び地滑り":"","高潮":"","地震":"","津波":"◎","大規模な火事":"","内水氾濫":"","火山現象":"","指定避難所との重複":"","備考":""}},
{"type":"Feature","geometry":{"type":"Point","coordinates":[135.4852407000,34.6958077700]},"properties":{"Name":"福島公園","Jusho":"大阪府大阪市福島区福島５-16","洪水":"","がけ崩れ、土石流及び地滑り":"","高潮":"","地震":"◎","津波":"","大規模な火事":"","内水氾濫":"","火山現象":"","指定避難所との重複":"","備考":""}},
{"type":"Feature","geometry":{"type":"Point","coordinates":[135.4716290000,34.6884581400]},"properties":{"Name":"英風女子高等専修学校","Jusho":"大阪府大阪市福島区吉野４-13-４","洪水":"◎","がけ崩れ、土石流及び地滑り":"","高潮":"","地震":"","津波":"◎","大規模な火事":"","内水氾濫":"","火山現象":"","指定避難所との重複":"","備考":""}},
{"type":"Feature","geometry":{"type":"Point","coordinates":[135.4823651000,34.6907736600]},"properties":{"Name":"下福島公園","Jusho":"大阪府大阪市福島区福島４-１","洪水":"","がけ崩れ、土石流及び地滑り":"","高潮":"","地震":"◎","津波":"","大規模な火事":"","内水氾濫":"","火山現象":"","指定避難所との重複":"","備考":""}},
{"type":"Feature","geometry":{"type":"Point","coordinates":[135.4697623000,34.6897210500]},"properties":{"Name":"福島リバーガーデン","Jusho":"大阪府大阪市福島区吉野４-29-20","洪水":"◎","がけ崩れ、土石流及び地滑り":"","高潮":"","地震":"","津波":"◎","大規模な火事":"","内水氾濫":"","火山現象":"","指定避難所との重複":"","備考":""}},
{"type":"Feature","geometry":{"type":"Point","coordinates":[135.4793268000,34.6899960000]},"properties":{"Name":"玉川南公園","Jusho":"大阪府大阪市福島区玉川２-２","洪水":"","がけ崩れ、土石流及び地滑り":"","高潮":"","地震":"◎","津波":"","大規模な火事":"","内水氾濫":"","火山現象":"","指定避難所との重複":"","備考":""}},
{"type":"Feature","geometry":{"type":"Point","coordinates":[135.4682487000,34.6957060400]},"properties":{"Name":"海西ひばり保育園","Jusho":"大阪府大阪市福島区海老江８-13-21","洪水":"◎","がけ崩れ、土石流及び地滑り":"","高潮":"","地震":"","津波":"◎","大規模な火事":"","内水氾濫":"","火山現象":"","指定避難所との重複":"","備考":""}},
{"type":"Feature","geometry":{"type":"Point","coordinates":[135.4794466000,34.6914989900]},"properties":{"Name":"玉川公園","Jusho":"大阪府大阪市福島区玉川２-11","洪水":"","がけ崩れ、土石流及び地滑り":"","高潮":"","地震":"◎","津波":"","大規模な火事":"","内水氾濫":"","火山現象":"","指定避難所との重複":"","備考":""}},
{"type":"Feature","geometry":{"type":"Point","coordinates":[135.4899473000,34.7019093100]},"properties":{"Name":"トモドール北梅田","Jusho":"大阪府大阪市福島区福島６-23-21","洪水":"◎","がけ崩れ、土石流及び地滑り":"","高潮":"","地震":"","津波":"◎","大規模な火事":"","内水氾濫":"","火山現象":"","指定避難所との重複":"","備考":""}},
{"type":"Feature","geometry":{"type":"Point","coordinates":[135.4775565000,34.6898412700]},"properties":{"Name":"玉川西公園","Jusho":"大阪府大阪市福島区玉川４-13","洪水":"","がけ崩れ、土石流及び地滑り":"","高潮":"","地震":"◎","津波":"","大規模な火事":"","内水氾濫":"","火山現象":"","指定避難所との重複":"","備考":""}},
{"type":"Feature","geometry":{"type":"Point","coordinates":[135.4647448000,34.6826111900]},"properties":{"Name":"西九条小学校","Jusho":"大阪府大阪市此花区西九条4-3-41","洪水":"◎","がけ崩れ、土石流及び地滑り":"","高潮":"","地震":"","津波":"◎","大規模な火事":"","内水氾濫":"","火山現象":"","指定避難所との重複":"◎","備考":""}},
{"type":"Feature","geometry":{"type":"Point","coordinates":[135.4741409000,34.6854062400]},"properties":{"Name":"大野町公園","Jusho":"大阪府大阪市福島区野田５-９","洪水":"","がけ崩れ、土石流及び地滑り":"","高潮":"","地震":"◎","津波":"","大規模な火事":"","内水氾濫":"","火山現象":"","指定避難所との重複":"","備考":""}},
{"type":"Feature","geometry":{"type":"Point","coordinates":[135.4545741000,34.6850117300]},"properties":{"Name":"四貫島小学校","Jusho":"大阪府大阪市此花区四貫島2-16-29","洪水":"◎","がけ崩れ、土石流及び地滑り":"","高潮":"","地震":"","津波":"◎","大規模な火事":"","内水氾濫":"","火山現象":"","指定避難所との重複":"◎","備考":""}},
{"type":"Feature","geometry":{"type":"Point","coordinates":[135.4778512000,34.6859859500]},"properties":{"Name":"大野東公園","Jusho":"大阪府大阪市福島区野田２-12","洪水":"","がけ崩れ、土石流及び地滑り":"","高潮":"","地震":"◎","津波":"","大規模な火事":"","内水氾濫":"","火山現象":"","指定避難所との重複":"","備考":""}},
{"type":"Feature","geometry":{"type":"Point","coordinates":[135.4553263000,34.6823069800]},"properties":{"Name":"梅香小学校","Jusho":"大阪府大阪市此花区梅香3-17-29","洪水":"◎","がけ崩れ、土石流及び地滑り":"","高潮":"","地震":"","津波":"◎","大規模な火事":"","内水氾濫":"","火山現象":"","指定避難所との重複":"◎","備考":""}},
{"type":"Feature","geometry":{"type":"Point","coordinates":[135.4782234000,34.6918104700]},"properties":{"Name":"中江町公園","Jusho":"大阪府大阪市福島区吉野１-15","洪水":"","がけ崩れ、土石流及び地滑り":"","高潮":"","地震":"◎","津波":"","大規模な火事":"","内水氾濫":"","火山現象":"","指定避難所との重複":"","備考":""}},
{"type":"Feature","geometry":{"type":"Point","coordinates":[135.4523240000,34.6806068600]},"properties":{"Name":"春日出小学校","Jusho":"大阪府大阪市此花区春日出中1-13-23","洪水":"◎","がけ崩れ、土石流及び地滑り":"","高潮":"","地震":"","津波":"◎","大規模な火事":"","内水氾濫":"","火山現象":"","指定避難所との重複":"◎","備考":""}},
{"type":"Feature","geometry":{"type":"Point","coordinates":[135.4735069000,34.6914727900]},"properties":{"Name":"江成公園","Jusho":"大阪府大阪市福島区吉野３-17","洪水":"","がけ崩れ、土石流及び地滑り":"","高潮":"","地震":"◎","津波":"","大規模な火事":"","内水氾濫":"","火山現象":"","指定避難所との重複":"","備考":""}},
{"type":"Feature","geometry":{"type":"Point","coordinates":[135.4515092896,34.6902682491]},"properties":{"Name":"伝法小学校","Jusho":"大阪府大阪市此花区伝法3-13-10","洪水":"◎","がけ崩れ、土石流及び地滑り":"","高潮":"","地震":"","津波":"◎","大規模な火事":"","内水氾濫":"","火山現象":"","指定避難所との重複":"◎","備考":""}},
{"type":"Feature","geometry":{"type":"Point","coordinates":[135.4709865000,34.6893377400]},"properties":{"Name":"吉野町公園","Jusho":"大阪府大阪市福島区吉野４-12","洪水":"","がけ崩れ、土石流及び地滑り":"","高潮":"","地震":"◎","津波":"","大規模な火事":"","内水氾濫":"","火山現象":"","指定避難所との重複":"","備考":""}},
{"type":"Feature","geometry":{"type":"Point","coordinates":[135.4603578000,34.6905461500]},"properties":{"Name":"高見小学校","Jusho":"大阪府大阪市此花区高見1-3-35","洪水":"◎","がけ崩れ、土石流及び地滑り":"","高潮":"","地震":"","津波":"◎","大規模な火事":"","内水氾濫":"","火山現象":"","指定避難所との重複":"◎","備考":""}},
{"type":"Feature","geometry":{"type":"Point","coordinates":[135.4687100000,34.6876279200]},"properties":{"Name":"新家公園","Jusho":"大阪府大阪市福島区吉野５-９","洪水":"","がけ崩れ、土石流及び地滑り":"","高潮":"","地震":"◎","津波":"","大規模な火事":"","内水氾濫":"","火山現象":"","指定避難所との重複":"","備考":""}},
{"type":"Feature","geometry":{"type":"Point","coordinates":[135.4422875000,34.6855750342]},"properties":{"Name":"酉島小学校","Jusho":"大阪府大阪市此花区酉島2-5-12","洪水":"◎","がけ崩れ、土石流及び地滑り":"","高潮":"","地震":"","津波":"◎","大規模な火事":"","内水氾濫":"","火山現象":"","指定避難所との重複":"◎","備考":""}},
{"type":"Feature","geometry":{"type":"Point","coordinates":[135.4706938000,34.6941525200]},"properties":{"Name":"大開公園","Jusho":"大阪府大阪市福島区大開１-18","洪水":"","がけ崩れ、土石流及び地滑り":"","高潮":"","地震":"◎","津波":"","大規模な火事":"","内水氾濫":"","火山現象":"","指定避難所との重複":"","備考":""}},
{"type":"Feature","geometry":{"type":"Point","coordinates":[135.4393172000,34.6777894900]},"properties":{"Name":"島屋小学校","Jusho":"大阪府大阪市此花区島屋2-9-36","洪水":"◎","がけ崩れ、土石流及び地滑り":"","高潮":"","地震":"","津波":"◎","大規模な火事":"","内水氾濫":"","火山現象":"","指定避難所との重複":"◎","備考":""}},
{"type":"Feature","geometry":{"type":"Point","coordinates":[135.4644612000,34.6894792400]},"properties":{"Name":"大開西公園","Jusho":"大阪府大阪市福島区大開４-４","洪水":"","がけ崩れ、土石流及び地滑り":"","高潮":"","地震":"◎","津波":"","大規模な火事":"","内水氾濫":"","火山現象":"","指定避難所との重複":"","備考":""}},
{"type":"Feature","geometry":{"type":"Point","coordinates":[135.4579395497,34.6785489128]},"properties":{"Name":"春日出中学校","Jusho":"大阪府大阪市此花区春日出南1-2-8","洪水":"◎","がけ崩れ、土石流及び地滑り":"","高潮":"","地震":"","津波":"◎","大規模な火事":"","内水氾濫":"","火山現象":"","指定避難所との重複":"◎","備考":""}},
{"type":"Feature","geometry":{"type":"Point","coordinates":[135.4794905000,34.7006415300]},"properties":{"Name":"鷺洲北公園","Jusho":"大阪府大阪市福島区鷺洲５-７","洪水":"","がけ崩れ、土石流及び地滑り":"","高潮":"","地震":"◎","津波":"","大規模な火事":"","内水氾濫":"","火山現象":"","指定避難所との重複":"","備考":""}},
{"type":"Feature","geometry":{"type":"Point","coordinates":[135.4440598000,34.6808626300]},"properties":{"Name":"梅香中学校","Jusho":"大阪府大阪市此花区春日出北3-12-24","洪水":"◎","がけ崩れ、土石流及び地滑り":"","高潮":"","地震":"","津波":"◎","大規模な火事":"","内水氾濫":"","火山現象":"","指定避難所との重複":"◎","備考":""}},
{"type":"Feature","geometry":{"type":"Point","coordinates":[135.4778660000,34.6993534300]},"properties":{"Name":"鷺洲上公園","Jusho":"大阪府大阪市福島区鷺洲５-６","洪水":"","がけ崩れ、土石流及び地滑り":"","高潮":"","地震":"◎","津波":"","大規模な火事":"","内水氾濫":"","火山現象":"","指定避難所との重複":"","備考":""}},
{"type":"Feature","geometry":{"type":"Point","coordinates":[135.4552826000,34.6900701400]},"properties":{"Name":"此花中学校","Jusho":"大阪府大阪市此花区高見2-14-31","洪水":"◎","がけ崩れ、土石流及び地滑り":"","高潮":"","地震":"","津波":"◎","大規模な火事":"","内水氾濫":"","火山現象":"","指定避難所との重複":"◎","備考":""}},
{"type":"Feature","geometry":{"type":"Point","coordinates":[135.4811325000,34.6966506000]},"properties":{"Name":"鷺洲中公園","Jusho":"大阪府大阪市福島区鷺洲２-４","洪水":"","がけ崩れ、土石流及び地滑り":"","高潮":"","地震":"◎","津波":"","大規模な火事":"","内水氾濫":"","火山現象":"","指定避難所との重複":"","備考":""}},
{"type":"Feature","geometry":{"type":"Point","coordinates":[135.4616052000,34.6805359500]},"properties":{"Name":"咲くやこの花中学校・高等学校","Jusho":"大阪府大阪市此花区西九条6-1-44","洪水":"◎","がけ崩れ、土石流及び地滑り":"","高潮":"","地震":"","津波":"◎","大規模な火事":"","内水氾濫":"","火山現象":"","指定避難所との重複":"◎","備考":""}},
{"type":"Feature","geometry":{"type":"Point","coordinates":[135.4730310000,34.7000974800]},"properties":{"Name":"海老江上公園","Jusho":"大阪府大阪市福島区海老江３-12","洪水":"","がけ崩れ、土石流及び地滑り":"","高潮":"","地震":"◎","津波":"","大規模な火事":"","内水氾濫":"","火山現象":"","指定避難所との重複":"","備考":""}},
{"type":"Feature","geometry":{"type":"Point","coordinates":[135.4429668000,34.6856402900]},"properties":{"Name":"もと此花総合高等学校（新館）","Jusho":"大阪府大阪市此花区酉島2-3-16","洪水":"◎","がけ崩れ、土石流及び地滑り":"","高潮":"","地震":"","津波":"◎","大規模な火事":"","内水氾濫":"","火山現象":"","指定避難所との重複":"◎","備考":""}},
{"type":"Feature","geometry":{"type":"Point","coordinates":[135.4705431000,34.6990490300]},"properties":{"Name":"海老江中公園","Jusho":"大阪府大阪市福島区海老江６-４","洪水":"","がけ崩れ、土石流及び地滑り":"","高潮":"","地震":"◎","津波":"","大規模な火事":"","内水氾濫":"","火山現象":"","指定避難所との重複":"","備考":""}},
{"type":"Feature","geometry":{"type":"Point","coordinates":[135.4282077000,34.6608902900]},"properties":{"Name":"市営桜島住宅1号館","Jusho":"大阪府大阪市此花区桜島3-6-30","洪水":"◎","がけ崩れ、土石流及び地滑り":"","高潮":"","地震":"","津波":"◎","大規模な火事":"","内水氾濫":"","火山現象":"","指定避難所との重複":"","備考":""}},
{"type":"Feature","geometry":{"type":"Point","coordinates":[135.4691297000,34.6985247400]},"properties":{"Name":"海老江西公園","Jusho":"大阪府大阪市福島区海老江８-２","洪水":"","がけ崩れ、土石流及び地滑り":"","高潮":"","地震":"◎","津波":"","大規模な火事":"","内水氾濫":"","火山現象":"","指定避難所との重複":"","備考":""}},
{"type":"Feature","geometry":{"type":"Point","coordinates":[135.4390156000,34.6838575300]},"properties":{"Name":"市営酉島住宅21号館","Jusho":"大阪府大阪市此花区酉島4-1","洪水":"◎","がけ崩れ、土石流及び地滑り":"","高潮":"","地震":"","津波":"◎","大規模な火事":"","内水氾濫":"","火山現象":"","指定避難所との重複":"","備考":""}},
{"type":"Feature","geometry":{"type":"Point","coordinates":[135.4700571000,34.6955146000]},"properties":{"Name":"海老江公園","Jusho":"大阪府大阪市福島区海老江７-15","洪水":"","がけ崩れ、土石流及び地滑り":"","高潮":"","地震":"◎","津波":"","大規模な火事":"","内水氾濫":"","火山現象":"","指定避難所との重複":"","備考":""}},
{"type":"Feature","geometry":{"type":"Point","coordinates":[135.4378297000,34.6836040400]},"properties":{"Name":"市営酉島住宅22号館","Jusho":"大阪府大阪市此花区酉島4-2","洪水":"◎","がけ崩れ、土石流及び地滑り":"","高潮":"","地震":"","津波":"◎","大規模な火事":"","内水氾濫":"","火山現象":"","指定避難所との重複":"","備考":""}},
{"type":"Feature","geometry":{"type":"Point","coordinates":[135.4642412000,34.6886734000]},"properties":{"Name":"新家西公園","Jusho":"大阪府大阪市福島区大開４-３","洪水":"","がけ崩れ、土石流及び地滑り":"","高潮":"","地震":"◎","津波":"","大規模な火事":"","内水氾濫":"","火山現象":"","指定避難所との重複":"","備考":""}},
{"type":"Feature","geometry":{"type":"Point","coordinates":[135.4607057000,34.6926352200]},"properties":{"Name":"市営高見住宅24号館","Jusho":"大阪府大阪市此花区高見1-6","洪水":"◎","がけ崩れ、土石流及び地滑り":"","高潮":"","地震":"","津波":"◎","大規模な火事":"","内水氾濫":"","火山現象":"","指定避難所との重複":"","備考":""}},
{"type":"Feature","geometry":{"type":"Point","coordinates":[135.4683194000,34.6959424800]},"properties":{"Name":"えびえにし防災広場","Jusho":"大阪府大阪市福島区海老江８-13","洪水":"","がけ崩れ、土石流及び地滑り":"","高潮":"","地震":"◎","津波":"","大規模な火事":"","内水氾濫":"","火山現象":"","指定避難所との重複":"","備考":""}},
{"type":"Feature","geometry":{"type":"Point","coordinates":[135.4615693000,34.6928513500]},"properties":{"Name":"市営高見住宅25号館","Jusho":"大阪府大阪市此花区高見1-6","洪水":"◎","がけ崩れ、土石流及び地滑り":"","高潮":"","地震":"","津波":"◎","大規模な火事":"","内水氾濫":"","火山現象":"","指定避難所との重複":"","備考":""}},
{"type":"Feature","geometry":{"type":"Point","coordinates":[135.4647914000,34.6823127900]},"properties":{"Name":"西九条小学校（運動場）","Jusho":"大阪府大阪市此花区西九条４-３-41","洪水":"","がけ崩れ、土石流及び地滑り":"","高潮":"","地震":"◎","津波":"","大規模な火事":"","内水氾濫":"","火山現象":"","指定避難所との重複":"◎","備考":""}},
{"type":"Feature","geometry":{"type":"Point","coordinates":[135.4620521000,34.6923970400]},"properties":{"Name":"市営高見住宅26号館","Jusho":"大阪府大阪市此花区高見1-6","洪水":"◎","がけ崩れ、土石流及び地滑り":"","高潮":"","地震":"","津波":"◎","大規模な火事":"","内水氾濫":"","火山現象":"","指定避難所との重複":"","備考":""}},
{"type":"Feature","geometry":{"type":"Point","coordinates":[135.4541092000,34.6848514600]},"properties":{"Name":"四貫島小学校（運動場）","Jusho":"大阪府大阪市此花区四貫島２-16-29","洪水":"","がけ崩れ、土石流及び地滑り":"","高潮":"","地震":"◎","津波":"","大規模な火事":"","内水氾濫":"","火山現象":"","指定避難所との重複":"◎","備考":""}},
{"type":"Feature","geometry":{"type":"Point","coordinates":[135.4584942000,34.6920757100]},"properties":{"Name":"市営高見住宅41号館","Jusho":"大阪府大阪市此花区高見1-5","洪水":"◎","がけ崩れ、土石流及び地滑り":"","高潮":"","地震":"","津波":"◎","大規模な火事":"","内水氾濫":"","火山現象":"","指定避難所との重複":"","備考":""}},
{"type":"Feature","geometry":{"type":"Point","coordinates":[135.4550438000,34.6820937700]},"properties":{"Name":"梅香小学校（運動場）","Jusho":"大阪府大阪市此花区梅香３-17-29","洪水":"","がけ崩れ、土石流及び地滑り":"","高潮":"","地震":"◎","津波":"","大規模な火事":"","内水氾濫":"","火山現象":"","指定避難所との重複":"◎","備考":""}},
{"type":"Feature","geometry":{"type":"Point","coordinates":[135.4587280000,34.6932638500]},"properties":{"Name":"市営高見住宅44号館","Jusho":"大阪府大阪市此花区高見1-5","洪水":"◎","がけ崩れ、土石流及び地滑り":"","高潮":"","地震":"","津波":"◎","大規模な火事":"","内水氾濫":"","火山現象":"","指定避難所との重複":"","備考":""}},
{"type":"Feature","geometry":{"type":"Point","coordinates":[135.4526447000,34.6805023200]},"properties":{"Name":"春日出小学校（運動場）","Jusho":"大阪府大阪市此花区春日出中１-13-23","洪水":"","がけ崩れ、土石流及び地滑り":"","高潮":"","地震":"◎","津波":"","大規模な火事":"","内水氾濫":"","火山現象":"","指定避難所との重複":"◎","備考":""}},
{"type":"Feature","geometry":{"type":"Point","coordinates":[135.4586475000,34.6896778900]},"properties":{"Name":"市営高見住宅51号館","Jusho":"大阪府大阪市此花区高見1-4","洪水":"◎","がけ崩れ、土石流及び地滑り":"","高潮":"","地震":"","津波":"◎","大規模な火事":"","内水氾濫":"","火山現象":"","指定避難所との重複":"","備考":""}},
{"type":"Feature","geometry":{"type":"Point","coordinates":[135.4517740000,34.6900094800]},"properties":{"Name":"伝法小学校（運動場）","Jusho":"大阪府大阪市此花区伝法３-13-10","洪水":"","がけ崩れ、土石流及び地滑り":"","高潮":"","地震":"◎","津波":"","大規模な火事":"","内水氾濫":"","火山現象":"","指定避難所との重複":"◎","備考":""}},
{"type":"Feature","geometry":{"type":"Point","coordinates":[135.4585295000,34.6908467600]},"properties":{"Name":"市営高見住宅52号館","Jusho":"大阪府大阪市此花区高見1-4","洪水":"◎","がけ崩れ、土石流及び地滑り":"","高潮":"","地震":"","津波":"◎","大規模な火事":"","内水氾濫":"","火山現象":"","指定避難所との重複":"","備考":""}},
{"type":"Feature","geometry":{"type":"Point","coordinates":[135.4609712000,34.6905343900]},"properties":{"Name":"高見小学校（運動場）","Jusho":"大阪府大阪市此花区高見１-３-35","洪水":"","がけ崩れ、土石流及び地滑り":"","高潮":"","地震":"◎","津波":"","大規模な火事":"","内水氾濫":"","火山現象":"","指定避難所との重複":"◎","備考":""}},
{"type":"Feature","geometry":{"type":"Point","coordinates":[135.4593932000,34.6893073700]},"properties":{"Name":"市営高見住宅57号館","Jusho":"大阪府大阪市此花区高見1-4","洪水":"◎","がけ崩れ、土石流及び地滑り":"","高潮":"","地震":"","津波":"◎","大規模な火事":"","内水氾濫":"","火山現象":"","指定避難所との重複":"","備考":""}},
{"type":"Feature","geometry":{"type":"Point","coordinates":[135.4421337000,34.6858235200]},"properties":{"Name":"酉島小学校（運動場）","Jusho":"大阪府大阪市此花区酉島２-５-12","洪水":"","がけ崩れ、土石流及び地滑り":"","高潮":"","地震":"◎","津波":"","大規模な火事":"","内水氾濫":"","火山現象":"","指定避難所との重複":"◎","備考":""}},
{"type":"Feature","geometry":{"type":"Point","coordinates":[135.4457497000,34.6852033600]},"properties":{"Name":"市営酉島東住宅1号館","Jusho":"大阪府大阪市此花区酉島1-3","洪水":"◎","がけ崩れ、土石流及び地滑り":"","高潮":"","地震":"","津波":"◎","大規模な火事":"","内水氾濫":"","火山現象":"","指定避難所との重複":"","備考":""}},
{"type":"Feature","geometry":{"type":"Point","coordinates":[135.4391795000,34.6774512700]},"properties":{"Name":"島屋小学校（運動場）","Jusho":"大阪府大阪市此花区島屋２-９-36","洪水":"","がけ崩れ、土石流及び地滑り":"","高潮":"","地震":"◎","津波":"","大規模な火事":"","内水氾濫":"","火山現象":"","指定避難所との重複":"◎","備考":""}},
{"type":"Feature","geometry":{"type":"Point","coordinates":[135.4466115000,34.6862641700]},"properties":{"Name":"市営酉島東住宅2号館","Jusho":"大阪府大阪市此花区酉島2-1","洪水":"◎","がけ崩れ、土石流及び地滑り":"","高潮":"","地震":"","津波":"◎","大規模な火事":"","内水氾濫":"","火山現象":"","指定避難所との重複":"","備考":""}},
{"type":"Feature","geometry":{"type":"Point","coordinates":[135.4579145000,34.6789297700]},"properties":{"Name":"春日出中学校（運動場）","Jusho":"大阪府大阪市此花区春日出南１-２-８","洪水":"","がけ崩れ、土石流及び地滑り":"","高潮":"","地震":"◎","津波":"","大規模な火事":"","内水氾濫":"","火山現象":"","指定避難所との重複":"◎","備考":""}},
{"type":"Feature","geometry":{"type":"Point","coordinates":[135.4387673000,34.6782928800]},"properties":{"Name":"市営島屋住宅1号館","Jusho":"大阪府大阪市此花区島屋2-8","洪水":"◎","がけ崩れ、土石流及び地滑り":"","高潮":"","地震":"","津波":"◎","大規模な火事":"","内水氾濫":"","火山現象":"","指定避難所との重複":"","備考":""}},
{"type":"Feature","geometry":{"type":"Point","coordinates":[135.4450862000,34.6813405200]},"properties":{"Name":"梅香中学校（運動場）","Jusho":"大阪府大阪市此花区春日出北３-12-24","洪水":"","がけ崩れ、土石流及び地滑り":"","高潮":"","地震":"◎","津波":"","大規模な火事":"","内水氾濫":"","火山現象":"","指定避難所との重複":"◎","備考":""}},
{"type":"Feature","geometry":{"type":"Point","coordinates":[135.4493633000,34.6813354100]},"properties":{"Name":"市営春日出住宅1号館","Jusho":"大阪府大阪市此花区春日出北2-5","洪水":"◎","がけ崩れ、土石流及び地滑り":"","高潮":"","地震":"","津波":"◎","大規模な火事":"","内水氾濫":"","火山現象":"","指定避難所との重複":"","備考":""}},
{"type":"Feature","geometry":{"type":"Point","coordinates":[135.4556384000,34.6906082600]},"properties":{"Name":"此花中学校（運動場）","Jusho":"大阪府大阪市此花区高見２-14-31","洪水":"","がけ崩れ、土石流及び地滑り":"","高潮":"","地震":"◎","津波":"","大規模な火事":"","内水氾濫":"","火山現象":"","指定避難所との重複":"◎","備考":""}},
{"type":"Feature","geometry":{"type":"Point","coordinates":[135.4491327000,34.6815780400]},"properties":{"Name":"市営春日出住宅2号館","Jusho":"大阪府大阪市此花区春日出北2-5","洪水":"◎","がけ崩れ、土石流及び地滑り":"","高潮":"","地震":"","津波":"◎","大規模な火事":"","内水氾濫":"","火山現象":"","指定避難所との重複":"","備考":""}},
{"type":"Feature","geometry":{"type":"Point","coordinates":[135.4440630000,34.6856755800]},"properties":{"Name":"もと此花総合高等学校（運動場）","Jusho":"大阪府大阪市此花区酉島２-３-16","洪水":"","がけ崩れ、土石流及び地滑り":"","高潮":"","地震":"◎","津波":"","大規模な火事":"","内水氾濫":"","火山現象":"","指定避難所との重複":"◎","備考":""}},
{"type":"Feature","geometry":{"type":"Point","coordinates":[135.4409714000,34.6823988800]},"properties":{"Name":"市営酉島第2住宅1号棟","Jusho":"大阪府大阪市此花区酉島3-12-20","洪水":"◎","がけ崩れ、土石流及び地滑り":"","高潮":"","地震":"","津波":"◎","大規模な火事":"","内水氾濫":"","火山現象":"","指定避難所との重複":"","備考":""}},
{"type":"Feature","geometry":{"type":"Point","coordinates":[135.4623037000,34.6851637846]},"properties":{"Name":"昇陽中学校・高等学校（運動場）","Jusho":"大阪府大阪市此花区朝日１-１-９","洪水":"","がけ崩れ、土石流及び地滑り":"","高潮":"","地震":"◎","津波":"","大規模な火事":"","内水氾濫":"","火山現象":"","指定避難所との重複":"◎","備考":""}},
{"type":"Feature","geometry":{"type":"Point","coordinates":[135.4314742000,34.6616160800]},"properties":{"Name":"桜島北公園","Jusho":"大阪府大阪市此花区桜島1","洪水":"◎","がけ崩れ、土石流及び地滑り":"","高潮":"","地震":"","津波":"◎","大規模な火事":"","内水氾濫":"","火山現象":"","指定避難所との重複":"","備考":""}},
{"type":"Feature","geometry":{"type":"Point","coordinates":[135.4611939000,34.6800551100]},"properties":{"Name":"咲くやこの花中学校・高等学校（運動場）","Jusho":"大阪府大阪市此花区西九条６-１-44","洪水":"","がけ崩れ、土石流及び地滑り":"","高潮":"","地震":"◎","津波":"","大規模な火事":"","内水氾濫":"","火山現象":"","指定避難所との重複":"◎","備考":""}},
{"type":"Feature","geometry":{"type":"Point","coordinates":[135.4624751000,34.6934849100]},"properties":{"Name":"大阪市下水道科学館","Jusho":"大阪府大阪市此花区高見1-2-53","洪水":"◎","がけ崩れ、土石流及び地滑り":"","高潮":"","地震":"","津波":"◎","大規模な火事":"","内水氾濫":"","火山現象":"","指定避難所との重複":"","備考":""}},
{"type":"Feature","geometry":{"type":"Point","coordinates":[135.4571754000,34.6858538200]},"properties":{"Name":"此花区区民ホール","Jusho":"大阪府大阪市此花区四貫島１-１-８","洪水":"","がけ崩れ、土石流及び地滑り":"","高潮":"","地震":"◎","津波":"","大規模な火事":"","内水氾濫":"","火山現象":"","指定避難所との重複":"","備考":""}},
{"type":"Feature","geometry":{"type":"Point","coordinates":[135.4416613000,34.6789829700]},"properties":{"Name":"住友電気工業㈱ 大阪製作所　大阪事務所","Jusho":"大阪府大阪市此花区島屋1-1-3","洪水":"◎","がけ崩れ、土石流及び地滑り":"","高潮":"","地震":"","津波":"◎","大規模な火事":"","内水氾濫":"","火山現象":"","指定避難所との重複":"","備考":""}},
{"type":"Feature","geometry":{"type":"Point","coordinates":[135.4546033000,34.6903372100]},"properties":{"Name":"此花区在宅サービスセンター","Jusho":"大阪府大阪市此花区伝法３-２-27","洪水":"","がけ崩れ、土石流及び地滑り":"","高潮":"","地震":"◎","津波":"","大規模な火事":"","内水氾濫":"","火山現象":"","指定避難所との重複":"","備考":""}},
{"type":"Feature","geometry":{"type":"Point","coordinates":[135.4680494000,34.6858079700]},"properties":{"Name":"ケアハウス大阪安立","Jusho":"大阪府大阪市此花区西九条3-4-61","洪水":"◎","がけ崩れ、土石流及び地滑り":"","高潮":"","地震":"","津波":"◎","大規模な火事":"","内水氾濫":"","火山現象":"","指定避難所との重複":"◎","備考":""}},
{"type":"Feature","geometry":{"type":"Point","coordinates":[135.4661908000,34.6807072700]},"properties":{"Name":"西九条福祉会館","Jusho":"大阪府大阪市此花区西九条２-３-15","洪水":"","がけ崩れ、土石流及び地滑り":"","高潮":"","地震":"◎","津波":"","大規模な火事":"","内水氾濫":"","火山現象":"","指定避難所との重複":"","備考":""}},
{"type":"Feature","geometry":{"type":"Point","coordinates":[135.4545478000,34.6902931100]},"properties":{"Name":"此花区在宅サービスセンター","Jusho":"大阪府大阪市此花区伝法3-2-27","洪水":"◎","がけ崩れ、土石流及び地滑り":"","高潮":"","地震":"","津波":"◎","大規模な火事":"","内水氾濫":"","火山現象":"","指定避難所との重複":"◎","備考":""}},
{"type":"Feature","geometry":{"type":"Point","coordinates":[135.4691569000,34.6833780500]},"properties":{"Name":"西九条公民館","Jusho":"大阪府大阪市此花区西九条１-３-16","洪水":"","がけ崩れ、土石流及び地滑り":"","高潮":"","地震":"◎","津波":"","大規模な火事":"","内水氾濫":"","火山現象":"","指定避難所との重複":"","備考":""}},
{"type":"Feature","geometry":{"type":"Point","coordinates":[135.4640937000,34.6830593800]},"properties":{"Name":"ライフ西九条店","Jusho":"大阪府大阪市此花区西九条6-1-132","洪水":"◎","がけ崩れ、土石流及び地滑り":"","高潮":"","地震":"","津波":"◎","大規模な火事":"","内水氾濫":"","火山現象":"","指定避難所との重複":"","備考":""}},
{"type":"Feature","geometry":{"type":"Point","coordinates":[135.4421237000,34.6738351300]},"properties":{"Name":"日本郵便株式会社　新大阪郵便局","Jusho":"大阪府大阪市此花区島屋４-１-18","洪水":"","がけ崩れ、土石流及び地滑り":"","高潮":"","地震":"◎","津波":"","大規模な火事":"","内水氾濫":"","火山現象":"","指定避難所との重複":"","備考":""}},
{"type":"Feature","geometry":{"type":"Point","coordinates":[135.4437354000,34.6740385400]},"properties":{"Name":"ガーデン天使","Jusho":"大阪府大阪市此花区島屋4-1-11","洪水":"◎","がけ崩れ、土石流及び地滑り":"","高潮":"","地震":"","津波":"◎","大規模な火事":"","内水氾濫":"","火山現象":"","指定避難所との重複":"","備考":""}},
{"type":"Feature","geometry":{"type":"Point","coordinates":[135.4483186000,34.6788911300]},"properties":{"Name":"住友化学株式会社　大阪工場（グラウンド）","Jusho":"大阪府大阪市此花区春日出中３-１-98","洪水":"","がけ崩れ、土石流及び地滑り":"","高潮":"","地震":"◎","津波":"","大規模な火事":"","内水氾濫":"","火山現象":"","指定避難所との重複":"","備考":""}},
{"type":"Feature","geometry":{"type":"Point","coordinates":[135.4303067000,34.6718066400]},"properties":{"Name":"㈱アド・ダイセン　 関西メールセンター","Jusho":"大阪府大阪市此花区北港1-1-1","洪水":"◎","がけ崩れ、土石流及び地滑り":"","高潮":"","地震":"","津波":"◎","大規模な火事":"","内水氾濫":"","火山現象":"","指定避難所との重複":"","備考":""}},
{"type":"Feature","geometry":{"type":"Point","coordinates":[135.4371463000,34.6735978500]},"properties":{"Name":"新日鐵住金株式会社　製鋼所（グラウンド）","Jusho":"大阪府大阪市此花区島屋５-１-109","洪水":"","がけ崩れ、土石流及び地滑り":"","高潮":"","地震":"◎","津波":"","大規模な火事":"","内水氾濫":"","火山現象":"","指定避難所との重複":"","備考":""}},
{"type":"Feature","geometry":{"type":"Point","coordinates":[135.4025096000,34.6617318800]},"properties":{"Name":"大阪港舞洲食品流通センター","Jusho":"大阪府大阪市此花区北港白津1-11-52","洪水":"◎","がけ崩れ、土石流及び地滑り":"","高潮":"","地震":"","津波":"◎","大規模な火事":"","内水氾濫":"","火山現象":"","指定避難所との重複":"","備考":""}},
{"type":"Feature","geometry":{"type":"Point","coordinates":[135.4416988000,34.6788785700]},"properties":{"Name":"住友電気工業株式会社　大阪製作所 大阪事務所","Jusho":"大阪府大阪市此花区島屋１-１-３","洪水":"","がけ崩れ、土石流及び地滑り":"","高潮":"","地震":"◎","津波":"","大規模な火事":"","内水氾濫":"","火山現象":"","指定避難所との重複":"","備考":""}},
{"type":"Feature","geometry":{"type":"Point","coordinates":[135.4622429000,34.6854358000]},"properties":{"Name":"昇陽中学校・高等学校","Jusho":"大阪府大阪市此花区朝日1-1-9","洪水":"◎","がけ崩れ、土石流及び地滑り":"","高潮":"","地震":"","津波":"◎","大規模な火事":"","内水氾濫":"","火山現象":"","指定避難所との重複":"◎","備考":""}},
{"type":"Feature","geometry":{"type":"Point","coordinates":[135.4649948000,34.6838897800]},"properties":{"Name":"西九条公園","Jusho":"大阪府大阪市此花区西九条５-４","洪水":"","がけ崩れ、土石流及び地滑り":"","高潮":"","地震":"◎","津波":"","大規模な火事":"","内水氾濫":"","火山現象":"","指定避難所との重複":"","備考":""}},
{"type":"Feature","geometry":{"type":"Point","coordinates":[135.4705631000,34.6824097300]},"properties":{"Name":"㈱中日本冷蔵　本社センター","Jusho":"大阪府大阪市此花区西九条1-1-20","洪水":"◎","がけ崩れ、土石流及び地滑り":"","高潮":"","地震":"","津波":"◎","大規模な火事":"","内水氾濫":"","火山現象":"","指定避難所との重複":"","備考":""}},
{"type":"Feature","geometry":{"type":"Point","coordinates":[135.4676162000,34.6817307200]},"properties":{"Name":"西九条上公園","Jusho":"大阪府大阪市此花区西九条１-30","洪水":"","がけ崩れ、土石流及び地滑り":"","高潮":"","地震":"◎","津波":"","大規模な火事":"","内水氾濫":"","火山現象":"","指定避難所との重複":"","備考":""}},
{"type":"Feature","geometry":{"type":"Point","coordinates":[135.4487332000,34.6847161900]},"properties":{"Name":"㈱鴻池組　恩貴島鴻和寮","Jusho":"大阪府大阪市此花区伝法6-1-49","洪水":"◎","がけ崩れ、土石流及び地滑り":"","高潮":"","地震":"","津波":"◎","大規模な火事":"","内水氾濫":"","火山現象":"","指定避難所との重複":"","備考":""}},
{"type":"Feature","geometry":{"type":"Point","coordinates":[135.4658760000,34.6797861200]},"properties":{"Name":"西九条南公園","Jusho":"大阪府大阪市此花区西九条２-１","洪水":"","がけ崩れ、土石流及び地滑り":"","高潮":"","地震":"◎","津波":"","大規模な火事":"","内水氾濫":"","火山現象":"","指定避難所との重複":"","備考":""}},
{"type":"Feature","geometry":{"type":"Point","coordinates":[135.4470662000,34.6853221000]},"properties":{"Name":"ドルミ新淀川15号館","Jusho":"大阪府大阪市此花区酉島1-2-15","洪水":"◎","がけ崩れ、土石流及び地滑り":"","高潮":"","地震":"","津波":"◎","大規模な火事":"","内水氾濫":"","火山現象":"","指定避難所との重複":"","備考":""}},
{"type":"Feature","geometry":{"type":"Point","coordinates":[135.4640569000,34.6817456300]},"properties":{"Name":"西九条西公園","Jusho":"大阪府大阪市此花区西九条４-４","洪水":"","がけ崩れ、土石流及び地滑り":"","高潮":"","地震":"◎","津波":"","大規模な火事":"","内水氾濫":"","火山現象":"","指定避難所との重複":"","備考":""}},
{"type":"Feature","geometry":{"type":"Point","coordinates":[135.4661054000,34.6796034100]},"properties":{"Name":"ルモン西九条","Jusho":"大阪府大阪市此花区西九条2-1-32","洪水":"◎","がけ崩れ、土石流及び地滑り":"","高潮":"","地震":"","津波":"◎","大規模な火事":"","内水氾濫":"","火山現象":"","指定避難所との重複":"","備考":""}},
{"type":"Feature","geometry":{"type":"Point","coordinates":[135.4597571000,34.6823308200]},"properties":{"Name":"梅香東公園","Jusho":"大阪府大阪市此花区梅香１-３","洪水":"","がけ崩れ、土石流及び地滑り":"","高潮":"","地震":"◎","津波":"","大規模な火事":"","内水氾濫":"","火山現象":"","指定避難所との重複":"","備考":""}},
{"type":"Feature","geometry":{"type":"Point","coordinates":[135.4485013000,34.6870378300]},"properties":{"Name":"キングマンション此花Ⅱ","Jusho":"大阪府大阪市此花区伝法5-1-24","洪水":"◎","がけ崩れ、土石流及び地滑り":"","高潮":"","地震":"","津波":"◎","大規模な火事":"","内水氾濫":"","火山現象":"","指定避難所との重複":"","備考":""}},
{"type":"Feature","geometry":{"type":"Point","coordinates":[135.4556991000,34.6814532000]},"properties":{"Name":"梅香公園","Jusho":"大阪府大阪市此花区梅香３-３","洪水":"","がけ崩れ、土石流及び地滑り":"","高潮":"","地震":"◎","津波":"","大規模な火事":"","内水氾濫":"","火山現象":"","指定避難所との重複":"","備考":""}},
{"type":"Feature","geometry":{"type":"Point","coordinates":[135.4357131000,34.6825836300]},"properties":{"Name":"ルネ・パークプラザ","Jusho":"大阪府大阪市此花区酉島6-3-4","洪水":"◎","がけ崩れ、土石流及び地滑り":"","高潮":"","地震":"","津波":"◎","大規模な火事":"","内水氾濫":"","火山現象":"","指定避難所との重複":"","備考":""}},
{"type":"Feature","geometry":{"type":"Point","coordinates":[135.4581043615,34.6794020729]},"properties":{"Name":"春日出公園","Jusho":"大阪府大阪市此花区春日出南１-２","洪水":"","がけ崩れ、土石流及び地滑り":"","高潮":"","地震":"◎","津波":"","大規模な火事":"","内水氾濫":"","火山現象":"","指定避難所との重複":"","備考":""}},
{"type":"Feature","geometry":{"type":"Point","coordinates":[135.4670266000,34.6855444600]},"properties":{"Name":"ファミール西九条","Jusho":"大阪府大阪市此花区西九条3-4-34","洪水":"◎","がけ崩れ、土石流及び地滑り":"","高潮":"","地震":"","津波":"◎","大規模な火事":"","内水氾濫":"","火山現象":"","指定避難所との重複":"","備考":""}},
{"type":"Feature","geometry":{"type":"Point","coordinates":[135.4571117000,34.6856287200]},"properties":{"Name":"千鳥橋公園","Jusho":"大阪府大阪市此花区四貫島１-１","洪水":"","がけ崩れ、土石流及び地滑り":"","高潮":"","地震":"◎","津波":"","大規模な火事":"","内水氾濫":"","火山現象":"","指定避難所との重複":"","備考":""}},
{"type":"Feature","geometry":{"type":"Point","coordinates":[135.4414750000,34.6819278200]},"properties":{"Name":"府住宅供給公社　春日出団地","Jusho":"大阪府大阪市此花区酉島3-14-24","洪水":"◎","がけ崩れ、土石流及び地滑り":"","高潮":"","地震":"","津波":"◎","大規模な火事":"","内水氾濫":"","火山現象":"","指定避難所との重複":"","備考":""}},
{"type":"Feature","geometry":{"type":"Point","coordinates":[135.4526310000,34.6848624200]},"properties":{"Name":"四貫島西公園","Jusho":"大阪府大阪市此花区四貫島２丁目高架下","洪水":"","がけ崩れ、土石流及び地滑り":"","高潮":"","地震":"◎","津波":"","大規模な火事":"","内水氾濫":"","火山現象":"","指定避難所との重複":"","備考":""}},
{"type":"Feature","geometry":{"type":"Point","coordinates":[135.4408352000,34.6856225900]},"properties":{"Name":"コーシャハイツ酉島","Jusho":"大阪府大阪市此花区酉島4-1-1","洪水":"◎","がけ崩れ、土石流及び地滑り":"","高潮":"","地震":"","津波":"◎","大規模な火事":"","内水氾濫":"","火山現象":"","指定避難所との重複":"","備考":""}},
{"type":"Feature","geometry":{"type":"Point","coordinates":[135.4505228000,34.6824847900]},"properties":{"Name":"此花公園","Jusho":"大阪府大阪市此花区春日出北１-５","洪水":"","がけ崩れ、土石流及び地滑り":"","高潮":"","地震":"◎","津波":"","大規模な火事":"","内水氾濫":"","火山現象":"","指定避難所との重複":"","備考":""}},
{"type":"Feature","geometry":{"type":"Point","coordinates":[135.4404825000,34.6702591200]},"properties":{"Name":"リバーガーデン ＥＣＯ シティアリスの森","Jusho":"大阪府大阪市此花区島屋６-２-110","洪水":"◎","がけ崩れ、土石流及び地滑り":"","高潮":"","地震":"","津波":"◎","大規模な火事":"","内水氾濫":"","火山現象":"","指定避難所との重複":"","備考":""}},
{"type":"Feature","geometry":{"type":"Point","coordinates":[135.4518851000,34.6815035300]},"properties":{"Name":"春日出中公園","Jusho":"大阪府大阪市此花区春日出中１-26","洪水":"","がけ崩れ、土石流及び地滑り":"","高潮":"","地震":"◎","津波":"","大規模な火事":"","内水氾濫":"","火山現象":"","指定避難所との重複":"","備考":""}},
{"type":"Feature","geometry":{"type":"Point","coordinates":[135.4633303000,34.6817990700]},"properties":{"Name":"男女共同参画センター及びこども文化センター","Jusho":"大阪府大阪市此花区西九条６-１-20","洪水":"◎","がけ崩れ、土石流及び地滑り":"","高潮":"","地震":"","津波":"◎","大規模な火事":"","内水氾濫":"","火山現象":"","指定避難所との重複":"","備考":""}},
{"type":"Feature","geometry":{"type":"Point","coordinates":[135.4352615000,34.6833026800]},"properties":{"Name":"酉島公園","Jusho":"大阪府大阪市此花区酉島６-１","洪水":"","がけ崩れ、土石流及び地滑り":"","高潮":"","地震":"◎","津波":"","大規模な火事":"","内水氾濫":"","火山現象":"","指定避難所との重複":"","備考":""}},
{"type":"Feature","geometry":{"type":"Point","coordinates":[135.4440836000,34.6840277800]},"properties":{"Name":"市営秀野西住宅3号館","Jusho":"大阪府大阪市此花区酉島１-11","洪水":"◎","がけ崩れ、土石流及び地滑り":"","高潮":"","地震":"","津波":"◎","大規模な火事":"","内水氾濫":"","火山現象":"","指定避難所との重複":"","備考":""}},
{"type":"Feature","geometry":{"type":"Point","coordinates":[135.4283391000,34.6615719900]},"properties":{"Name":"桜島公園","Jusho":"大阪府大阪市此花区桜島３-５","洪水":"","がけ崩れ、土石流及び地滑り":"","高潮":"","地震":"◎","津波":"","大規模な火事":"","内水氾濫":"","火山現象":"","指定避難所との重複":"","備考":""}},
{"type":"Feature","geometry":{"type":"Point","coordinates":[135.4430639000,34.6836862400]},"properties":{"Name":"市営秀野西住宅4号館","Jusho":"大阪府大阪市此花区酉島１-16","洪水":"◎","がけ崩れ、土石流及び地滑り":"","高潮":"","地震":"","津波":"◎","大規模な火事":"","内水氾濫":"","火山現象":"","指定避難所との重複":"","備考":""}},
{"type":"Feature","geometry":{"type":"Point","coordinates":[135.4437501000,34.6848853200]},"properties":{"Name":"酉島東公園","Jusho":"大阪府大阪市此花区酉島１-７","洪水":"","がけ崩れ、土石流及び地滑り":"","高潮":"","地震":"◎","津波":"","大規模な火事":"","内水氾濫":"","火山現象":"","指定避難所との重複":"","備考":""}},
{"type":"Feature","geometry":{"type":"Point","coordinates":[135.4432475000,34.6832121000]},"properties":{"Name":"市営秀野西住宅5号館","Jusho":"大阪府大阪市此花区酉島１-17","洪水":"◎","がけ崩れ、土石流及び地滑り":"","高潮":"","地震":"","津波":"◎","大規模な火事":"","内水氾濫":"","火山現象":"","指定避難所との重複":"","備考":""}},
{"type":"Feature","geometry":{"type":"Point","coordinates":[135.4585818000,34.6914317400]},"properties":{"Name":"高見公園","Jusho":"大阪府大阪市此花区高見１-５","洪水":"","がけ崩れ、土石流及び地滑り":"","高潮":"","地震":"◎","津波":"","大規模な火事":"","内水氾濫":"","火山現象":"","指定避難所との重複":"","備考":""}},
{"type":"Feature","geometry":{"type":"Point","coordinates":[135.4644320000,34.6836569000]},"properties":{"Name":"此花会館／梅香殿","Jusho":"大阪府大阪市此花区西九条５-４-24","洪水":"◎","がけ崩れ、土石流及び地滑り":"","高潮":"","地震":"","津波":"◎","大規模な火事":"","内水氾濫":"","火山現象":"","指定避難所との重複":"","備考":""}},
{"type":"Feature","geometry":{"type":"Point","coordinates":[135.4549304000,34.6878393000]},"properties":{"Name":"伝法東公園","Jusho":"大阪府大阪市此花区伝法２-11","洪水":"","がけ崩れ、土石流及び地滑り":"","高潮":"","地震":"◎","津波":"","大規模な火事":"","内水氾濫":"","火山現象":"","指定避難所との重複":"","備考":""}},
{"type":"Feature","geometry":{"type":"Point","coordinates":[135.4384852000,34.6821377800]},"properties":{"Name":"住友電気工業株式会社 大阪製作所　浩気寮","Jusho":"大阪府大阪市此花区酉島３-23-５","洪水":"◎","がけ崩れ、土石流及び地滑り":"","高潮":"","地震":"","津波":"◎","大規模な火事":"","内水氾濫":"","火山現象":"","指定避難所との重複":"","備考":""}},
{"type":"Feature","geometry":{"type":"Point","coordinates":[135.4518494000,34.6866886700]},"properties":{"Name":"伝法南公園","Jusho":"大阪府大阪市此花区伝法４丁目高架下","洪水":"","がけ崩れ、土石流及び地滑り":"","高潮":"","地震":"◎","津波":"","大規模な火事":"","内水氾濫":"","火山現象":"","指定避難所との重複":"","備考":""}},
{"type":"Feature","geometry":{"type":"Point","coordinates":[135.4511601000,34.6863087100]},"properties":{"Name":"阪神住建グランドヴィラ此花Ⅰ","Jusho":"大阪府大阪市此花区伝法６-２-１","洪水":"◎","がけ崩れ、土石流及び地滑り":"","高潮":"","地震":"","津波":"◎","大規模な火事":"","内水氾濫":"","火山現象":"","指定避難所との重複":"","備考":""}},
{"type":"Feature","geometry":{"type":"Point","coordinates":[135.4505219000,34.6889259700]},"properties":{"Name":"伝法中公園","Jusho":"大阪府大阪市此花区伝法３丁目高架下","洪水":"","がけ崩れ、土石流及び地滑り":"","高潮":"","地震":"◎","津波":"","大規模な火事":"","内水氾濫":"","火山現象":"","指定避難所との重複":"","備考":""}},
{"type":"Feature","geometry":{"type":"Point","coordinates":[135.4493309000,34.6877520900]},"properties":{"Name":"淀川リバーサイドヴィラ","Jusho":"大阪府大阪市此花区伝法５-４-12","洪水":"◎","がけ崩れ、土石流及び地滑り":"","高潮":"","地震":"","津波":"◎","大規模な火事":"","内水氾濫":"","火山現象":"","指定避難所との重複":"","備考":""}},