var shimane={"type":"FeatureCollection","name":"shimane","features":[
{"type":"Feature","geometry":{"type":"Point","coordinates":[133.0650923000,35.4771531200]},"properties":{"Name":"母衣幼稚園","Jusho":"島根県松江市北田町273","洪水":"◎","がけ崩れ、土石流及び地滑り":"◎","高潮":"","地震":"◎","津波":"","大規模な火事":"","内水氾濫":"◎","火山現象":"","指定避難所との重複":"◎","備考":""}},
{"type":"Feature","geometry":{"type":"Point","coordinates":[133.0654946000,35.4763362100]},"properties":{"Name":"母衣小学校","Jusho":"島根県松江市北田町273","洪水":"◎","がけ崩れ、土石流及び地滑り":"◎","高潮":"","地震":"◎","津波":"","大規模な火事":"","内水氾濫":"◎","火山現象":"","指定避難所との重複":"◎","備考":""}},
{"type":"Feature","geometry":{"type":"Point","coordinates":[133.0654937000,35.4724055100]},"properties":{"Name":"松江市総合体育館","Jusho":"島根県松江市学園南1-21-1","洪水":"◎","がけ崩れ、土石流及び地滑り":"◎","高潮":"","地震":"◎","津波":"","大規模な火事":"","内水氾濫":"◎","火山現象":"","指定避難所との重複":"◎","備考":""}},
{"type":"Feature","geometry":{"type":"Point","coordinates":[133.0529982000,35.4727599700]},"properties":{"Name":"島根県民会館","Jusho":"島根県松江市殿町158","洪水":"◎","がけ崩れ、土石流及び地滑り":"◎","高潮":"","地震":"◎","津波":"","大規模な火事":"","内水氾濫":"◎","火山現象":"","指定避難所との重複":"◎","備考":""}},
{"type":"Feature","geometry":{"type":"Point","coordinates":[133.0650923000,35.4773540700]},"properties":{"Name":"城東公民館","Jusho":"島根県松江市北田町273","洪水":"◎","がけ崩れ、土石流及び地滑り":"◎","高潮":"","地震":"◎","津波":"","大規模な火事":"","内水氾濫":"◎","火山現象":"","指定避難所との重複":"◎","備考":""}},
{"type":"Feature","geometry":{"type":"Point","coordinates":[133.0560474000,35.4752950100]},"properties":{"Name":"松江商工会議所","Jusho":"島根県松江市母衣町55-4","洪水":"◎","がけ崩れ、土石流及び地滑り":"◎","高潮":"","地震":"","津波":"","大規模な火事":"","内水氾濫":"◎","火山現象":"","指定避難所との重複":"◎","備考":""}},
{"type":"Feature","geometry":{"type":"Point","coordinates":[133.0670809000,35.4694441200]},"properties":{"Name":"県立産業交流会館（くにびきメッセ）","Jusho":"島根県松江市学園南1-2-1","洪水":"◎","がけ崩れ、土石流及び地滑り":"◎","高潮":"","地震":"◎","津波":"","大規模な火事":"","内水氾濫":"◎","火山現象":"","指定避難所との重複":"◎","備考":""}},
{"type":"Feature","geometry":{"type":"Point","coordinates":[133.0669420000,35.4716540800]},"properties":{"Name":"北公園","Jusho":"島根県松江市学園南1-21-1","洪水":"◎","がけ崩れ、土石流及び地滑り":"◎","高潮":"","地震":"◎","津波":"","大規模な火事":"","内水氾濫":"◎","火山現象":"","指定避難所との重複":"","備考":""}},
{"type":"Feature","geometry":{"type":"Point","coordinates":[133.0511261000,35.4796032700]},"properties":{"Name":"県立松江北高等学校","Jusho":"島根県松江市奥谷町164","洪水":"◎","がけ崩れ、土石流及び地滑り":"◎","高潮":"","地震":"◎","津波":"","大規模な火事":"","内水氾濫":"◎","火山現象":"","指定避難所との重複":"◎","備考":""}},
{"type":"Feature","geometry":{"type":"Point","coordinates":[133.0550629000,35.4784064000]},"properties":{"Name":"城北公民館","Jusho":"島根県松江市北堀町43","洪水":"◎","がけ崩れ、土石流及び地滑り":"◎","高潮":"","地震":"◎","津波":"","大規模な火事":"","内水氾濫":"◎","火山現象":"","指定避難所との重複":"◎","備考":""}},
{"type":"Feature","geometry":{"type":"Point","coordinates":[133.0602408000,35.4803966400]},"properties":{"Name":"島根大学教育学部附属小学校","Jusho":"島根県松江市大輪町416-4","洪水":"◎","がけ崩れ、土石流及び地滑り":"◎","高潮":"","地震":"◎","津波":"","大規模な火事":"","内水氾濫":"◎","火山現象":"","指定避難所との重複":"◎","備考":""}},
{"type":"Feature","geometry":{"type":"Point","coordinates":[133.0612547000,35.4803267400]},"properties":{"Name":"島根大学教育学部附属幼稚園","Jusho":"島根県松江市大輪町416-4","洪水":"◎","がけ崩れ、土石流及び地滑り":"◎","高潮":"","地震":"◎","津波":"","大規模な火事":"","内水氾濫":"◎","火山現象":"","指定避難所との重複":"◎","備考":""}},
{"type":"Feature","geometry":{"type":"Point","coordinates":[133.0544455000,35.4854072300]},"properties":{"Name":"城北幼稚園","Jusho":"島根県松江市東奥谷町229","洪水":"◎","がけ崩れ、土石流及び地滑り":"◎","高潮":"","地震":"◎","津波":"","大規模な火事":"","内水氾濫":"◎","火山現象":"","指定避難所との重複":"◎","備考":""}},
{"type":"Feature","geometry":{"type":"Point","coordinates":[133.0540003000,35.4859095500]},"properties":{"Name":"城北小学校","Jusho":"島根県松江市東奥谷町229","洪水":"◎","がけ崩れ、土石流及び地滑り":"◎","高潮":"","地震":"◎","津波":"","大規模な火事":"","内水氾濫":"◎","火山現象":"","指定避難所との重複":"◎","備考":""}},
{"type":"Feature","geometry":{"type":"Point","coordinates":[133.0470418000,35.4722811500]},"properties":{"Name":"内中原小学校","Jusho":"島根県松江市内中原町225","洪水":"◎","がけ崩れ、土石流及び地滑り":"◎","高潮":"","地震":"◎","津波":"","大規模な火事":"","内水氾濫":"◎","火山現象":"","指定避難所との重複":"◎","備考":""}},
{"type":"Feature","geometry":{"type":"Point","coordinates":[133.0417509000,35.4707084900]},"properties":{"Name":"第一中学校","Jusho":"島根県松江市外中原町46","洪水":"◎","がけ崩れ、土石流及び地滑り":"◎","高潮":"","地震":"◎","津波":"","大規模な火事":"","内水氾濫":"◎","火山現象":"","指定避難所との重複":"◎","備考":""}},
{"type":"Feature","geometry":{"type":"Point","coordinates":[133.0458643000,35.4757087700]},"properties":{"Name":"島根県研修センター","Jusho":"島根県松江市内中原町255-1","洪水":"◎","がけ崩れ、土石流及び地滑り":"◎","高潮":"","地震":"◎","津波":"","大規模な火事":"","内水氾濫":"◎","火山現象":"","指定避難所との重複":"◎","備考":""}},
{"type":"Feature","geometry":{"type":"Point","coordinates":[133.0490840000,35.4719262100]},"properties":{"Name":"島根県立武道館","Jusho":"島根県松江市内中原町52","洪水":"◎","がけ崩れ、土石流及び地滑り":"◎","高潮":"","地震":"◎","津波":"","大規模な火事":"","内水氾濫":"◎","火山現象":"","指定避難所との重複":"◎","備考":""}},
{"type":"Feature","geometry":{"type":"Point","coordinates":[133.0410187000,35.4653776300]},"properties":{"Name":"松江市総合福祉センター","Jusho":"島根県松江市千鳥町70","洪水":"◎","がけ崩れ、土石流及び地滑り":"◎","高潮":"","地震":"◎","津波":"","大規模な火事":"","内水氾濫":"◎","火山現象":"","指定避難所との重複":"◎","備考":""}},
{"type":"Feature","geometry":{"type":"Point","coordinates":[133.0402127000,35.4667307700]},"properties":{"Name":"城西公民館","Jusho":"島根県松江市堂形町614","洪水":"◎","がけ崩れ、土石流及び地滑り":"◎","高潮":"","地震":"◎","津波":"","大規模な火事":"","内水氾濫":"◎","火山現象":"","指定避難所との重複":"◎","備考":""}},
{"type":"Feature","geometry":{"type":"Point","coordinates":[133.0485556000,35.4719851900]},"properties":{"Name":"島根県職員会館","Jusho":"島根県松江市内中原町52","洪水":"◎","がけ崩れ、土石流及び地滑り":"◎","高潮":"","地震":"◎","津波":"","大規模な火事":"","内水氾濫":"◎","火山現象":"","指定避難所との重複":"◎","備考":""}},
{"type":"Feature","geometry":{"type":"Point","coordinates":[133.0763805000,35.4859911100]},"properties":{"Name":"川津幼稚園","Jusho":"島根県松江市西川津町552","洪水":"◎","がけ崩れ、土石流及び地滑り":"◎","高潮":"","地震":"◎","津波":"","大規模な火事":"","内水氾濫":"◎","火山現象":"","指定避難所との重複":"◎","備考":""}},
{"type":"Feature","geometry":{"type":"Point","coordinates":[133.0768330000,35.4871292300]},"properties":{"Name":"川津小学校","Jusho":"島根県松江市西川津町500","洪水":"◎","がけ崩れ、土石流及び地滑り":"◎","高潮":"","地震":"◎","津波":"","大規模な火事":"","内水氾濫":"◎","火山現象":"","指定避難所との重複":"◎","備考":""}},
{"type":"Feature","geometry":{"type":"Point","coordinates":[133.0785549000,35.4795468400]},"properties":{"Name":"第二中学校","Jusho":"島根県松江市西川津町3402-1","洪水":"◎","がけ崩れ、土石流及び地滑り":"","高潮":"","地震":"◎","津波":"","大規模な火事":"","内水氾濫":"◎","火山現象":"","指定避難所との重複":"◎","備考":""}},
{"type":"Feature","geometry":{"type":"Point","coordinates":[133.0780637000,35.4816813400]},"properties":{"Name":"松江市国際交流会館（川津公民館）","Jusho":"島根県松江市西川津町3405-5","洪水":"◎","がけ崩れ、土石流及び地滑り":"◎","高潮":"","地震":"◎","津波":"","大規模な火事":"","内水氾濫":"◎","火山現象":"","指定避難所との重複":"◎","備考":""}},
{"type":"Feature","geometry":{"type":"Point","coordinates":[133.0627958000,35.4834807800]},"properties":{"Name":"菅田会館","Jusho":"島根県松江市菅田町21-2","洪水":"◎","がけ崩れ、土石流及び地滑り":"◎","高潮":"","地震":"◎","津波":"","大規模な火事":"","内水氾濫":"◎","火山現象":"","指定避難所との重複":"◎","備考":""}},
{"type":"Feature","geometry":{"type":"Point","coordinates":[133.0790778000,35.4850778200]},"properties":{"Name":"県立松江東高等学校","Jusho":"島根県松江市西川津町510","洪水":"◎","がけ崩れ、土石流及び地滑り":"","高潮":"","地震":"◎","津波":"","大規模な火事":"","内水氾濫":"◎","火山現象":"","指定避難所との重複":"◎","備考":""}},
{"type":"Feature","geometry":{"type":"Point","coordinates":[133.0672420000,35.4795539900]},"properties":{"Name":"城東保育所","Jusho":"島根県松江市学園1-10-12","洪水":"◎","がけ崩れ、土石流及び地滑り":"◎","高潮":"","地震":"◎","津波":"","大規模な火事":"","内水氾濫":"◎","火山現象":"","指定避難所との重複":"◎","備考":""}},
{"type":"Feature","geometry":{"type":"Point","coordinates":[133.0684015000,35.4852343100]},"properties":{"Name":"島根大学","Jusho":"島根県松江市西川津町1060","洪水":"◎","がけ崩れ、土石流及び地滑り":"◎","高潮":"","地震":"◎","津波":"","大規模な火事":"","内水氾濫":"◎","火山現象":"","指定避難所との重複":"◎","備考":""}},
{"type":"Feature","geometry":{"type":"Point","coordinates":[133.0621902000,35.4801619200]},"properties":{"Name":"島根大学教育学部附属中学校","Jusho":"島根県松江市菅田町167-1","洪水":"◎","がけ崩れ、土石流及び地滑り":"◎","高潮":"","地震":"◎","津波":"","大規模な火事":"","内水氾濫":"◎","火山現象":"","指定避難所との重複":"◎","備考":""}},
{"type":"Feature","geometry":{"type":"Point","coordinates":[133.0749060000,35.4784022600]},"properties":{"Name":"楽山公園","Jusho":"島根県松江市西川津町3386-1","洪水":"◎","がけ崩れ、土石流及び地滑り":"◎","高潮":"","地震":"◎","津波":"","大規模な火事":"","内水氾濫":"◎","火山現象":"","指定避難所との重複":"","備考":""}},
{"type":"Feature","geometry":{"type":"Point","coordinates":[133.1048110000,35.4659369000]},"properties":{"Name":"朝酌幼稚園","Jusho":"島根県松江市朝酌町121-2","洪水":"◎","がけ崩れ、土石流及び地滑り":"◎","高潮":"","地震":"◎","津波":"","大規模な火事":"","内水氾濫":"◎","火山現象":"","指定避難所との重複":"◎","備考":""}},
{"type":"Feature","geometry":{"type":"Point","coordinates":[133.1046662000,35.4653164800]},"properties":{"Name":"朝酌小学校","Jusho":"島根県松江市朝酌町115","洪水":"◎","がけ崩れ、土石流及び地滑り":"◎","高潮":"","地震":"◎","津波":"","大規模な火事":"","内水氾濫":"◎","火山現象":"","指定避難所との重複":"◎","備考":""}},
{"type":"Feature","geometry":{"type":"Point","coordinates":[133.1028979000,35.4647413600]},"properties":{"Name":"朝酌公民館","Jusho":"島根県松江市朝酌町92-1","洪水":"◎","がけ崩れ、土石流及び地滑り":"◎","高潮":"","地震":"◎","津波":"","大規模な火事":"","内水氾濫":"◎","火山現象":"","指定避難所との重複":"◎","備考":""}},
{"type":"Feature","geometry":{"type":"Point","coordinates":[133.0911927000,35.4693722600]},"properties":{"Name":"市立女子高等学校","Jusho":"島根県松江市西尾町540-1","洪水":"◎","がけ崩れ、土石流及び地滑り":"◎","高潮":"","地震":"◎","津波":"","大規模な火事":"","内水氾濫":"◎","火山現象":"","指定避難所との重複":"◎","備考":""}},
{"type":"Feature","geometry":{"type":"Point","coordinates":[133.0348780000,35.4877045800]},"properties":{"Name":"法吉小学校","Jusho":"島根県松江市比津町532","洪水":"◎","がけ崩れ、土石流及び地滑り":"","高潮":"","地震":"◎","津波":"","大規模な火事":"","内水氾濫":"◎","火山現象":"","指定避難所との重複":"◎","備考":""}},
{"type":"Feature","geometry":{"type":"Point","coordinates":[133.0349884000,35.4861667900]},"properties":{"Name":"法吉公民館","Jusho":"島根県松江市比津町308-4","洪水":"◎","がけ崩れ、土石流及び地滑り":"◎","高潮":"","地震":"◎","津波":"","大規模な火事":"","内水氾濫":"◎","火山現象":"","指定避難所との重複":"◎","備考":""}},
{"type":"Feature","geometry":{"type":"Point","coordinates":[133.0461946000,35.4849534100]},"properties":{"Name":"法吉保育所","Jusho":"島根県松江市春日町489-1","洪水":"◎","がけ崩れ、土石流及び地滑り":"◎","高潮":"","地震":"◎","津波":"","大規模な火事":"","内水氾濫":"◎","火山現象":"","指定避難所との重複":"◎","備考":""}},
{"type":"Feature","geometry":{"type":"Point","coordinates":[133.0392238000,35.4932622100]},"properties":{"Name":"比津ヶ丘保育園","Jusho":"島根県松江市比津が丘4-2-34","洪水":"◎","がけ崩れ、土石流及び地滑り":"◎","高潮":"","地震":"◎","津波":"","大規模な火事":"","内水氾濫":"◎","火山現象":"","指定避難所との重複":"◎","備考":""}},
{"type":"Feature","geometry":{"type":"Point","coordinates":[133.0258152000,35.4951221600]},"properties":{"Name":"生馬幼稚園","Jusho":"島根県松江市西生馬町8","洪水":"◎","がけ崩れ、土石流及び地滑り":"◎","高潮":"","地震":"◎","津波":"","大規模な火事":"","内水氾濫":"◎","火山現象":"","指定避難所との重複":"◎","備考":""}},
{"type":"Feature","geometry":{"type":"Point","coordinates":[133.0258776000,35.4948453700]},"properties":{"Name":"生馬小学校","Jusho":"島根県松江市西生馬町8","洪水":"◎","がけ崩れ、土石流及び地滑り":"◎","高潮":"","地震":"◎","津波":"","大規模な火事":"","内水氾濫":"◎","火山現象":"","指定避難所との重複":"◎","備考":""}},
{"type":"Feature","geometry":{"type":"Point","coordinates":[133.0271657000,35.4945129000]},"properties":{"Name":"生馬公民館","Jusho":"島根県松江市西生馬町8","洪水":"◎","がけ崩れ、土石流及び地滑り":"◎","高潮":"","地震":"◎","津波":"","大規模な火事":"","内水氾濫":"◎","火山現象":"","指定避難所との重複":"◎","備考":""}},
{"type":"Feature","geometry":{"type":"Point","coordinates":[133.0258612000,35.4959609800]},"properties":{"Name":"松江工業高等専門学校","Jusho":"島根県松江市西生馬町14-4","洪水":"◎","がけ崩れ、土石流及び地滑り":"◎","高潮":"","地震":"◎","津波":"","大規模な火事":"","内水氾濫":"◎","火山現象":"","指定避難所との重複":"◎","備考":""}},
{"type":"Feature","geometry":{"type":"Point","coordinates":[133.0795066000,35.5013858000]},"properties":{"Name":"持田幼稚園","Jusho":"島根県松江市東持田町81","洪水":"◎","がけ崩れ、土石流及び地滑り":"◎","高潮":"","地震":"◎","津波":"","大規模な火事":"","内水氾濫":"◎","火山現象":"","指定避難所との重複":"◎","備考":""}},
{"type":"Feature","geometry":{"type":"Point","coordinates":[133.0797476000,35.5009247000]},"properties":{"Name":"持田小学校","Jusho":"島根県松江市東持田町81","洪水":"◎","がけ崩れ、土石流及び地滑り":"◎","高潮":"","地震":"◎","津波":"","大規模な火事":"","内水氾濫":"◎","火山現象":"","指定避難所との重複":"◎","備考":""}},
{"type":"Feature","geometry":{"type":"Point","coordinates":[133.0802829000,35.4982371000]},"properties":{"Name":"持田公民館","Jusho":"島根県松江市東持田町61","洪水":"◎","がけ崩れ、土石流及び地滑り":"◎","高潮":"","地震":"◎","津波":"","大規模な火事":"","内水氾濫":"◎","火山現象":"","指定避難所との重複":"◎","備考":""}},
{"type":"Feature","geometry":{"type":"Point","coordinates":[133.1073671000,35.5090973100]},"properties":{"Name":"福原会館","Jusho":"島根県松江市福原町691-4","洪水":"◎","がけ崩れ、土石流及び地滑り":"◎","高潮":"","地震":"◎","津波":"","大規模な火事":"","内水氾濫":"◎","火山現象":"","指定避難所との重複":"◎","備考":""}},
{"type":"Feature","geometry":{"type":"Point","coordinates":[133.1326236000,35.5148094900]},"properties":{"Name":"本庄小学校","Jusho":"島根県松江市邑生町76-3","洪水":"◎","がけ崩れ、土石流及び地滑り":"◎","高潮":"","地震":"◎","津波":"","大規模な火事":"","内水氾濫":"◎","火山現象":"","指定避難所との重複":"◎","備考":""}},
{"type":"Feature","geometry":{"type":"Point","coordinates":[133.1356337000,35.5152245100]},"properties":{"Name":"本庄中学校","Jusho":"島根県松江市野原町424-2","洪水":"◎","がけ崩れ、土石流及び地滑り":"","高潮":"","地震":"◎","津波":"","大規模な火事":"","内水氾濫":"◎","火山現象":"","指定避難所との重複":"◎","備考":""}},
{"type":"Feature","geometry":{"type":"Point","coordinates":[133.1285261000,35.5114083900]},"properties":{"Name":"本庄公民館","Jusho":"島根県松江市本庄町463-3","洪水":"◎","がけ崩れ、土石流及び地滑り":"◎","高潮":"","地震":"◎","津波":"","大規模な火事":"","内水氾濫":"◎","火山現象":"","指定避難所との重複":"◎","備考":""}},
{"type":"Feature","geometry":{"type":"Point","coordinates":[132.9997755000,35.4848724000]},"properties":{"Name":"古江幼稚園","Jusho":"島根県松江市古曽志町896-5","洪水":"◎","がけ崩れ、土石流及び地滑り":"","高潮":"","地震":"◎","津波":"","大規模な火事":"","内水氾濫":"◎","火山現象":"","指定避難所との重複":"◎","備考":""}},
{"type":"Feature","geometry":{"type":"Point","coordinates":[132.9992943000,35.4855310800]},"properties":{"Name":"古江小学校","Jusho":"島根県松江市古曽志町1759","洪水":"◎","がけ崩れ、土石流及び地滑り":"","高潮":"","地震":"◎","津波":"","大規模な火事":"","内水氾濫":"◎","火山現象":"","指定避難所との重複":"◎","備考":""}},
{"type":"Feature","geometry":{"type":"Point","coordinates":[132.9736906000,35.4899795300]},"properties":{"Name":"旧長江小学校","Jusho":"島根県松江市東長江町259-2","洪水":"◎","がけ崩れ、土石流及び地滑り":"◎","高潮":"","地震":"◎","津波":"","大規模な火事":"","内水氾濫":"◎","火山現象":"","指定避難所との重複":"◎","備考":""}},
{"type":"Feature","geometry":{"type":"Point","coordinates":[133.0045709764,35.4769813184]},"properties":{"Name":"古江公民館","Jusho":"島根県松江市西浜佐陀町288-1","洪水":"◎","がけ崩れ、土石流及び地滑り":"◎","高潮":"","地震":"◎","津波":"","大規模な火事":"","内水氾濫":"◎","火山現象":"","指定避難所との重複":"◎","備考":""}},
{"type":"Feature","geometry":{"type":"Point","coordinates":[133.0203110000,35.4777020000]},"properties":{"Name":"松江海洋センター","Jusho":"島根県松江市西浜佐陀町1012","洪水":"◎","がけ崩れ、土石流及び地滑り":"◎","高潮":"","地震":"","津波":"","大規模な火事":"","内水氾濫":"◎","火山現象":"","指定避難所との重複":"◎","備考":""}},
{"type":"Feature","geometry":{"type":"Point","coordinates":[132.9832239000,35.4802809300]},"properties":{"Name":"湖北中学校","Jusho":"島根県松江市打出町245-1","洪水":"◎","がけ崩れ、土石流及び地滑り":"◎","高潮":"","地震":"◎","津波":"","大規模な火事":"","内水氾濫":"◎","火山現象":"","指定避難所との重複":"◎","備考":""}},
{"type":"Feature","geometry":{"type":"Point","coordinates":[132.9206193000,35.4921245700]},"properties":{"Name":"大野幼稚園","Jusho":"島根県松江市上大野町1810-1","洪水":"◎","がけ崩れ、土石流及び地滑り":"","高潮":"","地震":"◎","津波":"","大規模な火事":"","内水氾濫":"◎","火山現象":"","指定避難所との重複":"◎","備考":""}},
{"type":"Feature","geometry":{"type":"Point","coordinates":[132.9209470000,35.4917435000]},"properties":{"Name":"大野小学校","Jusho":"島根県松江市上大野町1826","洪水":"◎","がけ崩れ、土石流及び地滑り":"◎","高潮":"","地震":"◎","津波":"","大規模な火事":"","内水氾濫":"◎","火山現象":"","指定避難所との重複":"◎","備考":""}},
{"type":"Feature","geometry":{"type":"Point","coordinates":[132.9187446000,35.4745405300]},"properties":{"Name":"松江総合医療専門学校","Jusho":"島根県松江市上大野町2081-4","洪水":"◎","がけ崩れ、土石流及び地滑り":"◎","高潮":"","地震":"◎","津波":"","大規模な火事":"","内水氾濫":"◎","火山現象":"","指定避難所との重複":"◎","備考":""}},
{"type":"Feature","geometry":{"type":"Point","coordinates":[132.9216276000,35.5154122200]},"properties":{"Name":"魚瀬自治集会所","Jusho":"島根県松江市魚瀬町656-25","洪水":"◎","がけ崩れ、土石流及び地滑り":"","高潮":"","地震":"◎","津波":"","大規模な火事":"","内水氾濫":"◎","火山現象":"","指定避難所との重複":"◎","備考":""}},
{"type":"Feature","geometry":{"type":"Point","coordinates":[132.9219388000,35.5154515200]},"properties":{"Name":"魚瀬世代間交流会館","Jusho":"島根県松江市魚瀬町656-25","洪水":"◎","がけ崩れ、土石流及び地滑り":"","高潮":"","地震":"◎","津波":"","大規模な火事":"","内水氾濫":"◎","火山現象":"","指定避難所との重複":"◎","備考":""}},
{"type":"Feature","geometry":{"type":"Point","coordinates":[132.9206405000,35.4886874200]},"properties":{"Name":"大野公民館","Jusho":"島根県松江市上大野町1855-1","洪水":"◎","がけ崩れ、土石流及び地滑り":"","高潮":"","地震":"◎","津波":"","大規模な火事":"","内水氾濫":"◎","火山現象":"","指定避難所との重複":"◎","備考":""}},
{"type":"Feature","geometry":{"type":"Point","coordinates":[132.9484036000,35.4807975000]},"properties":{"Name":"秋鹿幼稚園","Jusho":"島根県松江市岡本町992-1","洪水":"◎","がけ崩れ、土石流及び地滑り":"◎","高潮":"","地震":"◎","津波":"","大規模な火事":"","内水氾濫":"◎","火山現象":"","指定避難所との重複":"◎","備考":""}},
{"type":"Feature","geometry":{"type":"Point","coordinates":[132.9460895000,35.5058069300]},"properties":{"Name":"旧中島小学校","Jusho":"島根県松江市秋鹿町636","洪水":"◎","がけ崩れ、土石流及び地滑り":"","高潮":"","地震":"","津波":"","大規模な火事":"","内水氾濫":"◎","火山現象":"","指定避難所との重複":"◎","備考":""}},
{"type":"Feature","geometry":{"type":"Point","coordinates":[132.9489507000,35.4806664600]},"properties":{"Name":"秋鹿小学校","Jusho":"島根県松江市岡本町992-1","洪水":"◎","がけ崩れ、土石流及び地滑り":"◎","高潮":"","地震":"◎","津波":"","大規模な火事":"","内水氾濫":"◎","火山現象":"","指定避難所との重複":"◎","備考":""}},
{"type":"Feature","geometry":{"type":"Point","coordinates":[132.9493490000,35.4763780000]},"properties":{"Name":"秋鹿公民館","Jusho":"島根県松江市岡本町70","洪水":"◎","がけ崩れ、土石流及び地滑り":"","高潮":"","地震":"◎","津波":"","大規模な火事":"","内水氾濫":"◎","火山現象":"","指定避難所との重複":"◎","備考":""}},
{"type":"Feature","geometry":{"type":"Point","coordinates":[133.0549498000,35.4628604700]},"properties":{"Name":"白潟公民館","Jusho":"島根県松江市灘町1-57","洪水":"◎","がけ崩れ、土石流及び地滑り":"◎","高潮":"","地震":"◎","津波":"","大規模な火事":"","内水氾濫":"◎","火山現象":"","指定避難所との重複":"◎","備考":""}},
{"type":"Feature","geometry":{"type":"Point","coordinates":[133.0549283000,35.4629566000]},"properties":{"Name":"白潟保育所","Jusho":"島根県松江市灘町1-57","洪水":"◎","がけ崩れ、土石流及び地滑り":"◎","高潮":"","地震":"◎","津波":"","大規模な火事":"","内水氾濫":"◎","火山現象":"","指定避難所との重複":"◎","備考":""}},
{"type":"Feature","geometry":{"type":"Point","coordinates":[133.0559467000,35.4652635600]},"properties":{"Name":"松江市市民活動センター","Jusho":"島根県松江市白潟本町43","洪水":"◎","がけ崩れ、土石流及び地滑り":"◎","高潮":"","地震":"◎","津波":"","大規模な火事":"","内水氾濫":"◎","火山現象":"","指定避難所との重複":"◎","備考":""}},
{"type":"Feature","geometry":{"type":"Point","coordinates":[133.0489251000,35.4525170000]},"properties":{"Name":"松江卸センター会館","Jusho":"島根県松江市嫁島町16-14","洪水":"◎","がけ崩れ、土石流及び地滑り":"◎","高潮":"","地震":"","津波":"","大規模な火事":"","内水氾濫":"◎","火山現象":"","指定避難所との重複":"◎","備考":""}},
{"type":"Feature","geometry":{"type":"Point","coordinates":[133.0634300000,35.4615730700]},"properties":{"Name":"中央幼稚園","Jusho":"島根県松江市大正町398","洪水":"◎","がけ崩れ、土石流及び地滑り":"◎","高潮":"","地震":"◎","津波":"","大規模な火事":"","内水氾濫":"◎","火山現象":"","指定避難所との重複":"◎","備考":""}},
{"type":"Feature","geometry":{"type":"Point","coordinates":[133.0636553000,35.4614987900]},"properties":{"Name":"中央小学校","Jusho":"島根県松江市大正町398","洪水":"◎","がけ崩れ、土石流及び地滑り":"◎","高潮":"","地震":"◎","津波":"","大規模な火事":"","内水氾濫":"◎","火山現象":"","指定避難所との重複":"◎","備考":""}},
{"type":"Feature","geometry":{"type":"Point","coordinates":[133.0698096000,35.4619060900]},"properties":{"Name":"第三中学校","Jusho":"島根県松江市東朝日町14","洪水":"◎","がけ崩れ、土石流及び地滑り":"◎","高潮":"","地震":"◎","津波":"","大規模な火事":"","内水氾濫":"◎","火山現象":"","指定避難所との重複":"◎","備考":""}},
{"type":"Feature","geometry":{"type":"Point","coordinates":[133.0703550000,35.4619395600]},"properties":{"Name":"朝日公民館","Jusho":"島根県松江市東朝日町49","洪水":"◎","がけ崩れ、土石流及び地滑り":"◎","高潮":"","地震":"◎","津波":"","大規模な火事":"","内水氾濫":"◎","火山現象":"","指定避難所との重複":"◎","備考":""}},
{"type":"Feature","geometry":{"type":"Point","coordinates":[133.0636119000,35.4572919200]},"properties":{"Name":"雑賀幼稚園","Jusho":"島根県松江市雑賀町850","洪水":"◎","がけ崩れ、土石流及び地滑り":"","高潮":"","地震":"◎","津波":"","大規模な火事":"","内水氾濫":"◎","火山現象":"","指定避難所との重複":"◎","備考":""}},
{"type":"Feature","geometry":{"type":"Point","coordinates":[133.0610024000,35.4568897200]},"properties":{"Name":"雑賀小学校","Jusho":"島根県松江市雑賀町586","洪水":"◎","がけ崩れ、土石流及び地滑り":"◎","高潮":"","地震":"◎","津波":"","大規模な火事":"","内水氾濫":"◎","火山現象":"","指定避難所との重複":"◎","備考":""}},
{"type":"Feature","geometry":{"type":"Point","coordinates":[133.0610451000,35.4564210000]},"properties":{"Name":"雑賀公民館","Jusho":"島根県松江市雑賀町677","洪水":"◎","がけ崩れ、土石流及び地滑り":"◎","高潮":"","地震":"◎","津波":"","大規模な火事":"","内水氾濫":"◎","火山現象":"","指定避難所との重複":"◎","備考":""}},
{"type":"Feature","geometry":{"type":"Point","coordinates":[133.0538314000,35.4545654600]},"properties":{"Name":"松尾会館","Jusho":"島根県松江市松尾町678-7","洪水":"◎","がけ崩れ、土石流及び地滑り":"","高潮":"","地震":"◎","津波":"","大規模な火事":"","内水氾濫":"◎","火山現象":"","指定避難所との重複":"◎","備考":""}},
{"type":"Feature","geometry":{"type":"Point","coordinates":[133.0570306000,35.4535155600]},"properties":{"Name":"松徳学院高等学校","Jusho":"島根県松江市上乃木1-14-51","洪水":"◎","がけ崩れ、土石流及び地滑り":"","高潮":"","地震":"◎","津波":"","大規模な火事":"","内水氾濫":"◎","火山現象":"","指定避難所との重複":"◎","備考":""}},
{"type":"Feature","geometry":{"type":"Point","coordinates":[133.0570467000,35.4534194300]},"properties":{"Name":"松徳学院中学校","Jusho":"島根県松江市上乃木1-14-51","洪水":"◎","がけ崩れ、土石流及び地滑り":"","高潮":"","地震":"◎","津波":"","大規模な火事":"","内水氾濫":"◎","火山現象":"","指定避難所との重複":"◎","備考":""}},
{"type":"Feature","geometry":{"type":"Point","coordinates":[133.0814820000,35.4570260900]},"properties":{"Name":"津田幼稚園","Jusho":"島根県松江市東津田町1189-1","洪水":"◎","がけ崩れ、土石流及び地滑り":"◎","高潮":"","地震":"◎","津波":"","大規模な火事":"","内水氾濫":"◎","火山現象":"","指定避難所との重複":"◎","備考":""}},
{"type":"Feature","geometry":{"type":"Point","coordinates":[133.0822486000,35.4573643100]},"properties":{"Name":"津田小学校","Jusho":"島根県松江市東津田町1166","洪水":"◎","がけ崩れ、土石流及び地滑り":"◎","高潮":"","地震":"◎","津波":"","大規模な火事":"","内水氾濫":"◎","火山現象":"","指定避難所との重複":"◎","備考":""}},
{"type":"Feature","geometry":{"type":"Point","coordinates":[133.0769982000,35.4508721800]},"properties":{"Name":"第四中学校","Jusho":"島根県松江市西津田10-20-1","洪水":"◎","がけ崩れ、土石流及び地滑り":"","高潮":"","地震":"◎","津波":"","大規模な火事":"","内水氾濫":"◎","火山現象":"","指定避難所との重複":"◎","備考":""}},
{"type":"Feature","geometry":{"type":"Point","coordinates":[133.0818897000,35.4569649200]},"properties":{"Name":"津田公民館","Jusho":"島根県松江市東津田町1189-1","洪水":"◎","がけ崩れ、土石流及び地滑り":"◎","高潮":"","地震":"◎","津波":"","大規模な火事":"","内水氾濫":"◎","火山現象":"","指定避難所との重複":"◎","備考":""}},
{"type":"Feature","geometry":{"type":"Point","coordinates":[133.0689867000,35.4584350100]},"properties":{"Name":"総合文化センター（プラバホール）","Jusho":"島根県松江市西津田6-5-44","洪水":"◎","がけ崩れ、土石流及び地滑り":"◎","高潮":"","地震":"◎","津波":"","大規模な火事":"","内水氾濫":"◎","火山現象":"","指定避難所との重複":"◎","備考":""}},
{"type":"Feature","geometry":{"type":"Point","coordinates":[133.0715172000,35.4523507200]},"properties":{"Name":"開星高等学校","Jusho":"島根県松江市西津田9-11-1","洪水":"◎","がけ崩れ、土石流及び地滑り":"","高潮":"","地震":"◎","津波":"","大規模な火事":"","内水氾濫":"◎","火山現象":"","指定避難所との重複":"◎","備考":""}},
{"type":"Feature","geometry":{"type":"Point","coordinates":[133.0716298000,35.4523114000]},"properties":{"Name":"開星中学校","Jusho":"島根県松江市西津田9-11-1","洪水":"◎","がけ崩れ、土石流及び地滑り":"","高潮":"","地震":"◎","津波":"","大規模な火事":"","内水氾濫":"◎","火山現象":"","指定避難所との重複":"◎","備考":""}},
{"type":"Feature","geometry":{"type":"Point","coordinates":[133.0741400000,35.4410480000]},"properties":{"Name":"古志原幼稚園","Jusho":"島根県松江市古志原4-6-17","洪水":"◎","がけ崩れ、土石流及び地滑り":"◎","高潮":"","地震":"◎","津波":"","大規模な火事":"","内水氾濫":"◎","火山現象":"","指定避難所との重複":"◎","備考":""}},
{"type":"Feature","geometry":{"type":"Point","coordinates":[133.0752276000,35.4414971000]},"properties":{"Name":"古志原小学校","Jusho":"島根県松江市古志原4-6-1","洪水":"◎","がけ崩れ、土石流及び地滑り":"◎","高潮":"","地震":"◎","津波":"","大規模な火事":"","内水氾濫":"◎","火山現象":"","指定避難所との重複":"◎","備考":""}},
{"type":"Feature","geometry":{"type":"Point","coordinates":[133.0752114000,35.4431902400]},"properties":{"Name":"県立松江工業高等学校","Jusho":"島根県松江市古志原4-1-10","洪水":"◎","がけ崩れ、土石流及び地滑り":"◎","高潮":"","地震":"◎","津波":"","大規模な火事":"","内水氾濫":"◎","火山現象":"","指定避難所との重複":"◎","備考":""}},
{"type":"Feature","geometry":{"type":"Point","coordinates":[133.0695454000,35.4395739900]},"properties":{"Name":"県立松江南高等学校","Jusho":"島根県松江市八雲台1-1-1","洪水":"◎","がけ崩れ、土石流及び地滑り":"◎","高潮":"","地震":"◎","津波":"","大規模な火事":"","内水氾濫":"◎","火山現象":"","指定避難所との重複":"◎","備考":""}},
{"type":"Feature","geometry":{"type":"Point","coordinates":[133.0740100000,35.4405660000]},"properties":{"Name":"古志原公民館","Jusho":"島根県松江市古志原4-6-30","洪水":"◎","がけ崩れ、土石流及び地滑り":"◎","高潮":"","地震":"◎","津波":"","大規模な火事":"","内水氾濫":"◎","火山現象":"","指定避難所との重複":"◎","備考":""}},
{"type":"Feature","geometry":{"type":"Point","coordinates":[133.0805300000,35.4455596700]},"properties":{"Name":"ふたば古志原こども園","Jusho":"島根県松江市古志原3-4-35","洪水":"◎","がけ崩れ、土石流及び地滑り":"◎","高潮":"","地震":"◎","津波":"","大規模な火事":"","内水氾濫":"◎","火山現象":"","指定避難所との重複":"◎","備考":""}},
{"type":"Feature","geometry":{"type":"Point","coordinates":[133.1181316000,35.4458041900]},"properties":{"Name":"竹矢幼稚園","Jusho":"島根県松江市八幡町379-1","洪水":"◎","がけ崩れ、土石流及び地滑り":"◎","高潮":"","地震":"◎","津波":"","大規模な火事":"","内水氾濫":"◎","火山現象":"","指定避難所との重複":"◎","備考":""}},
{"type":"Feature","geometry":{"type":"Point","coordinates":[133.1185232000,35.4450743600]},"properties":{"Name":"竹矢小学校","Jusho":"島根県松江市八幡町379-1","洪水":"◎","がけ崩れ、土石流及び地滑り":"◎","高潮":"","地震":"◎","津波":"","大規模な火事":"","内水氾濫":"◎","火山現象":"","指定避難所との重複":"◎","備考":""}},
{"type":"Feature","geometry":{"type":"Point","coordinates":[133.1178593000,35.4409458100]},"properties":{"Name":"竹矢公民館","Jusho":"島根県松江市八幡町279-1","洪水":"◎","がけ崩れ、土石流及び地滑り":"◎","高潮":"","地震":"◎","津波":"","大規模な火事":"","内水氾濫":"◎","火山現象":"","指定避難所との重複":"◎","備考":""}},
{"type":"Feature","geometry":{"type":"Point","coordinates":[133.0960780000,35.4435196800]},"properties":{"Name":"矢田体育館","Jusho":"島根県松江市矢田町250-18","洪水":"◎","がけ崩れ、土石流及び地滑り":"◎","高潮":"","地震":"◎","津波":"","大規模な火事":"","内水氾濫":"◎","火山現象":"","指定避難所との重複":"◎","備考":""}},
{"type":"Feature","geometry":{"type":"Point","coordinates":[133.0545751000,35.4447922200]},"properties":{"Name":"乃木小学校","Jusho":"島根県松江市浜乃木5-1-10","洪水":"◎","がけ崩れ、土石流及び地滑り":"◎","高潮":"","地震":"◎","津波":"","大規模な火事":"","内水氾濫":"◎","火山現象":"","指定避難所との重複":"◎","備考":""}},
{"type":"Feature","geometry":{"type":"Point","coordinates":[133.0579058000,35.4350046300]},"properties":{"Name":"湖南中学校","Jusho":"島根県松江市浜乃木8-2-60","洪水":"◎","がけ崩れ、土石流及び地滑り":"◎","高潮":"","地震":"◎","津波":"","大規模な火事":"","内水氾濫":"◎","火山現象":"","指定避難所との重複":"◎","備考":""}},
{"type":"Feature","geometry":{"type":"Point","coordinates":[133.0575784000,35.4368913200]},"properties":{"Name":"県立松江商業高等学校","Jusho":"島根県松江市浜乃木8-1-1","洪水":"◎","がけ崩れ、土石流及び地滑り":"◎","高潮":"","地震":"◎","津波":"","大規模な火事":"","内水氾濫":"◎","火山現象":"","指定避難所との重複":"◎","備考":""}},
{"type":"Feature","geometry":{"type":"Point","coordinates":[133.0478656000,35.4405078800]},"properties":{"Name":"県立松江農林高等学校","Jusho":"島根県松江市乃木福富町51","洪水":"◎","がけ崩れ、土石流及び地滑り":"◎","高潮":"","地震":"◎","津波":"","大規模な火事":"","内水氾濫":"◎","火山現象":"","指定避難所との重複":"◎","備考":""}},
{"type":"Feature","geometry":{"type":"Point","coordinates":[133.0550360000,35.4457910700]},"properties":{"Name":"乃木公民館","Jusho":"島根県松江市浜乃木5-1-5","洪水":"◎","がけ崩れ、土石流及び地滑り":"◎","高潮":"","地震":"◎","津波":"","大規模な火事":"","内水氾濫":"◎","火山現象":"","指定避難所との重複":"◎","備考":""}},
{"type":"Feature","geometry":{"type":"Point","coordinates":[133.0423354000,35.4364871600]},"properties":{"Name":"県立松江養護学校　乃木校舎","Jusho":"島根県松江市乃木福富町733-2","洪水":"◎","がけ崩れ、土石流及び地滑り":"","高潮":"","地震":"◎","津波":"","大規模な火事":"","内水氾濫":"◎","火山現象":"","指定避難所との重複":"◎","備考":""}},
{"type":"Feature","geometry":{"type":"Point","coordinates":[133.0684114000,35.4464381400]},"properties":{"Name":"県立はつらつ体育館","Jusho":"島根県松江市上乃木7-1-27","洪水":"◎","がけ崩れ、土石流及び地滑り":"◎","高潮":"","地震":"◎","津波":"","大規模な火事":"","内水氾濫":"◎","火山現象":"","指定避難所との重複":"◎","備考":""}},
{"type":"Feature","geometry":{"type":"Point","coordinates":[133.0580215000,35.4479226200]},"properties":{"Name":"松江西高等学校","Jusho":"島根県松江市上乃木3-21-10","洪水":"◎","がけ崩れ、土石流及び地滑り":"◎","高潮":"","地震":"◎","津波":"","大規模な火事":"","内水氾濫":"◎","火山現象":"","指定避難所との重複":"◎","備考":""}},
{"type":"Feature","geometry":{"type":"Point","coordinates":[133.0604393000,35.4394138600]},"properties":{"Name":"県立大学短期大学部松江キャンパス","Jusho":"島根県松江市浜乃木7-24-2","洪水":"◎","がけ崩れ、土石流及び地滑り":"","高潮":"","地震":"◎","津波":"","大規模な火事":"","内水氾濫":"◎","火山現象":"","指定避難所との重複":"◎","備考":""}},
{"type":"Feature","geometry":{"type":"Point","coordinates":[133.0642152000,35.4371209700]},"properties":{"Name":"松江総合運動公園","Jusho":"島根県松江市上乃木10-4-1","洪水":"◎","がけ崩れ、土石流及び地滑り":"◎","高潮":"","地震":"◎","津波":"","大規模な火事":"","内水氾濫":"◎","火山現象":"","指定避難所との重複":"","備考":""}},
{"type":"Feature","geometry":{"type":"Point","coordinates":[133.0532810000,35.4415480000]},"properties":{"Name":"幼保園のぎ","Jusho":"島根県松江市田和山町108","洪水":"◎","がけ崩れ、土石流及び地滑り":"◎","高潮":"","地震":"◎","津波":"","大規模な火事":"","内水氾濫":"◎","火山現象":"","指定避難所との重複":"◎","備考":""}},
{"type":"Feature","geometry":{"type":"Point","coordinates":[133.0832583000,35.4312021300]},"properties":{"Name":"大庭幼稚園","Jusho":"島根県松江市大庭町808-1","洪水":"◎","がけ崩れ、土石流及び地滑り":"◎","高潮":"","地震":"◎","津波":"","大規模な火事":"","内水氾濫":"◎","火山現象":"","指定避難所との重複":"◎","備考":""}},
{"type":"Feature","geometry":{"type":"Point","coordinates":[133.0802719000,35.4316841800]},"properties":{"Name":"大庭小学校","Jusho":"島根県松江市大庭町1074","洪水":"◎","がけ崩れ、土石流及び地滑り":"◎","高潮":"","地震":"◎","津波":"","大規模な火事":"","内水氾濫":"◎","火山現象":"","指定避難所との重複":"◎","備考":""}},
{"type":"Feature","geometry":{"type":"Point","coordinates":[133.0904823000,35.4411589600]},"properties":{"Name":"湖東中学校","Jusho":"島根県松江市山代町680","洪水":"◎","がけ崩れ、土石流及び地滑り":"◎","高潮":"","地震":"◎","津波":"","大規模な火事":"","内水氾濫":"◎","火山現象":"","指定避難所との重複":"◎","備考":""}},
{"type":"Feature","geometry":{"type":"Point","coordinates":[133.0832325000,35.4315870900]},"properties":{"Name":"大庭公民館","Jusho":"島根県松江市大庭町805-3","洪水":"◎","がけ崩れ、土石流及び地滑り":"◎","高潮":"","地震":"◎","津波":"","大規模な火事":"","内水氾濫":"◎","火山現象":"","指定避難所との重複":"◎","備考":""}},
{"type":"Feature","geometry":{"type":"Point","coordinates":[133.0617250000,35.4324170000]},"properties":{"Name":"サンライフ松江","Jusho":"島根県松江市大庭町1751-14","洪水":"◎","がけ崩れ、土石流及び地滑り":"◎","高潮":"","地震":"◎","津波":"","大規模な火事":"","内水氾濫":"◎","火山現象":"","指定避難所との重複":"◎","備考":""}},
{"type":"Feature","geometry":{"type":"Point","coordinates":[133.0308292000,35.3998074400]},"properties":{"Name":"忌部幼稚園","Jusho":"島根県松江市東忌部町915-1","洪水":"◎","がけ崩れ、土石流及び地滑り":"◎","高潮":"","地震":"◎","津波":"","大規模な火事":"","内水氾濫":"◎","火山現象":"","指定避難所との重複":"◎","備考":""}},
{"type":"Feature","geometry":{"type":"Point","coordinates":[133.0305932000,35.3998817700]},"properties":{"Name":"忌部小学校","Jusho":"島根県松江市東忌部町915-1","洪水":"◎","がけ崩れ、土石流及び地滑り":"◎","高潮":"","地震":"◎","津波":"","大規模な火事":"","内水氾濫":"◎","火山現象":"","指定避難所との重複":"◎","備考":""}},
{"type":"Feature","geometry":{"type":"Point","coordinates":[133.0322683000,35.4010757400]},"properties":{"Name":"忌部公民館","Jusho":"島根県松江市東忌部町899","洪水":"◎","がけ崩れ、土石流及び地滑り":"◎","高潮":"","地震":"◎","津波":"","大規模な火事":"","内水氾濫":"◎","火山現象":"","指定避難所との重複":"◎","備考":""}},
{"type":"Feature","geometry":{"type":"Point","coordinates":[132.9867144000,35.5278284200]},"properties":{"Name":"鹿島総合体育館（ニューウェーブ）","Jusho":"島根県松江市鹿島町佐陀本郷76","洪水":"◎","がけ崩れ、土石流及び地滑り":"◎","高潮":"","地震":"◎","津波":"","大規模な火事":"","内水氾濫":"◎","火山現象":"","指定避難所との重複":"◎","備考":""}},
{"type":"Feature","geometry":{"type":"Point","coordinates":[132.9972491000,35.5200104500]},"properties":{"Name":"佐太小学校","Jusho":"島根県松江市鹿島町佐陀本郷1186","洪水":"◎","がけ崩れ、土石流及び地滑り":"","高潮":"","地震":"◎","津波":"","大規模な火事":"","内水氾濫":"◎","火山現象":"","指定避難所との重複":"◎","備考":""}},
{"type":"Feature","geometry":{"type":"Point","coordinates":[132.9749685000,35.5334823700]},"properties":{"Name":"恵曇小学校","Jusho":"島根県松江市鹿島町手結201","洪水":"◎","がけ崩れ、土石流及び地滑り":"","高潮":"","地震":"◎","津波":"","大規模な火事":"","内水氾濫":"◎","火山現象":"","指定避難所との重複":"◎","備考":""}},
{"type":"Feature","geometry":{"type":"Point","coordinates":[133.0098534000,35.5179014200]},"properties":{"Name":"鹿島中学校","Jusho":"島根県松江市鹿島町名分673","洪水":"◎","がけ崩れ、土石流及び地滑り":"◎","高潮":"","地震":"◎","津波":"","大規模な火事":"","内水氾濫":"◎","火山現象":"","指定避難所との重複":"◎","備考":""}},
{"type":"Feature","geometry":{"type":"Point","coordinates":[133.0222500000,35.5228596600]},"properties":{"Name":"鹿島東小学校","Jusho":"島根県松江市鹿島町北講武599","洪水":"◎","がけ崩れ、土石流及び地滑り":"◎","高潮":"","地震":"◎","津波":"","大規模な火事":"","内水氾濫":"◎","火山現象":"","指定避難所との重複":"◎","備考":""}},
{"type":"Feature","geometry":{"type":"Point","coordinates":[133.0292051000,35.5358676000]},"properties":{"Name":"鹿島御津地区体育館","Jusho":"島根県松江市鹿島町御津800","洪水":"◎","がけ崩れ、土石流及び地滑り":"◎","高潮":"","地震":"◎","津波":"","大規模な火事":"","内水氾濫":"◎","火山現象":"","指定避難所との重複":"◎","備考":""}},
{"type":"Feature","geometry":{"type":"Point","coordinates":[132.9791101000,35.5253185400]},"properties":{"Name":"恵曇老人福祉センター（旧恵曇公民館）","Jusho":"島根県松江市鹿島町恵曇1","洪水":"◎","がけ崩れ、土石流及び地滑り":"◎","高潮":"","地震":"◎","津波":"","大規模な火事":"","内水氾濫":"◎","火山現象":"","指定避難所との重複":"◎","備考":""}},
{"type":"Feature","geometry":{"type":"Point","coordinates":[133.0266121000,35.5225827800]},"properties":{"Name":"鹿島福祉センター（鹿島ふれあい館）","Jusho":"島根県松江市鹿島町北講武885-5","洪水":"◎","がけ崩れ、土石流及び地滑り":"◎","高潮":"","地震":"◎","津波":"","大規模な火事":"","内水氾濫":"◎","火山現象":"","指定避難所との重複":"◎","備考":""}},
{"type":"Feature","geometry":{"type":"Point","coordinates":[133.0268439000,35.5217130800]},"properties":{"Name":"鹿島多久の湯","Jusho":"島根県松江市鹿島町北講武885-7","洪水":"◎","がけ崩れ、土石流及び地滑り":"◎","高潮":"","地震":"◎","津波":"","大規模な火事":"","内水氾濫":"◎","火山現象":"","指定避難所との重複":"◎","備考":""}},
{"type":"Feature","geometry":{"type":"Point","coordinates":[132.9970520000,35.5217860700]},"properties":{"Name":"鹿島保健センター","Jusho":"島根県松江市鹿島町佐陀本郷659","洪水":"◎","がけ崩れ、土石流及び地滑り":"◎","高潮":"","地震":"◎","津波":"","大規模な火事":"","内水氾濫":"◎","火山現象":"","指定避難所との重複":"◎","備考":""}},
{"type":"Feature","geometry":{"type":"Point","coordinates":[132.9965961000,35.5219257900]},"properties":{"Name":"鹿島文化ホール","Jusho":"島根県松江市鹿島町佐陀本郷659","洪水":"◎","がけ崩れ、土石流及び地滑り":"◎","高潮":"","地震":"◎","津波":"","大規模な火事":"","内水氾濫":"◎","火山現象":"","指定避難所との重複":"◎","備考":""}},
{"type":"Feature","geometry":{"type":"Point","coordinates":[133.0290039000,35.5357312100]},"properties":{"Name":"御津保育所","Jusho":"島根県松江市鹿島町御津799-2","洪水":"◎","がけ崩れ、土石流及び地滑り":"◎","高潮":"","地震":"◎","津波":"","大規模な火事":"","内水氾濫":"◎","火山現象":"","指定避難所との重複":"◎","備考":""}},
{"type":"Feature","geometry":{"type":"Point","coordinates":[133.0279638000,35.5357567900]},"properties":{"Name":"旧御津公民館","Jusho":"島根県松江市鹿島町御津660-4","洪水":"◎","がけ崩れ、土石流及び地滑り":"","高潮":"","地震":"◎","津波":"","大規模な火事":"","内水氾濫":"◎","火山現象":"","指定避難所との重複":"◎","備考":""}},
{"type":"Feature","geometry":{"type":"Point","coordinates":[132.9794285000,35.5287311000]},"properties":{"Name":"恵曇保育所","Jusho":"島根県松江市鹿島町武代181","洪水":"◎","がけ崩れ、土石流及び地滑り":"◎","高潮":"","地震":"◎","津波":"","大規模な火事":"","内水氾濫":"◎","火山現象":"","指定避難所との重複":"◎","備考":""}},
{"type":"Feature","geometry":{"type":"Point","coordinates":[132.9795100000,35.5257683000]},"properties":{"Name":"恵曇幼稚園","Jusho":"島根県松江市鹿島町恵曇1","洪水":"◎","がけ崩れ、土石流及び地滑り":"◎","高潮":"","地震":"◎","津波":"","大規模な火事":"","内水氾濫":"◎","火山現象":"","指定避難所との重複":"◎","備考":""}},
{"type":"Feature","geometry":{"type":"Point","coordinates":[132.9975763000,35.5205147400]},"properties":{"Name":"佐太幼稚園","Jusho":"島根県松江市鹿島町佐陀本郷1186","洪水":"◎","がけ崩れ、土石流及び地滑り":"◎","高潮":"","地震":"◎","津波":"","大規模な火事":"","内水氾濫":"◎","火山現象":"","指定避難所との重複":"◎","備考":""}},
{"type":"Feature","geometry":{"type":"Point","coordinates":[133.0229919000,35.5220708100]},"properties":{"Name":"講武幼稚園","Jusho":"島根県松江市鹿島町北講武599","洪水":"◎","がけ崩れ、土石流及び地滑り":"◎","高潮":"","地震":"◎","津波":"","大規模な火事":"","内水氾濫":"◎","火山現象":"","指定避難所との重複":"◎","備考":""}},
{"type":"Feature","geometry":{"type":"Point","coordinates":[133.0640190000,35.5645594200]},"properties":{"Name":"島根体育館","Jusho":"島根県松江市島根町加賀1455","洪水":"◎","がけ崩れ、土石流及び地滑り":"","高潮":"","地震":"◎","津波":"","大規模な火事":"","内水氾濫":"◎","火山現象":"","指定避難所との重複":"◎","備考":""}},
{"type":"Feature","geometry":{"type":"Point","coordinates":[133.0684596000,35.5655077300]},"properties":{"Name":"島根小学校","Jusho":"島根県松江市島根町加賀1325-1","洪水":"◎","がけ崩れ、土石流及び地滑り":"","高潮":"","地震":"◎","津波":"","大規模な火事":"","内水氾濫":"◎","火山現象":"","指定避難所との重複":"◎","備考":""}},
{"type":"Feature","geometry":{"type":"Point","coordinates":[133.0660771000,35.5648183200]},"properties":{"Name":"島根中学校","Jusho":"島根県松江市島根町加賀1426","洪水":"◎","がけ崩れ、土石流及び地滑り":"","高潮":"","地震":"◎","津波":"","大規模な火事":"","内水氾濫":"◎","火山現象":"","指定避難所との重複":"◎","備考":""}},
{"type":"Feature","geometry":{"type":"Point","coordinates":[133.0654510000,35.5645337000]},"properties":{"Name":"島根公民館","Jusho":"島根県松江市島根町加賀1414","洪水":"◎","がけ崩れ、土石流及び地滑り":"◎","高潮":"","地震":"◎","津波":"","大規模な火事":"","内水氾濫":"◎","火山現象":"","指定避難所との重複":"◎","備考":""}},
{"type":"Feature","geometry":{"type":"Point","coordinates":[133.1003311000,35.5860035800]},"properties":{"Name":"野波保育所","Jusho":"島根県松江市島根町野波2321-2","洪水":"◎","がけ崩れ、土石流及び地滑り":"","高潮":"","地震":"◎","津波":"","大規模な火事":"","内水氾濫":"◎","火山現象":"","指定避難所との重複":"◎","備考":""}},
{"type":"Feature","geometry":{"type":"Point","coordinates":[133.0506689000,35.5526641300]},"properties":{"Name":"マリン保育所","Jusho":"島根県松江市島根町大芦2189-2","洪水":"◎","がけ崩れ、土石流及び地滑り":"◎","高潮":"","地震":"◎","津波":"","大規模な火事":"","内水氾濫":"◎","火山現象":"","指定避難所との重複":"◎","備考":""}},
{"type":"Feature","geometry":{"type":"Point","coordinates":[133.1633897000,35.5341032600]},"properties":{"Name":"美保関中学校","Jusho":"島根県松江市美保関町下宇部尾554","洪水":"◎","がけ崩れ、土石流及び地滑り":"","高潮":"","地震":"◎","津波":"","大規模な火事":"","内水氾濫":"◎","火山現象":"","指定避難所との重複":"◎","備考":""}},
{"type":"Feature","geometry":{"type":"Point","coordinates":[133.1652890000,35.5350743500]},"properties":{"Name":"美保関体育館","Jusho":"島根県松江市美保関町下宇部尾556-1","洪水":"◎","がけ崩れ、土石流及び地滑り":"◎","高潮":"","地震":"◎","津波":"","大規模な火事":"","内水氾濫":"◎","火山現象":"","指定避難所との重複":"◎","備考":""}},
{"type":"Feature","geometry":{"type":"Point","coordinates":[133.1655724000,35.5353524400]},"properties":{"Name":"美保関小学校","Jusho":"島根県松江市美保関町下宇部尾555-1","洪水":"◎","がけ崩れ、土石流及び地滑り":"◎","高潮":"","地震":"◎","津波":"","大規模な火事":"","内水氾濫":"◎","火山現象":"","指定避難所との重複":"◎","備考":""}},
{"type":"Feature","geometry":{"type":"Point","coordinates":[133.1648629000,35.5347480000]},"properties":{"Name":"美保関公民館","Jusho":"島根県松江市美保関町下宇部尾556-1","洪水":"◎","がけ崩れ、土石流及び地滑り":"","高潮":"","地震":"","津波":"","大規模な火事":"","内水氾濫":"◎","火山現象":"","指定避難所との重複":"◎","備考":""}},
{"type":"Feature","geometry":{"type":"Point","coordinates":[133.1371302000,35.5636239500]},"properties":{"Name":"旧千酌小学校体育館","Jusho":"島根県松江市美保関町千酌1095-1","洪水":"◎","がけ崩れ、土石流及び地滑り":"◎","高潮":"","地震":"◎","津波":"","大規模な火事":"","内水氾濫":"◎","火山現象":"","指定避難所との重複":"◎","備考":""}},
{"type":"Feature","geometry":{"type":"Point","coordinates":[133.3027674000,35.5584420200]},"properties":{"Name":"旧美保関東小学校体育館","Jusho":"島根県松江市美保関町美保関1661-1","洪水":"◎","がけ崩れ、土石流及び地滑り":"","高潮":"","地震":"◎","津波":"","大規模な火事":"","内水氾濫":"◎","火山現象":"","指定避難所との重複":"◎","備考":""}},
{"type":"Feature","geometry":{"type":"Point","coordinates":[133.1643514000,35.5520663300]},"properties":{"Name":"美保関西保育所","Jusho":"島根県松江市美保関町北浦658-1","洪水":"◎","がけ崩れ、土石流及び地滑り":"◎","高潮":"","地震":"◎","津波":"","大規模な火事":"","内水氾濫":"◎","火山現象":"","指定避難所との重複":"◎","備考":""}},
{"type":"Feature","geometry":{"type":"Point","coordinates":[133.2285171000,35.5508340600]},"properties":{"Name":"美保関東保育所","Jusho":"島根県松江市美保関町森山650-1","洪水":"◎","がけ崩れ、土石流及び地滑り":"◎","高潮":"","地震":"◎","津波":"","大規模な火事":"","内水氾濫":"◎","火山現象":"","指定避難所との重複":"◎","備考":""}},
{"type":"Feature","geometry":{"type":"Point","coordinates":[133.2204738000,35.5676422900]},"properties":{"Name":"にじの家","Jusho":"島根県松江市美保関町七類1587","洪水":"◎","がけ崩れ、土石流及び地滑り":"","高潮":"","地震":"◎","津波":"","大規模な火事":"","内水氾濫":"◎","火山現象":"","指定避難所との重複":"◎","備考":""}},
{"type":"Feature","geometry":{"type":"Point","coordinates":[133.1843358000,35.5591453500]},"properties":{"Name":"美保関西ふれあいプラザ","Jusho":"島根県松江市美保関町片江2268-8","洪水":"◎","がけ崩れ、土石流及び地滑り":"","高潮":"","地震":"◎","津波":"","大規模な火事":"","内水氾濫":"◎","火山現象":"","指定避難所との重複":"◎","備考":""}},
{"type":"Feature","geometry":{"type":"Point","coordinates":[133.1843573000,35.5591409900]},"properties":{"Name":"美保関高齢者生活福祉センター（香梅の里）","Jusho":"島根県松江市美保関町片江2268-8","洪水":"◎","がけ崩れ、土石流及び地滑り":"","高潮":"","地震":"◎","津波":"","大規模な火事":"","内水氾濫":"◎","火山現象":"","指定避難所との重複":"◎","備考":""}},
{"type":"Feature","geometry":{"type":"Point","coordinates":[133.2299195000,35.5714062600]},"properties":{"Name":"メテオプラザ","Jusho":"島根県松江市美保関町七類3246-1","洪水":"◎","がけ崩れ、土石流及び地滑り":"","高潮":"","地震":"◎","津波":"","大規模な火事":"","内水氾濫":"◎","火山現象":"","指定避難所との重複":"◎","備考":""}},
{"type":"Feature","geometry":{"type":"Point","coordinates":[133.1746156000,35.4948184900]},"properties":{"Name":"八束学園（八束小学校・八束中学校）","Jusho":"島根県松江市八束町波入1975","洪水":"◎","がけ崩れ、土石流及び地滑り":"◎","高潮":"","地震":"◎","津波":"","大規模な火事":"","内水氾濫":"◎","火山現象":"","指定避難所との重複":"◎","備考":""}},
{"type":"Feature","geometry":{"type":"Point","coordinates":[133.1723550000,35.4956780000]},"properties":{"Name":"八束体育館","Jusho":"島根県松江市八束町波入2096","洪水":"◎","がけ崩れ、土石流及び地滑り":"◎","高潮":"","地震":"◎","津波":"","大規模な火事":"","内水氾濫":"◎","火山現象":"","指定避難所との重複":"◎","備考":""}},
{"type":"Feature","geometry":{"type":"Point","coordinates":[133.1724993000,35.4959332300]},"properties":{"Name":"八束会館(八束公民館）","Jusho":"島根県松江市八束町波入2219-2","洪水":"◎","がけ崩れ、土石流及び地滑り":"◎","高潮":"","地震":"◎","津波":"","大規模な火事":"","内水氾濫":"◎","火山現象":"","指定避難所との重複":"◎","備考":""}},
{"type":"Feature","geometry":{"type":"Point","coordinates":[133.1754087000,35.4951853400]},"properties":{"Name":"やつか保育園","Jusho":"島根県松江市八束町波入1975-2","洪水":"◎","がけ崩れ、土石流及び地滑り":"◎","高潮":"","地震":"◎","津波":"","大規模な火事":"","内水氾濫":"◎","火山現象":"","指定避難所との重複":"◎","備考":""}},
{"type":"Feature","geometry":{"type":"Point","coordinates":[133.0053063000,35.4276834200]},"properties":{"Name":"玉湯中学校","Jusho":"島根県松江市玉湯町湯町717","洪水":"◎","がけ崩れ、土石流及び地滑り":"◎","高潮":"","地震":"◎","津波":"","大規模な火事":"","内水氾濫":"◎","火山現象":"","指定避難所との重複":"◎","備考":""}},
{"type":"Feature","geometry":{"type":"Point","coordinates":[133.0092511000,35.4267116800]},"properties":{"Name":"玉湯小学校","Jusho":"島根県松江市玉湯町玉造4","洪水":"◎","がけ崩れ、土石流及び地滑り":"◎","高潮":"","地震":"◎","津波":"","大規模な火事":"","内水氾濫":"◎","火山現象":"","指定避難所との重複":"◎","備考":""}},
{"type":"Feature","geometry":{"type":"Point","coordinates":[132.9888968000,35.3887321900]},"properties":{"Name":"大谷小学校","Jusho":"島根県松江市玉湯町大谷299","洪水":"◎","がけ崩れ、土石流及び地滑り":"◎","高潮":"","地震":"◎","津波":"","大規模な火事":"","内水氾濫":"◎","火山現象":"","指定避難所との重複":"◎","備考":""}},
{"type":"Feature","geometry":{"type":"Point","coordinates":[133.0043556000,35.4264426400]},"properties":{"Name":"玉湯体育館","Jusho":"島根県松江市玉湯町湯町714-3","洪水":"◎","がけ崩れ、土石流及び地滑り":"","高潮":"","地震":"","津波":"","大規模な火事":"","内水氾濫":"◎","火山現象":"","指定避難所との重複":"◎","備考":""}},
{"type":"Feature","geometry":{"type":"Point","coordinates":[133.0068455000,35.4311709500]},"properties":{"Name":"玉湯公民館","Jusho":"島根県松江市玉湯町湯町1796","洪水":"◎","がけ崩れ、土石流及び地滑り":"◎","高潮":"","地震":"◎","津波":"","大規模な火事":"","内水氾濫":"◎","火山現象":"","指定避難所との重複":"◎","備考":""}},
{"type":"Feature","geometry":{"type":"Point","coordinates":[132.9888861000,35.3885324800]},"properties":{"Name":"大谷幼稚園","Jusho":"島根県松江市玉湯町大谷299","洪水":"◎","がけ崩れ、土石流及び地滑り":"◎","高潮":"","地震":"","津波":"","大規模な火事":"","内水氾濫":"◎","火山現象":"","指定避難所との重複":"◎","備考":""}},
{"type":"Feature","geometry":{"type":"Point","coordinates":[133.0096143000,35.4271222100]},"properties":{"Name":"玉湯幼稚園","Jusho":"島根県松江市玉湯町湯町2066","洪水":"◎","がけ崩れ、土石流及び地滑り":"◎","高潮":"","地震":"◎","津波":"","大規模な火事":"","内水氾濫":"◎","火山現象":"","指定避難所との重複":"◎","備考":""}},
{"type":"Feature","geometry":{"type":"Point","coordinates":[133.0025943000,35.4259729500]},"properties":{"Name":"玉湯総合福祉保健センター （サン・エールたまゆ）","Jusho":"島根県松江市玉湯町湯町683-8","洪水":"◎","がけ崩れ、土石流及び地滑り":"","高潮":"","地震":"◎","津波":"","大規模な火事":"","内水氾濫":"◎","火山現象":"","指定避難所との重複":"◎","備考":""}},
{"type":"Feature","geometry":{"type":"Point","coordinates":[132.9051316000,35.4026519200]},"properties":{"Name":"宍道小学校","Jusho":"島根県松江市宍道町宍道1276","洪水":"◎","がけ崩れ、土石流及び地滑り":"◎","高潮":"","地震":"◎","津波":"","大規模な火事":"","内水氾濫":"◎","火山現象":"","指定避難所との重複":"◎","備考":""}},
{"type":"Feature","geometry":{"type":"Point","coordinates":[132.9175234000,35.4107098900]},"properties":{"Name":"宍道中学校","Jusho":"島根県松江市宍道町宍道351","洪水":"◎","がけ崩れ、土石流及び地滑り":"","高潮":"","地震":"◎","津波":"","大規模な火事":"","内水氾濫":"◎","火山現象":"","指定避難所との重複":"◎","備考":""}},
{"type":"Feature","geometry":{"type":"Point","coordinates":[132.9561624000,35.4068008100]},"properties":{"Name":"来待小学校","Jusho":"島根県松江市宍道町上来待125","洪水":"◎","がけ崩れ、土石流及び地滑り":"","高潮":"","地震":"◎","津波":"","大規模な火事":"","内水氾濫":"◎","火山現象":"","指定避難所との重複":"◎","備考":""}},
{"type":"Feature","geometry":{"type":"Point","coordinates":[132.9034758000,35.4060034100]},"properties":{"Name":"宍道体育センター","Jusho":"島根県松江市宍道町佐々布204-4","洪水":"◎","がけ崩れ、土石流及び地滑り":"◎","高潮":"","地震":"◎","津波":"","大規模な火事":"","内水氾濫":"◎","火山現象":"","指定避難所との重複":"◎","備考":""}},
{"type":"Feature","geometry":{"type":"Point","coordinates":[132.9034518000,35.4056032500]},"properties":{"Name":"宍道武道館","Jusho":"島根県松江市宍道町佐々布204-4","洪水":"◎","がけ崩れ、土石流及び地滑り":"◎","高潮":"","地震":"","津波":"","大規模な火事":"","内水氾濫":"◎","火山現象":"","指定避難所との重複":"◎","備考":""}},
{"type":"Feature","geometry":{"type":"Point","coordinates":[132.9616175000,35.4025180600]},"properties":{"Name":"宍道農村環境改善センター","Jusho":"島根県松江市宍道町上来待212-1","洪水":"◎","がけ崩れ、土石流及び地滑り":"◎","高潮":"","地震":"◎","津波":"","大規模な火事":"","内水氾濫":"◎","火山現象":"","指定避難所との重複":"◎","備考":""}},
{"type":"Feature","geometry":{"type":"Point","coordinates":[132.9608196000,35.4030487200]},"properties":{"Name":"宍道健康センター","Jusho":"島根県松江市宍道町上来待213-1","洪水":"◎","がけ崩れ、土石流及び地滑り":"","高潮":"","地震":"◎","津波":"","大規模な火事":"","内水氾濫":"◎","火山現象":"","指定避難所との重複":"◎","備考":""}},
{"type":"Feature","geometry":{"type":"Point","coordinates":[132.9058390000,35.4060960000]},"properties":{"Name":"宍道ふれあい交流館（ギャラリーＣ）","Jusho":"島根県松江市宍道町宍道1441-1","洪水":"◎","がけ崩れ、土石流及び地滑り":"◎","高潮":"","地震":"◎","津波":"","大規模な火事":"","内水氾濫":"◎","火山現象":"","指定避難所との重複":"◎","備考":""}},
{"type":"Feature","geometry":{"type":"Point","coordinates":[133.0896718000,35.4042292700]},"properties":{"Name":"八雲小学校","Jusho":"島根県松江市八雲町西岩坂947","洪水":"◎","がけ崩れ、土石流及び地滑り":"◎","高潮":"","地震":"◎","津波":"","大規模な火事":"","内水氾濫":"◎","火山現象":"","指定避難所との重複":"◎","備考":""}},
{"type":"Feature","geometry":{"type":"Point","coordinates":[133.0880416000,35.4029919000]},"properties":{"Name":"八雲中学校","Jusho":"島根県松江市八雲町西岩坂931","洪水":"◎","がけ崩れ、土石流及び地滑り":"","高潮":"","地震":"◎","津波":"","大規模な火事":"","内水氾濫":"◎","火山現象":"","指定避難所との重複":"◎","備考":""}},
{"type":"Feature","geometry":{"type":"Point","coordinates":[133.0915816000,35.4054235300]},"properties":{"Name":"八雲公民館","Jusho":"島根県松江市八雲町西岩坂355-1","洪水":"◎","がけ崩れ、土石流及び地滑り":"◎","高潮":"","地震":"◎","津波":"","大規模な火事":"","内水氾濫":"◎","火山現象":"","指定避難所との重複":"◎","備考":""}},
{"type":"Feature","geometry":{"type":"Point","coordinates":[133.0986838000,35.4034347600]},"properties":{"Name":"八雲構造改善センター","Jusho":"島根県松江市八雲町西岩坂3856-1","洪水":"◎","がけ崩れ、土石流及び地滑り":"◎","高潮":"","地震":"◎","津波":"","大規模な火事":"","内水氾濫":"◎","火山現象":"","指定避難所との重複":"◎","備考":""}},
{"type":"Feature","geometry":{"type":"Point","coordinates":[133.0966860000,35.4195440000]},"properties":{"Name":"日吉ふれあい会館","Jusho":"島根県松江市八雲町日吉151-2","洪水":"◎","がけ崩れ、土石流及び地滑り":"◎","高潮":"","地震":"◎","津波":"","大規模な火事":"","内水氾濫":"◎","火山現象":"","指定避難所との重複":"◎","備考":""}},
{"type":"Feature","geometry":{"type":"Point","coordinates":[133.0948636000,35.4059710000]},"properties":{"Name":"八雲保育園","Jusho":"島根県松江市八雲町東岩坂100","洪水":"◎","がけ崩れ、土石流及び地滑り":"","高潮":"","地震":"","津波":"","大規模な火事":"","内水氾濫":"◎","火山現象":"","指定避難所との重複":"◎","備考":""}},
{"type":"Feature","geometry":{"type":"Point","coordinates":[133.0957024000,35.4063371300]},"properties":{"Name":"八雲幼稚園","Jusho":"島根県松江市八雲町東岩坂110","洪水":"◎","がけ崩れ、土石流及び地滑り":"","高潮":"","地震":"◎","津波":"","大規模な火事":"","内水氾濫":"◎","火山現象":"","指定避難所との重複":"◎","備考":""}},
{"type":"Feature","geometry":{"type":"Point","coordinates":[133.0549903000,35.4377237000]},"properties":{"Name":"保健福祉総合センター","Jusho":"島根県松江市乃白町32-2","洪水":"◎","がけ崩れ、土石流及び地滑り":"◎","高潮":"","地震":"◎","津波":"","大規模な火事":"","内水氾濫":"◎","火山現象":"","指定避難所との重複":"◎","備考":""}},
{"type":"Feature","geometry":{"type":"Point","coordinates":[133.0851260000,35.4472757600]},"properties":{"Name":"いきいきプラザ島根","Jusho":"島根県松江市東津田町1741-3","洪水":"◎","がけ崩れ、土石流及び地滑り":"◎","高潮":"","地震":"◎","津波":"","大規模な火事":"","内水氾濫":"◎","火山現象":"","指定避難所との重複":"◎","備考":""}},
{"type":"Feature","geometry":{"type":"Point","coordinates":[133.0295914000,35.4952971400]},"properties":{"Name":"県立松江清心養護学校（肢体）","Jusho":"島根県松江市東生馬町11","洪水":"◎","がけ崩れ、土石流及び地滑り":"◎","高潮":"","地震":"◎","津波":"","大規模な火事":"","内水氾濫":"◎","火山現象":"","指定避難所との重複":"◎","備考":""}},
{"type":"Feature","geometry":{"type":"Point","coordinates":[133.0863123000,35.4798010300]},"properties":{"Name":"県立松江養護学校（知的）","Jusho":"島根県松江市西川津町31","洪水":"◎","がけ崩れ、土石流及び地滑り":"","高潮":"","地震":"◎","津波":"","大規模な火事":"","内水氾濫":"◎","火山現象":"","指定避難所との重複":"◎","備考":""}},
{"type":"Feature","geometry":{"type":"Point","coordinates":[133.0275573000,35.5378522600]},"properties":{"Name":"御津老人福祉センター","Jusho":"島根県松江市鹿島町御津478","洪水":"◎","がけ崩れ、土石流及び地滑り":"◎","高潮":"","地震":"","津波":"","大規模な火事":"","内水氾濫":"◎","火山現象":"","指定避難所との重複":"◎","備考":""}},
{"type":"Feature","geometry":{"type":"Point","coordinates":[133.0628670000,35.4730883000]},"properties":{"Name":"ライトハウスライブラリー","Jusho":"島根県松江市南田町141-10","洪水":"◎","がけ崩れ、土石流及び地滑り":"◎","高潮":"","地震":"◎","津波":"","大規模な火事":"","内水氾濫":"◎","火山現象":"","指定避難所との重複":"◎","備考":""}},
{"type":"Feature","geometry":{"type":"Point","coordinates":[133.1289112000,35.4275098500]},"properties":{"Name":"出雲郷公民館","Jusho":"島根県松江市東出雲町意宇南5-3-1","洪水":"◎","がけ崩れ、土石流及び地滑り":"◎","高潮":"","地震":"◎","津波":"","大規模な火事":"","内水氾濫":"◎","火山現象":"","指定避難所との重複":"◎","備考":""}},
{"type":"Feature","geometry":{"type":"Point","coordinates":[133.1303762000,35.4264840700]},"properties":{"Name":"出雲郷小学校","Jusho":"島根県松江市東出雲町出雲郷926","洪水":"◎","がけ崩れ、土石流及び地滑り":"","高潮":"","地震":"◎","津波":"","大規模な火事":"","内水氾濫":"◎","火山現象":"","指定避難所との重複":"◎","備考":""}},
{"type":"Feature","geometry":{"type":"Point","coordinates":[133.1289480000,35.4263633300]},"properties":{"Name":"出雲郷幼稚園","Jusho":"島根県松江市東出雲町出雲郷1205","洪水":"◎","がけ崩れ、土石流及び地滑り":"","高潮":"","地震":"◎","津波":"","大規模な火事":"","内水氾濫":"◎","火山現象":"","指定避難所との重複":"◎","備考":""}},
{"type":"Feature","geometry":{"type":"Point","coordinates":[133.1295070000,35.4263125600]},"properties":{"Name":"出雲郷保育園","Jusho":"島根県松江市東出雲町出雲郷927","洪水":"◎","がけ崩れ、土石流及び地滑り":"","高潮":"","地震":"◎","津波":"","大規模な火事":"","内水氾濫":"◎","火山現象":"","指定避難所との重複":"◎","備考":""}},
{"type":"Feature","geometry":{"type":"Point","coordinates":[133.1526798000,35.4295694200]},"properties":{"Name":"東出雲ふれあい会館","Jusho":"島根県松江市東出雲町揖屋1139-2","洪水":"◎","がけ崩れ、土石流及び地滑り":"◎","高潮":"","地震":"","津波":"","大規模な火事":"","内水氾濫":"◎","火山現象":"","指定避難所との重複":"◎","備考":""}},
{"type":"Feature","geometry":{"type":"Point","coordinates":[133.1528032000,35.4294645100]},"properties":{"Name":"東出雲体育館","Jusho":"島根県松江市東出雲町揖屋1139-2","洪水":"◎","がけ崩れ、土石流及び地滑り":"◎","高潮":"","地震":"◎","津波":"","大規模な火事":"","内水氾濫":"◎","火山現象":"","指定避難所との重複":"◎","備考":""}},
{"type":"Feature","geometry":{"type":"Point","coordinates":[133.1512830000,35.4283572200]},"properties":{"Name":"東出雲保健相談センター","Jusho":"島根県松江市東出雲町揖屋1216-1","洪水":"◎","がけ崩れ、土石流及び地滑り":"◎","高潮":"","地震":"◎","津波":"","大規模な火事":"","内水氾濫":"◎","火山現象":"","指定避難所との重複":"◎","備考":""}},
{"type":"Feature","geometry":{"type":"Point","coordinates":[133.1535226000,35.4279900000]},"properties":{"Name":"東出雲老人福祉センター","Jusho":"島根県松江市東出雲町揖屋1177-1","洪水":"◎","がけ崩れ、土石流及び地滑り":"◎","高潮":"","地震":"◎","津波":"","大規模な火事":"","内水氾濫":"◎","火山現象":"","指定避難所との重複":"◎","備考":""}},
{"type":"Feature","geometry":{"type":"Point","coordinates":[133.1564727000,35.4284698100]},"properties":{"Name":"揖屋小学校","Jusho":"島根県松江市東出雲町揖屋2131-3","洪水":"◎","がけ崩れ、土石流及び地滑り":"","高潮":"","地震":"◎","津波":"","大規模な火事":"","内水氾濫":"◎","火山現象":"","指定避難所との重複":"◎","備考":""}},
{"type":"Feature","geometry":{"type":"Point","coordinates":[133.1542374000,35.4276781900]},"properties":{"Name":"揖屋幼稚園","Jusho":"島根県松江市東出雲町揖屋2130","洪水":"◎","がけ崩れ、土石流及び地滑り":"◎","高潮":"","地震":"◎","津波":"","大規模な火事":"","内水氾濫":"◎","火山現象":"","指定避難所との重複":"◎","備考":""}},
{"type":"Feature","geometry":{"type":"Point","coordinates":[133.1544839000,35.4282123900]},"properties":{"Name":"揖屋保育園","Jusho":"島根県松江市東出雲町揖屋2198","洪水":"◎","がけ崩れ、土石流及び地滑り":"◎","高潮":"","地震":"◎","津波":"","大規模な火事":"","内水氾濫":"◎","火山現象":"","指定避難所との重複":"◎","備考":""}},
{"type":"Feature","geometry":{"type":"Point","coordinates":[133.1490595000,35.4258333400]},"properties":{"Name":"東出雲中学校","Jusho":"島根県松江市東出雲町揖屋1251","洪水":"◎","がけ崩れ、土石流及び地滑り":"◎","高潮":"","地震":"◎","津波":"","大規模な火事":"","内水氾濫":"◎","火山現象":"","指定避難所との重複":"◎","備考":""}},
{"type":"Feature","geometry":{"type":"Point","coordinates":[133.1692138000,35.4373792900]},"properties":{"Name":"意東公民館","Jusho":"島根県松江市東出雲町下意東765-35","洪水":"◎","がけ崩れ、土石流及び地滑り":"◎","高潮":"","地震":"◎","津波":"","大規模な火事":"","内水氾濫":"◎","火山現象":"","指定避難所との重複":"◎","備考":""}},
{"type":"Feature","geometry":{"type":"Point","coordinates":[133.1651192000,35.4381885400]},"properties":{"Name":"意東小学校","Jusho":"島根県松江市東出雲町下意東371","洪水":"◎","がけ崩れ、土石流及び地滑り":"","高潮":"","地震":"◎","津波":"","大規模な火事":"","内水氾濫":"◎","火山現象":"","指定避難所との重複":"◎","備考":""}},
{"type":"Feature","geometry":{"type":"Point","coordinates":[133.1685748000,35.4382608300]},"properties":{"Name":"意東幼稚園","Jusho":"島根県松江市東出雲町下意東765","洪水":"◎","がけ崩れ、土石流及び地滑り":"◎","高潮":"","地震":"◎","津波":"","大規模な火事":"","内水氾濫":"◎","火山現象":"","指定避難所との重複":"◎","備考":""}},
{"type":"Feature","geometry":{"type":"Point","coordinates":[133.1683500000,35.4379403000]},"properties":{"Name":"意東保育園","Jusho":"島根県松江市東出雲町下意東751","洪水":"◎","がけ崩れ、土石流及び地滑り":"◎","高潮":"","地震":"◎","津波":"","大規模な火事":"","内水氾濫":"◎","火山現象":"","指定避難所との重複":"◎","備考":""}},
{"type":"Feature","geometry":{"type":"Point","coordinates":[133.1553990000,35.4046655500]},"properties":{"Name":"東出雲上意東研修センター","Jusho":"島根県松江市東出雲町上意東1982-2","洪水":"◎","がけ崩れ、土石流及び地滑り":"","高潮":"","地震":"◎","津波":"","大規模な火事":"","内水氾濫":"◎","火山現象":"","指定避難所との重複":"◎","備考":""}},
{"type":"Feature","geometry":{"type":"Point","coordinates":[133.1553908000,35.4042568600]},"properties":{"Name":"東出雲おちらと村","Jusho":"島根県松江市東出雲町上意東1965-1","洪水":"◎","がけ崩れ、土石流及び地滑り":"","高潮":"","地震":"◎","津波":"","大規模な火事":"","内水氾濫":"◎","火山現象":"","指定避難所との重複":"◎","備考":""}},
{"type":"Feature","geometry":{"type":"Point","coordinates":[132.9159148000,35.4108210500]},"properties":{"Name":"県立宍道高等学校","Jusho":"島根県松江市宍道町宍道1586","洪水":"◎","がけ崩れ、土石流及び地滑り":"◎","高潮":"","地震":"◎","津波":"","大規模な火事":"","内水氾濫":"◎","火山現象":"","指定避難所との重複":"◎","備考":""}},
{"type":"Feature","geometry":{"type":"Point","coordinates":[133.0396126000,35.4665437100]},"properties":{"Name":"城西幼保園","Jusho":"島根県松江市堂形町520","洪水":"◎","がけ崩れ、土石流及び地滑り":"◎","高潮":"","地震":"◎","津波":"","大規模な火事":"","内水氾濫":"◎","火山現象":"","指定避難所との重複":"◎","備考":""}},
{"type":"Feature","geometry":{"type":"Point","coordinates":[132.9151754000,35.4092227900]},"properties":{"Name":"しんじ幼保園","Jusho":"島根県松江市宍道町宍道458-2","洪水":"◎","がけ崩れ、土石流及び地滑り":"◎","高潮":"","地震":"◎","津波":"","大規模な火事":"","内水氾濫":"◎","火山現象":"","指定避難所との重複":"◎","備考":""}},
{"type":"Feature","geometry":{"type":"Point","coordinates":[132.9957552000,35.5220598900]},"properties":{"Name":"鹿島公民館","Jusho":"島根県松江市鹿島町佐陀本郷640-1","洪水":"◎","がけ崩れ、土石流及び地滑り":"◎","高潮":"","地震":"◎","津波":"","大規模な火事":"","内水氾濫":"◎","火山現象":"","指定避難所との重複":"◎","備考":""}},
{"type":"Feature","geometry":{"type":"Point","coordinates":[132.9094774000,35.4081297600]},"properties":{"Name":"宍道公民館","Jusho":"島根県松江市宍道町宍道885-3","洪水":"◎","がけ崩れ、土石流及び地滑り":"◎","高潮":"","地震":"◎","津波":"","大規模な火事":"","内水氾濫":"◎","火山現象":"","指定避難所との重複":"◎","備考":""}},
{"type":"Feature","geometry":{"type":"Point","coordinates":[133.1712286000,35.4961248700]},"properties":{"Name":"大塚山公園","Jusho":"島根県松江市八束町波入2485-1","洪水":"◎","がけ崩れ、土石流及び地滑り":"◎","高潮":"","地震":"◎","津波":"","大規模な火事":"","内水氾濫":"◎","火山現象":"","指定避難所との重複":"","備考":""}},
{"type":"Feature","geometry":{"type":"Point","coordinates":[133.1931142848,35.5086597484]},"properties":{"Name":"八束町江島区民会館","Jusho":"島根県松江市八束町江島102-6","洪水":"◎","がけ崩れ、土石流及び地滑り":"◎","高潮":"","地震":"◎","津波":"","大規模な火事":"","内水氾濫":"◎","火山現象":"","指定避難所との重複":"◎","備考":""}},
{"type":"Feature","geometry":{"type":"Point","coordinates":[132.0964107892,34.9040616977]},"properties":{"Name":"浜田市陸上競技場","Jusho":"島根県浜田市黒川町3739","洪水":"◎","がけ崩れ、土石流及び地滑り":"","高潮":"◎","地震":"◎","津波":"◎","大規模な火事":"◎","内水氾濫":"◎","火山現象":"◎","指定避難所との重複":"◎","備考":""}},
{"type":"Feature","geometry":{"type":"Point","coordinates":[132.0955030012,34.9022295091]},"properties":{"Name":"市民ふれあい広場","Jusho":"島根県浜田市黒川町3738-1","洪水":"◎","がけ崩れ、土石流及び地滑り":"◎","高潮":"◎","地震":"◎","津波":"◎","大規模な火事":"◎","内水氾濫":"◎","火山現象":"◎","指定避難所との重複":"◎","備考":""}},
{"type":"Feature","geometry":{"type":"Point","coordinates":[132.1651242061,34.8654163615]},"properties":{"Name":"金城総合運動公園多目的広場","Jusho":"島根県浜田市金城町七条イ982","洪水":"◎","がけ崩れ、土石流及び地滑り":"◎","高潮":"◎","地震":"◎","津波":"◎","大規模な火事":"◎","内水氾濫":"◎","火山現象":"◎","指定避難所との重複":"◎","備考":""}},
{"type":"Feature","geometry":{"type":"Point","coordinates":[132.2548530995,34.8595872380]},"properties":{"Name":"旭公園陸上競技場","Jusho":"島根県浜田市旭町今市990-1","洪水":"◎","がけ崩れ、土石流及び地滑り":"◎","高潮":"◎","地震":"◎","津波":"◎","大規模な火事":"◎","内水氾濫":"◎","火山現象":"◎","指定避難所との重複":"◎","備考":""}},
{"type":"Feature","geometry":{"type":"Point","coordinates":[132.1097307713,34.7768398441]},"properties":{"Name":"弥栄運動広場","Jusho":"島根県浜田市弥栄町長安本郷234","洪水":"◎","がけ崩れ、土石流及び地滑り":"","高潮":"◎","地震":"◎","津波":"◎","大規模な火事":"◎","内水氾濫":"◎","火山現象":"◎","指定避難所との重複":"◎","備考":""}},
{"type":"Feature","geometry":{"type":"Point","coordinates":[131.9571371730,34.7809360183]},"properties":{"Name":"三隅中央公園市民陸上競技場","Jusho":"島根県浜田市三隅町古市場595","洪水":"◎","がけ崩れ、土石流及び地滑り":"◎","高潮":"◎","地震":"◎","津波":"◎","大規模な火事":"◎","内水氾濫":"◎","火山現象":"◎","指定避難所との重複":"◎","備考":""}},
{"type":"Feature","geometry":{"type":"Point","coordinates":[131.9547857702,34.7832329840]},"properties":{"Name":"三隅中央公園多目的広場","Jusho":"島根県浜田市三隅町古市場524","洪水":"◎","がけ崩れ、土石流及び地滑り":"◎","高潮":"◎","地震":"◎","津波":"◎","大規模な火事":"◎","内水氾濫":"◎","火山現象":"◎","指定避難所との重複":"◎","備考":""}},
{"type":"Feature","geometry":{"type":"Point","coordinates":[132.7636504155,35.3602589980]},"properties":{"Name":"出雲高等学校（第1体育館）","Jusho":"島根県出雲市今市町1800","洪水":"◎","がけ崩れ、土石流及び地滑り":"◎","高潮":"","地震":"◎","津波":"◎","大規模な火事":"","内水氾濫":"","火山現象":"","指定避難所との重複":"◎","備考":""}},
{"type":"Feature","geometry":{"type":"Point","coordinates":[132.7635592203,35.3599046352]},"properties":{"Name":"出雲高等学校（第2体育館）","Jusho":"島根県出雲市今市町1800","洪水":"◎","がけ崩れ、土石流及び地滑り":"◎","高潮":"","地震":"◎","津波":"◎","大規模な火事":"","内水氾濫":"","火山現象":"","指定避難所との重複":"◎","備考":""}},
{"type":"Feature","geometry":{"type":"Point","coordinates":[132.7584844809,35.3683039290]},"properties":{"Name":"今市小学校（体育館）","Jusho":"島根県出雲市今市町北本町2-1","洪水":"","がけ崩れ、土石流及び地滑り":"◎","高潮":"","地震":"◎","津波":"◎","大規模な火事":"","内水氾濫":"","火山現象":"","指定避難所との重複":"◎","備考":""}},
{"type":"Feature","geometry":{"type":"Point","coordinates":[132.7549096493,35.3681622674]},"properties":{"Name":"ＪＡしまね　出雲地区本部","Jusho":"島根県出雲市今市町106-1","洪水":"","がけ崩れ、土石流及び地滑り":"◎","高潮":"","地震":"◎","津波":"◎","大規模な火事":"","内水氾濫":"","火山現象":"","指定避難所との重複":"◎","備考":""}},
{"type":"Feature","geometry":{"type":"Point","coordinates":[132.7596807071,35.3688829495]},"properties":{"Name":"サン・アビリティーズいずも","Jusho":"島根県出雲市今市町北本町３-1-20","洪水":"","がけ崩れ、土石流及び地滑り":"◎","高潮":"","地震":"◎","津波":"◎","大規模な火事":"","内水氾濫":"","火山現象":"","指定避難所との重複":"◎","備考":""}},
{"type":"Feature","geometry":{"type":"Point","coordinates":[132.7612850374,35.3638957602]},"properties":{"Name":"今市コミュニティセンター","Jusho":"島根県出雲市今市町本町1578-2","洪水":"","がけ崩れ、土石流及び地滑り":"◎","高潮":"","地震":"◎","津波":"◎","大規模な火事":"","内水氾濫":"","火山現象":"","指定避難所との重複":"◎","備考":""}},
{"type":"Feature","geometry":{"type":"Point","coordinates":[132.7546542622,35.3670215081]},"properties":{"Name":"出雲市役所(本庁舎）","Jusho":"島根県出雲市今市町70","洪水":"","がけ崩れ、土石流及び地滑り":"◎","高潮":"","地震":"◎","津波":"◎","大規模な火事":"","内水氾濫":"","火山現象":"","指定避難所との重複":"◎","備考":""}},
{"type":"Feature","geometry":{"type":"Point","coordinates":[132.7658998653,35.3619790604]},"properties":{"Name":"出雲科学館","Jusho":"島根県出雲市今市町1900-2","洪水":"◎","がけ崩れ、土石流及び地滑り":"◎","高潮":"","地震":"◎","津波":"◎","大規模な火事":"","内水氾濫":"","火山現象":"","指定避難所との重複":"◎","備考":""}},
{"type":"Feature","geometry":{"type":"Point","coordinates":[132.7579572335,35.3604904877]},"properties":{"Name":"ビッグハート出雲","Jusho":"島根県出雲市駅南町1-5","洪水":"","がけ崩れ、土石流及び地滑り":"◎","高潮":"","地震":"◎","津波":"◎","大規模な火事":"","内水氾濫":"","火山現象":"","指定避難所との重複":"◎","備考":""}},
{"type":"Feature","geometry":{"type":"Point","coordinates":[132.7560614931,35.3617435497]},"properties":{"Name":"パルメイト出雲","Jusho":"島根県出雲市今市町2065","洪水":"","がけ崩れ、土石流及び地滑り":"◎","高潮":"","地震":"◎","津波":"◎","大規模な火事":"","内水氾濫":"","火山現象":"","指定避難所との重複":"◎","備考":""}},
{"type":"Feature","geometry":{"type":"Point","coordinates":[132.7607453020,35.3597237408]},"properties":{"Name":"出雲医療看護専門学校","Jusho":"島根県出雲市今市町1151-1","洪水":"","がけ崩れ、土石流及び地滑り":"◎","高潮":"","地震":"◎","津波":"◎","大規模な火事":"","内水氾濫":"","火山現象":"","指定避難所との重複":"◎","備考":""}},
{"type":"Feature","geometry":{"type":"Point","coordinates":[132.7703261526,35.3637135233]},"properties":{"Name":"第一中学校（武道場、アリーナ）","Jusho":"島根県出雲市大津町2214","洪水":"◎","がけ崩れ、土石流及び地滑り":"◎","高潮":"","地震":"◎","津波":"◎","大規模な火事":"","内水氾濫":"","火山現象":"","指定避難所との重複":"◎","備考":""}},
{"type":"Feature","geometry":{"type":"Point","coordinates":[132.7780512817,35.3582152070]},"properties":{"Name":"出雲商業高等学校（体育館）","Jusho":"島根県出雲市大津町2525","洪水":"◎","がけ崩れ、土石流及び地滑り":"◎","高潮":"","地震":"◎","津波":"◎","大規模な火事":"","内水氾濫":"","火山現象":"","指定避難所との重複":"◎","備考":""}},
{"type":"Feature","geometry":{"type":"Point","coordinates":[132.7762658393,35.3669060871]},"properties":{"Name":"大津コミュニティセンター","Jusho":"島根県出雲市大津町1727-5","洪水":"","がけ崩れ、土石流及び地滑り":"◎","高潮":"","地震":"◎","津波":"◎","大規模な火事":"","内水氾濫":"","火山現象":"","指定避難所との重複":"◎","備考":""}},
{"type":"Feature","geometry":{"type":"Point","coordinates":[132.7813303092,35.3579171898]},"properties":{"Name":"出雲弥生の森博物館","Jusho":"島根県出雲市大津町2760","洪水":"◎","がけ崩れ、土石流及び地滑り":"◎","高潮":"","地震":"◎","津波":"◎","大規模な火事":"","内水氾濫":"","火山現象":"","指定避難所との重複":"◎","備考":""}},
{"type":"Feature","geometry":{"type":"Point","coordinates":[132.7772573823,35.3714888169]},"properties":{"Name":"大津小学校（体育館）","Jusho":"島根県出雲市大津町370-1","洪水":"","がけ崩れ、土石流及び地滑り":"◎","高潮":"","地震":"","津波":"◎","大規模な火事":"","内水氾濫":"","火山現象":"","指定避難所との重複":"◎","備考":""}},
{"type":"Feature","geometry":{"type":"Point","coordinates":[132.7653761558,35.3685182900]},"properties":{"Name":"出雲中央図書館","Jusho":"島根県出雲市大津町1134","洪水":"","がけ崩れ、土石流及び地滑り":"◎","高潮":"","地震":"◎","津波":"◎","大規模な火事":"","内水氾濫":"","火山現象":"","指定避難所との重複":"◎","備考":""}},
{"type":"Feature","geometry":{"type":"Point","coordinates":[132.7647822905,35.3693492791]},"properties":{"Name":"島根県出雲合同庁舎","Jusho":"島根県出雲市大津町1139","洪水":"","がけ崩れ、土石流及び地滑り":"◎","高潮":"","地震":"◎","津波":"◎","大規模な火事":"","内水氾濫":"","火山現象":"","指定避難所との重複":"◎","備考":""}},
{"type":"Feature","geometry":{"type":"Point","coordinates":[132.7449626325,35.3617830072]},"properties":{"Name":"出雲市民会館","Jusho":"島根県出雲市塩冶有原町2-15","洪水":"◎","がけ崩れ、土石流及び地滑り":"◎","高潮":"","地震":"◎","津波":"◎","大規模な火事":"","内水氾濫":"","火山現象":"","指定避難所との重複":"◎","備考":""}},
{"type":"Feature","geometry":{"type":"Point","coordinates":[132.7613882015,35.3452387447]},"properties":{"Name":"出雲工業高等学校（体育館）","Jusho":"島根県出雲市上塩冶町420","洪水":"◎","がけ崩れ、土石流及び地滑り":"◎","高潮":"","地震":"◎","津波":"◎","大規模な火事":"","内水氾濫":"","火山現象":"","指定避難所との重複":"◎","備考":""}},
{"type":"Feature","geometry":{"type":"Point","coordinates":[132.7493222930,35.3619389871]},"properties":{"Name":"第二中学校（武道場、アリーナ）","Jusho":"島根県出雲市塩冶町1501","洪水":"","がけ崩れ、土石流及び地滑り":"◎","高潮":"","地震":"◎","津波":"◎","大規模な火事":"","内水氾濫":"","火山現象":"","指定避難所との重複":"◎","備考":""}},
{"type":"Feature","geometry":{"type":"Point","coordinates":[132.7500339226,35.3514877360]},"properties":{"Name":"塩冶小学校（第1体育館）","Jusho":"島根県出雲市塩冶町709","洪水":"◎","がけ崩れ、土石流及び地滑り":"◎","高潮":"","地震":"◎","津波":"◎","大規模な火事":"","内水氾濫":"","火山現象":"","指定避難所との重複":"◎","備考":""}},
{"type":"Feature","geometry":{"type":"Point","coordinates":[132.7497120575,35.3505820406]},"properties":{"Name":"塩冶小学校（第2体育館）","Jusho":"島根県出雲市塩冶町709","洪水":"◎","がけ崩れ、土石流及び地滑り":"◎","高潮":"","地震":"◎","津波":"◎","大規模な火事":"","内水氾濫":"","火山現象":"","指定避難所との重複":"◎","備考":""}},
{"type":"Feature","geometry":{"type":"Point","coordinates":[132.7614811915,35.3560165307]},"properties":{"Name":"出雲市隣保館","Jusho":"島根県出雲市上塩冶町2657-1","洪水":"◎","がけ崩れ、土石流及び地滑り":"◎","高潮":"","地震":"◎","津波":"◎","大規模な火事":"","内水氾濫":"","火山現象":"","指定避難所との重複":"◎","備考":""}},
{"type":"Feature","geometry":{"type":"Point","coordinates":[132.7541142494,35.3530287498]},"properties":{"Name":"塩冶幼稚園","Jusho":"島根県出雲市塩冶町900","洪水":"◎","がけ崩れ、土石流及び地滑り":"◎","高潮":"","地震":"◎","津波":"◎","大規模な火事":"","内水氾濫":"","火山現象":"","指定避難所との重複":"◎","備考":""}},
{"type":"Feature","geometry":{"type":"Point","coordinates":[132.7510689965,35.3511207984]},"properties":{"Name":"塩冶コミュニティセンター","Jusho":"島根県出雲市塩冶町803-2","洪水":"◎","がけ崩れ、土石流及び地滑り":"◎","高潮":"","地震":"◎","津波":"◎","大規模な火事":"","内水氾濫":"","火山現象":"","指定避難所との重複":"◎","備考":""}},
{"type":"Feature","geometry":{"type":"Point","coordinates":[132.7564548907,35.3482199031]},"properties":{"Name":"島根大学医学部（大学会館）","Jusho":"島根県出雲市塩冶町89-1","洪水":"◎","がけ崩れ、土石流及び地滑り":"◎","高潮":"","地震":"◎","津波":"◎","大規模な火事":"","内水氾濫":"","火山現象":"","指定避難所との重複":"◎","備考":""}},
{"type":"Feature","geometry":{"type":"Point","coordinates":[132.7458079044,35.3620795791]},"properties":{"Name":"ニューウェルシティ出雲","Jusho":"島根県出雲市塩冶有原町2-15-1","洪水":"◎","がけ崩れ、土石流及び地滑り":"◎","高潮":"","地震":"◎","津波":"◎","大規模な火事":"","内水氾濫":"","火山現象":"","指定避難所との重複":"◎","備考":""}},
{"type":"Feature","geometry":{"type":"Point","coordinates":[132.7437283224,35.3398772253]},"properties":{"Name":"古志幼稚園","Jusho":"島根県出雲市古志町1949","洪水":"◎","がけ崩れ、土石流及び地滑り":"◎","高潮":"","地震":"◎","津波":"◎","大規模な火事":"","内水氾濫":"","火山現象":"","指定避難所との重複":"◎","備考":""}},
{"type":"Feature","geometry":{"type":"Point","coordinates":[132.7409249223,35.3433833472]},"properties":{"Name":"古志コミュニティセンター","Jusho":"島根県出雲市古志町1122-6","洪水":"◎","がけ崩れ、土石流及び地滑り":"◎","高潮":"","地震":"◎","津波":"◎","大規模な火事":"","内水氾濫":"","火山現象":"","指定避難所との重複":"◎","備考":""}},
{"type":"Feature","geometry":{"type":"Point","coordinates":[132.7431520372,35.3396144661]},"properties":{"Name":"古志スポーツセンター","Jusho":"島根県出雲市古志町1955","洪水":"◎","がけ崩れ、土石流及び地滑り":"◎","高潮":"","地震":"◎","津波":"◎","大規模な火事":"","内水氾濫":"","火山現象":"","指定避難所との重複":"◎","備考":""}},
{"type":"Feature","geometry":{"type":"Point","coordinates":[132.7221954350,35.3618848229]},"properties":{"Name":"高松小学校（体育館）","Jusho":"島根県出雲市松寄下町724","洪水":"◎","がけ崩れ、土石流及び地滑り":"◎","高潮":"","地震":"◎","津波":"◎","大規模な火事":"","内水氾濫":"","火山現象":"","指定避難所との重複":"◎","備考":""}},
{"type":"Feature","geometry":{"type":"Point","coordinates":[132.7208036106,35.3609949032]},"properties":{"Name":"高松コミュニティセンター","Jusho":"島根県出雲市松寄下町703-1","洪水":"◎","がけ崩れ、土石流及び地滑り":"◎","高潮":"","地震":"◎","津波":"◎","大規模な火事":"","内水氾濫":"","火山現象":"","指定避難所との重複":"◎","備考":""}},
{"type":"Feature","geometry":{"type":"Point","coordinates":[132.7092013080,35.3546125896]},"properties":{"Name":"出雲農林高等学校(体育館)","Jusho":"島根県出雲市下横町950","洪水":"◎","がけ崩れ、土石流及び地滑り":"◎","高潮":"","地震":"◎","津波":"◎","大規模な火事":"","内水氾濫":"","火山現象":"","指定避難所との重複":"◎","備考":""}},
{"type":"Feature","geometry":{"type":"Point","coordinates":[132.7110524940,35.3634336777]},"properties":{"Name":"浜山中学校（体育館）","Jusho":"島根県出雲市松寄下町1674","洪水":"◎","がけ崩れ、土石流及び地滑り":"◎","高潮":"","地震":"◎","津波":"◎","大規模な火事":"","内水氾濫":"","火山現象":"","指定避難所との重複":"◎","備考":""}},
{"type":"Feature","geometry":{"type":"Point","coordinates":[132.7483668285,35.3761749004]},"properties":{"Name":"四絡小学校(体育館)","Jusho":"島根県出雲市大塚町821-3","洪水":"","がけ崩れ、土石流及び地滑り":"◎","高潮":"","地震":"◎","津波":"◎","大規模な火事":"","内水氾濫":"","火山現象":"","指定避難所との重複":"◎","備考":""}},
{"type":"Feature","geometry":{"type":"Point","coordinates":[132.7464138974,35.3752559836]},"properties":{"Name":"四絡コミュニティセンター","Jusho":"島根県出雲市小山町650-21","洪水":"","がけ崩れ、土石流及び地滑り":"◎","高潮":"","地震":"◎","津波":"◎","大規模な火事":"","内水氾濫":"","火山現象":"","指定避難所との重複":"◎","備考":""}},
{"type":"Feature","geometry":{"type":"Point","coordinates":[132.7404483556,35.3831877229]},"properties":{"Name":"出雲ドーム","Jusho":"島根県出雲市矢野町999","洪水":"","がけ崩れ、土石流及び地滑り":"◎","高潮":"","地震":"◎","津波":"◎","大規模な火事":"","内水氾濫":"","火山現象":"","指定避難所との重複":"◎","備考":""}},
{"type":"Feature","geometry":{"type":"Point","coordinates":[132.7496161369,35.3834726587]},"properties":{"Name":"第三中学校(体育館)","Jusho":"島根県出雲市大塚町1184","洪水":"","がけ崩れ、土石流及び地滑り":"◎","高潮":"","地震":"","津波":"◎","大規模な火事":"","内水氾濫":"","火山現象":"","指定避難所との重複":"◎","備考":""}},
{"type":"Feature","geometry":{"type":"Point","coordinates":[132.7503549435,35.3771283544]},"properties":{"Name":"おおつか保育園","Jusho":"島根県出雲市大塚町790-1","洪水":"","がけ崩れ、土石流及び地滑り":"◎","高潮":"","地震":"◎","津波":"◎","大規模な火事":"","内水氾濫":"","火山現象":"","指定避難所との重複":"◎","備考":""}},
{"type":"Feature","geometry":{"type":"Point","coordinates":[132.7426298668,35.3925856082]},"properties":{"Name":"高浜小学校(体育館)","Jusho":"島根県出雲市里方町108","洪水":"","がけ崩れ、土石流及び地滑り":"◎","高潮":"","地震":"◎","津波":"◎","大規模な火事":"","内水氾濫":"","火山現象":"","指定避難所との重複":"◎","備考":""}},
{"type":"Feature","geometry":{"type":"Point","coordinates":[132.7399826966,35.3926200864]},"properties":{"Name":"高浜コミュニティセンター","Jusho":"島根県出雲市平野町1183","洪水":"","がけ崩れ、土石流及び地滑り":"◎","高潮":"","地震":"◎","津波":"◎","大規模な火事":"","内水氾濫":"","火山現象":"","指定避難所との重複":"◎","備考":""}},
{"type":"Feature","geometry":{"type":"Point","coordinates":[132.7688471841,35.3882156085]},"properties":{"Name":"川跡幼稚園","Jusho":"島根県出雲市稲岡町24-1","洪水":"◎","がけ崩れ、土石流及び地滑り":"◎","高潮":"","地震":"◎","津波":"◎","大規模な火事":"","内水氾濫":"","火山現象":"","指定避難所との重複":"◎","備考":""}},
{"type":"Feature","geometry":{"type":"Point","coordinates":[132.7693508582,35.3862286552]},"properties":{"Name":"川跡コミュニティセンター","Jusho":"島根県出雲市荻杼町211","洪水":"","がけ崩れ、土石流及び地滑り":"◎","高潮":"","地震":"","津波":"◎","大規模な火事":"","内水氾濫":"","火山現象":"","指定避難所との重複":"◎","備考":""}},
{"type":"Feature","geometry":{"type":"Point","coordinates":[132.7646216024,35.3752609092]},"properties":{"Name":"さんぴーの出雲","Jusho":"島根県出雲市中野美保南2-15","洪水":"","がけ崩れ、土石流及び地滑り":"◎","高潮":"","地震":"◎","津波":"◎","大規模な火事":"","内水氾濫":"","火山現象":"","指定避難所との重複":"◎","備考":""}},
{"type":"Feature","geometry":{"type":"Point","coordinates":[132.7696840478,35.3894964307]},"properties":{"Name":"北陽小学校(体育館)","Jusho":"島根県出雲市稲岡町10","洪水":"◎","がけ崩れ、土石流及び地滑り":"◎","高潮":"","地震":"","津波":"◎","大規模な火事":"","内水氾濫":"","火山現象":"","指定避難所との重複":"◎","備考":""}},
{"type":"Feature","geometry":{"type":"Point","coordinates":[132.7666958001,35.3962755472]},"properties":{"Name":"出雲北陵高等学校(体育館)","Jusho":"島根県出雲市西林木町3","洪水":"","がけ崩れ、土石流及び地滑り":"◎","高潮":"","地震":"◎","津波":"◎","大規模な火事":"","内水氾濫":"","火山現象":"","指定避難所との重複":"◎","備考":""}},
{"type":"Feature","geometry":{"type":"Point","coordinates":[132.7777663273,35.4038735977]},"properties":{"Name":"鳶巣コミュニティセンター","Jusho":"島根県出雲市東林木町890-4","洪水":"","がけ崩れ、土石流及び地滑り":"","高潮":"","地震":"◎","津波":"◎","大規模な火事":"","内水氾濫":"","火山現象":"","指定避難所との重複":"◎","備考":""}},
{"type":"Feature","geometry":{"type":"Point","coordinates":[132.7719925976,35.3969296618]},"properties":{"Name":"県立大学出雲キャンパス","Jusho":"島根県出雲市西林木町151","洪水":"","がけ崩れ、土石流及び地滑り":"◎","高潮":"","地震":"◎","津波":"◎","大規模な火事":"","内水氾濫":"","火山現象":"","指定避難所との重複":"◎","備考":""}},
{"type":"Feature","geometry":{"type":"Point","coordinates":[132.8325905028,35.3357499072]},"properties":{"Name":"上津小学校(体育館)","Jusho":"島根県出雲市上島町869","洪水":"","がけ崩れ、土石流及び地滑り":"◎","高潮":"","地震":"◎","津波":"◎","大規模な火事":"","内水氾濫":"","火山現象":"","指定避難所との重複":"◎","備考":""}},
{"type":"Feature","geometry":{"type":"Point","coordinates":[132.8359187681,35.3349092009]},"properties":{"Name":"上津コミュニティセンター","Jusho":"島根県出雲市上島町1031","洪水":"","がけ崩れ、土石流及び地滑り":"","高潮":"","地震":"◎","津波":"◎","大規模な火事":"","内水氾濫":"","火山現象":"","指定避難所との重複":"◎","備考":""}},
{"type":"Feature","geometry":{"type":"Point","coordinates":[132.8053702092,35.3061928994]},"properties":{"Name":"稗原小学校(体育館)","Jusho":"島根県出雲市稗原町2825","洪水":"◎","がけ崩れ、土石流及び地滑り":"","高潮":"","地震":"◎","津波":"◎","大規模な火事":"","内水氾濫":"","火山現象":"","指定避難所との重複":"◎","備考":""}},
{"type":"Feature","geometry":{"type":"Point","coordinates":[132.8052843785,35.3060790773]},"properties":{"Name":"稗原コミュニティセンター","Jusho":"島根県出雲市稗原町2859","洪水":"◎","がけ崩れ、土石流及び地滑り":"","高潮":"","地震":"◎","津波":"◎","大規模な火事":"","内水氾濫":"","火山現象":"","指定避難所との重複":"◎","備考":""}},
{"type":"Feature","geometry":{"type":"Point","coordinates":[132.8039622140,35.3063911643]},"properties":{"Name":"稗原交流センター","Jusho":"島根県出雲市稗原町2799-1","洪水":"◎","がけ崩れ、土石流及び地滑り":"◎","高潮":"","地震":"◎","津波":"◎","大規模な火事":"","内水氾濫":"","火山現象":"","指定避難所との重複":"◎","備考":""}},
{"type":"Feature","geometry":{"type":"Point","coordinates":[132.7651810312,35.3183093386]},"properties":{"Name":"朝山小学校(体育館)","Jusho":"島根県出雲市所原町185","洪水":"◎","がけ崩れ、土石流及び地滑り":"◎","高潮":"","地震":"◎","津波":"◎","大規模な火事":"","内水氾濫":"","火山現象":"","指定避難所との重複":"◎","備考":""}},
{"type":"Feature","geometry":{"type":"Point","coordinates":[132.7658784055,35.3186463755]},"properties":{"Name":"朝山コミュニティセンター","Jusho":"島根県出雲市所原町185","洪水":"◎","がけ崩れ、土石流及び地滑り":"◎","高潮":"","地震":"◎","津波":"◎","大規模な火事":"","内水氾濫":"","火山現象":"","指定避難所との重複":"◎","備考":""}},
{"type":"Feature","geometry":{"type":"Point","coordinates":[132.7746560966,35.3242328456]},"properties":{"Name":"南中学校(体育館)","Jusho":"島根県出雲市朝山町978","洪水":"◎","がけ崩れ、土石流及び地滑り":"◎","高潮":"","地震":"◎","津波":"◎","大規模な火事":"","内水氾濫":"","火山現象":"","指定避難所との重複":"◎","備考":""}},
{"type":"Feature","geometry":{"type":"Point","coordinates":[132.7618290818,35.2987963879]},"properties":{"Name":"みどりの郷出雲","Jusho":"島根県出雲市所原町2715-1","洪水":"◎","がけ崩れ、土石流及び地滑り":"◎","高潮":"","地震":"◎","津波":"◎","大規模な火事":"","内水氾濫":"","火山現象":"","指定避難所との重複":"◎","備考":""}},
{"type":"Feature","geometry":{"type":"Point","coordinates":[132.7238910329,35.2864114883]},"properties":{"Name":"乙立小学校(体育館)","Jusho":"島根県出雲市乙立町1028-4","洪水":"◎","がけ崩れ、土石流及び地滑り":"◎","高潮":"","地震":"◎","津波":"◎","大規模な火事":"","内水氾濫":"","火山現象":"","指定避難所との重複":"◎","備考":""}},
{"type":"Feature","geometry":{"type":"Point","coordinates":[132.7252643239,35.2845351344]},"properties":{"Name":"乙立コミュニティセンター","Jusho":"島根県出雲市乙立町3163","洪水":"◎","がけ崩れ、土石流及び地滑り":"","高潮":"","地震":"◎","津波":"◎","大規模な火事":"","内水氾濫":"","火山現象":"","指定避難所との重複":"◎","備考":""}},
{"type":"Feature","geometry":{"type":"Point","coordinates":[132.7291568897,35.3409070696]},"properties":{"Name":"神戸川小学校(体育館)","Jusho":"島根県出雲市下古志町808","洪水":"◎","がけ崩れ、土石流及び地滑り":"◎","高潮":"","地震":"◎","津波":"◎","大規模な火事":"","内水氾濫":"","火山現象":"","指定避難所との重複":"◎","備考":""}},
{"type":"Feature","geometry":{"type":"Point","coordinates":[132.7102204940,35.3361503384]},"properties":{"Name":"河南中学校(体育館)","Jusho":"島根県出雲市神門町1331","洪水":"◎","がけ崩れ、土石流及び地滑り":"◎","高潮":"","地震":"◎","津波":"◎","大規模な火事":"","内水氾濫":"","火山現象":"","指定避難所との重複":"◎","備考":""}},
{"type":"Feature","geometry":{"type":"Point","coordinates":[132.7320012464,35.3387782640]},"properties":{"Name":"出雲西高等学校(体育館)","Jusho":"島根県出雲市下古志町1163","洪水":"◎","がけ崩れ、土石流及び地滑り":"◎","高潮":"","地震":"◎","津波":"◎","大規模な火事":"","内水氾濫":"","火山現象":"","指定避難所との重複":"◎","備考":""}},
{"type":"Feature","geometry":{"type":"Point","coordinates":[132.7245957796,35.3398699903]},"properties":{"Name":"神門幼稚園","Jusho":"島根県出雲市知井宮町481-1","洪水":"◎","がけ崩れ、土石流及び地滑り":"◎","高潮":"","地震":"◎","津波":"◎","大規模な火事":"","内水氾濫":"","火山現象":"","指定避難所との重複":"◎","備考":""}},
{"type":"Feature","geometry":{"type":"Point","coordinates":[132.7281477725,35.3434302664]},"properties":{"Name":"神門保育園","Jusho":"島根県出雲市下古志町475","洪水":"◎","がけ崩れ、土石流及び地滑り":"◎","高潮":"","地震":"◎","津波":"◎","大規模な火事":"","内水氾濫":"","火山現象":"","指定避難所との重複":"◎","備考":""}},
{"type":"Feature","geometry":{"type":"Point","coordinates":[132.7201438651,35.3363265400]},"properties":{"Name":"神門コミュニティセンター","Jusho":"島根県出雲市知井宮町801-1","洪水":"◎","がけ崩れ、土石流及び地滑り":"◎","高潮":"","地震":"◎","津波":"◎","大規模な火事":"","内水氾濫":"","火山現象":"","指定避難所との重複":"◎","備考":""}},
{"type":"Feature","geometry":{"type":"Point","coordinates":[132.7232509860,35.3345775001]},"properties":{"Name":"出雲ゆうプラザ","Jusho":"島根県出雲市西新町1-2547-2","洪水":"◎","がけ崩れ、土石流及び地滑り":"◎","高潮":"","地震":"◎","津波":"◎","大規模な火事":"","内水氾濫":"","火山現象":"","指定避難所との重複":"◎","備考":""}},
{"type":"Feature","geometry":{"type":"Point","coordinates":[132.7256604614,35.3321918263]},"properties":{"Name":"朱鷺会館","Jusho":"島根県出雲市西新町2-2456-4","洪水":"◎","がけ崩れ、土石流及び地滑り":"◎","高潮":"","地震":"◎","津波":"◎","大規模な火事":"","内水氾濫":"","火山現象":"","指定避難所との重複":"◎","備考":""}},
{"type":"Feature","geometry":{"type":"Point","coordinates":[132.6984240748,35.3342763283]},"properties":{"Name":"神西小学校(体育館)","Jusho":"島根県出雲市神西沖町1090","洪水":"◎","がけ崩れ、土石流及び地滑り":"◎","高潮":"","地震":"◎","津波":"◎","大規模な火事":"","内水氾濫":"","火山現象":"","指定避難所との重複":"◎","備考":""}},
{"type":"Feature","geometry":{"type":"Point","coordinates":[132.6980936266,35.3319014909]},"properties":{"Name":"神西コミュニティセンター","Jusho":"島根県出雲市神西沖町447","洪水":"◎","がけ崩れ、土石流及び地滑り":"◎","高潮":"","地震":"◎","津波":"◎","大規模な火事":"","内水氾濫":"","火山現象":"","指定避難所との重複":"◎","備考":""}},
{"type":"Feature","geometry":{"type":"Point","coordinates":[132.7015805294,35.3249628858]},"properties":{"Name":"東神西コミュニティセンター","Jusho":"島根県出雲市東神西町939","洪水":"◎","がけ崩れ、土石流及び地滑り":"◎","高潮":"","地震":"◎","津波":"◎","大規模な火事":"","内水氾濫":"","火山現象":"","指定避難所との重複":"◎","備考":""}},
{"type":"Feature","geometry":{"type":"Point","coordinates":[132.6826944713,35.3417487760]},"properties":{"Name":"出雲養護学校","Jusho":"島根県出雲市神西沖町2485","洪水":"◎","がけ崩れ、土石流及び地滑り":"◎","高潮":"","地震":"◎","津波":"◎","大規模な火事":"","内水氾濫":"","火山現象":"","指定避難所との重複":"◎","備考":""}},
{"type":"Feature","geometry":{"type":"Point","coordinates":[132.6901885494,35.3611049229]},"properties":{"Name":"長浜小学校(体育館)","Jusho":"島根県出雲市荒茅町3848","洪水":"◎","がけ崩れ、土石流及び地滑り":"◎","高潮":"","地震":"◎","津波":"◎","大規模な火事":"","内水氾濫":"","火山現象":"","指定避難所との重複":"◎","備考":""}},
{"type":"Feature","geometry":{"type":"Point","coordinates":[132.6964965878,35.3552559905]},"properties":{"Name":"長浜コミュニティセンター","Jusho":"島根県出雲市長浜町514-11","洪水":"◎","がけ崩れ、土石流及び地滑り":"◎","高潮":"","地震":"◎","津波":"◎","大規模な火事":"","内水氾濫":"","火山現象":"","指定避難所との重複":"◎","備考":""}},
{"type":"Feature","geometry":{"type":"Point","coordinates":[132.6963678418,35.3554791209]},"properties":{"Name":"西部体育館","Jusho":"島根県出雲市長浜町514-11","洪水":"◎","がけ崩れ、土石流及び地滑り":"◎","高潮":"","地震":"◎","津波":"◎","大規模な火事":"","内水氾濫":"","火山現象":"","指定避難所との重複":"◎","備考":""}},
{"type":"Feature","geometry":{"type":"Point","coordinates":[132.6990886893,35.3669130112]},"properties":{"Name":"荒茅保育園","Jusho":"島根県出雲市荒茅町1021-6","洪水":"◎","がけ崩れ、土石流及び地滑り":"◎","高潮":"","地震":"◎","津波":"◎","大規模な火事":"","内水氾濫":"","火山現象":"","指定避難所との重複":"◎","備考":""}},
{"type":"Feature","geometry":{"type":"Point","coordinates":[132.6963730178,35.3497610267]},"properties":{"Name":"西園保育園","Jusho":"島根県出雲市西園町329","洪水":"◎","がけ崩れ、土石流及び地滑り":"◎","高潮":"","地震":"","津波":"◎","大規模な火事":"","内水氾濫":"","火山現象":"","指定避難所との重複":"◎","備考":""}},
{"type":"Feature","geometry":{"type":"Point","coordinates":[132.6748804184,35.3512525746]},"properties":{"Name":"外園保育園","Jusho":"島根県出雲市外園町204-1","洪水":"◎","がけ崩れ、土石流及び地滑り":"◎","高潮":"","地震":"◎","津波":"◎","大規模な火事":"","内水氾濫":"","火山現象":"","指定避難所との重複":"◎","備考":""}},
{"type":"Feature","geometry":{"type":"Point","coordinates":[132.7117002362,35.3164777613]},"properties":{"Name":"平成スポーツ公園（平成温泉）","Jusho":"島根県出雲市平成町2320-13","洪水":"◎","がけ崩れ、土石流及び地滑り":"◎","高潮":"","地震":"◎","津波":"◎","大規模な火事":"","内水氾濫":"","火山現象":"","指定避難所との重複":"◎","備考":""}},
{"type":"Feature","geometry":{"type":"Point","coordinates":[132.8131514635,35.4330397570]},"properties":{"Name":"平田ふれんどりーハウス","Jusho":"島根県出雲市西平田町171","洪水":"","がけ崩れ、土石流及び地滑り":"◎","高潮":"","地震":"◎","津波":"◎","大規模な火事":"","内水氾濫":"","火山現象":"","指定避難所との重複":"◎","備考":""}},
{"type":"Feature","geometry":{"type":"Point","coordinates":[132.8234405096,35.4362015235]},"properties":{"Name":"平田コミュニティセンター","Jusho":"島根県出雲市平田町911","洪水":"","がけ崩れ、土石流及び地滑り":"◎","高潮":"","地震":"","津波":"◎","大規模な火事":"","内水氾濫":"","火山現象":"","指定避難所との重複":"◎","備考":""}},
{"type":"Feature","geometry":{"type":"Point","coordinates":[132.8209559126,35.4289476447]},"properties":{"Name":"平田文化館・福祉館","Jusho":"島根県出雲市平田町2112-1","洪水":"","がけ崩れ、土石流及び地滑り":"◎","高潮":"","地震":"◎","津波":"◎","大規模な火事":"","内水氾濫":"","火山現象":"","指定避難所との重複":"◎","備考":""}},
{"type":"Feature","geometry":{"type":"Point","coordinates":[132.8219902971,35.4429207483]},"properties":{"Name":"平田中学校(体育館)","Jusho":"島根県出雲市平田町2950-1","洪水":"","がけ崩れ、土石流及び地滑り":"◎","高潮":"","地震":"◎","津波":"◎","大規模な火事":"","内水氾濫":"","火山現象":"","指定避難所との重複":"◎","備考":""}},
{"type":"Feature","geometry":{"type":"Point","coordinates":[132.8169966049,35.4433928625]},"properties":{"Name":"平田高等学校(体育館)","Jusho":"島根県出雲市平田町1","洪水":"◎","がけ崩れ、土石流及び地滑り":"◎","高潮":"","地震":"◎","津波":"◎","大規模な火事":"","内水氾濫":"","火山現象":"","指定避難所との重複":"◎","備考":""}},
{"type":"Feature","geometry":{"type":"Point","coordinates":[132.8214494390,35.4295945673]},"properties":{"Name":"ひらた子育て支援センター","Jusho":"島根県出雲市平田町2112-1","洪水":"","がけ崩れ、土石流及び地滑り":"◎","高潮":"","地震":"◎","津波":"◎","大規模な火事":"","内水氾濫":"","火山現象":"","指定避難所との重複":"◎","備考":""}},
{"type":"Feature","geometry":{"type":"Point","coordinates":[132.8200152692,35.4288898435]},"properties":{"Name":"平田学習館","Jusho":"島根県出雲市平田町2110-1","洪水":"","がけ崩れ、土石流及び地滑り":"◎","高潮":"","地震":"◎","津波":"◎","大規模な火事":"","内水氾濫":"","火山現象":"","指定避難所との重複":"◎","備考":""}},
{"type":"Feature","geometry":{"type":"Point","coordinates":[132.8104770002,35.4280734761]},"properties":{"Name":"平田ショッピングセンターViVA","Jusho":"島根県出雲市平田町1708-１","洪水":"","がけ崩れ、土石流及び地滑り":"◎","高潮":"","地震":"◎","津波":"◎","大規模な火事":"","内水氾濫":"","火山現象":"","指定避難所との重複":"◎","備考":""}},
{"type":"Feature","geometry":{"type":"Point","coordinates":[132.8126386694,35.4383861367]},"properties":{"Name":"平田本陣記念館","Jusho":"島根県出雲市平田町515","洪水":"◎","がけ崩れ、土石流及び地滑り":"◎","高潮":"","地震":"◎","津波":"◎","大規模な火事":"","内水氾濫":"","火山現象":"","指定避難所との重複":"◎","備考":""}},
{"type":"Feature","geometry":{"type":"Point","coordinates":[132.8167010073,35.4341096659]},"properties":{"Name":"平田小学校(体育館)","Jusho":"島根県出雲市西平田町1","洪水":"","がけ崩れ、土石流及び地滑り":"◎","高潮":"","地震":"◎","津波":"◎","大規模な火事":"","内水氾濫":"","火山現象":"","指定避難所との重複":"◎","備考":""}},
{"type":"Feature","geometry":{"type":"Point","coordinates":[132.8374005764,35.4310644553]},"properties":{"Name":"灘分コミュニティセンター","Jusho":"島根県出雲市灘分町1933","洪水":"","がけ崩れ、土石流及び地滑り":"◎","高潮":"","地震":"","津波":"◎","大規模な火事":"","内水氾濫":"","火山現象":"","指定避難所との重複":"◎","備考":""}},
{"type":"Feature","geometry":{"type":"Point","coordinates":[132.8375400513,35.4323801158]},"properties":{"Name":"灘分小学校(体育館)","Jusho":"島根県出雲市灘分町2091","洪水":"","がけ崩れ、土石流及び地滑り":"◎","高潮":"","地震":"◎","津波":"◎","大規模な火事":"","内水氾濫":"","火山現象":"","指定避難所との重複":"◎","備考":""}},
{"type":"Feature","geometry":{"type":"Point","coordinates":[132.8545440627,35.4438920107]},"properties":{"Name":"向陽中学校(体育館)","Jusho":"島根県出雲市灘分町1816-1","洪水":"","がけ崩れ、土石流及び地滑り":"◎","高潮":"","地震":"◎","津波":"◎","大規模な火事":"","内水氾濫":"","火山現象":"","指定避難所との重複":"◎","備考":""}},
{"type":"Feature","geometry":{"type":"Point","coordinates":[132.8012729056,35.4260965060]},"properties":{"Name":"国富小学校(体育館)","Jusho":"島根県出雲市国富町381","洪水":"◎","がけ崩れ、土石流及び地滑り":"◎","高潮":"","地震":"","津波":"◎","大規模な火事":"","内水氾濫":"","火山現象":"","指定避難所との重複":"◎","備考":""}},
{"type":"Feature","geometry":{"type":"Point","coordinates":[132.8042149707,35.4252451880]},"properties":{"Name":"国富コミュニティセンター","Jusho":"島根県出雲市国富町867","洪水":"","がけ崩れ、土石流及び地滑り":"◎","高潮":"","地震":"◎","津波":"◎","大規模な火事":"","内水氾濫":"","火山現象":"","指定避難所との重複":"◎","備考":""}},
{"type":"Feature","geometry":{"type":"Point","coordinates":[132.7999987614,35.4309421182]},"properties":{"Name":"プラッツ金山館","Jusho":"島根県出雲市国富町1311-1","洪水":"◎","がけ崩れ、土石流及び地滑り":"◎","高潮":"","地震":"◎","津波":"◎","大規模な火事":"","内水氾濫":"","火山現象":"","指定避難所との重複":"◎","備考":""}},
{"type":"Feature","geometry":{"type":"Point","coordinates":[132.7588751328,35.4508583354]},"properties":{"Name":"旧光中学校(体育館)","Jusho":"島根県出雲市奥宇賀町854","洪水":"◎","がけ崩れ、土石流及び地滑り":"◎","高潮":"","地震":"◎","津波":"◎","大規模な火事":"","内水氾濫":"","火山現象":"","指定避難所との重複":"◎","備考":""}},
{"type":"Feature","geometry":{"type":"Point","coordinates":[132.7838486121,35.4429097107]},"properties":{"Name":"西田小学校(体育館)","Jusho":"島根県出雲市万田町702-1","洪水":"◎","がけ崩れ、土石流及び地滑り":"◎","高潮":"","地震":"","津波":"◎","大規模な火事":"","内水氾濫":"","火山現象":"","指定避難所との重複":"◎","備考":""}},
{"type":"Feature","geometry":{"type":"Point","coordinates":[132.7842042214,35.4437025708]},"properties":{"Name":"西田コミュニティセンター","Jusho":"島根県出雲市万田町692","洪水":"◎","がけ崩れ、土石流及び地滑り":"◎","高潮":"","地震":"◎","津波":"◎","大規模な火事":"","内水氾濫":"","火山現象":"","指定避難所との重複":"◎","備考":""}},
{"type":"Feature","geometry":{"type":"Point","coordinates":[132.7458992923,35.4403139307]},"properties":{"Name":"鰐淵コミュニティセンター","Jusho":"島根県出雲市河下町720-1","洪水":"◎","がけ崩れ、土石流及び地滑り":"◎","高潮":"","地震":"","津波":"◎","大規模な火事":"","内水氾濫":"","火山現象":"","指定避難所との重複":"◎","備考":""}},
{"type":"Feature","geometry":{"type":"Point","coordinates":[132.7453966199,35.4411521798]},"properties":{"Name":"鰐淵小学校(体育館)","Jusho":"島根県出雲市河下町607-1","洪水":"◎","がけ崩れ、土石流及び地滑り":"","高潮":"","地震":"◎","津波":"◎","大規模な火事":"","内水氾濫":"","火山現象":"","指定避難所との重複":"◎","備考":""}},
{"type":"Feature","geometry":{"type":"Point","coordinates":[132.7313286347,35.4253769994]},"properties":{"Name":"お茶の里唐川館","Jusho":"島根県出雲市唐川町191","洪水":"◎","がけ崩れ、土石流及び地滑り":"◎","高潮":"","地震":"◎","津波":"◎","大規模な火事":"","内水氾濫":"","火山現象":"","指定避難所との重複":"◎","備考":""}},
{"type":"Feature","geometry":{"type":"Point","coordinates":[132.7114639684,35.4382602749]},"properties":{"Name":"猪目交流センター","Jusho":"島根県出雲市猪目町230-1","洪水":"◎","がけ崩れ、土石流及び地滑り":"","高潮":"","地震":"◎","津波":"◎","大規模な火事":"","内水氾濫":"","火山現象":"","指定避難所との重複":"◎","備考":""}},
{"type":"Feature","geometry":{"type":"Point","coordinates":[132.8215646733,35.4544654685]},"properties":{"Name":"さくら小学校(体育館)","Jusho":"島根県出雲市東福町453","洪水":"◎","がけ崩れ、土石流及び地滑り":"◎","高潮":"","地震":"◎","津波":"◎","大規模な火事":"","内水氾濫":"","火山現象":"","指定避難所との重複":"◎","備考":""}},
{"type":"Feature","geometry":{"type":"Point","coordinates":[132.8219071229,35.4566561559]},"properties":{"Name":"久多美コミュニティセンター","Jusho":"島根県出雲市東郷町175","洪水":"◎","がけ崩れ、土石流及び地滑り":"","高潮":"","地震":"◎","津波":"◎","大規模な火事":"","内水氾濫":"","火山現象":"","指定避難所との重複":"◎","備考":""}},
{"type":"Feature","geometry":{"type":"Point","coordinates":[132.8041020950,35.4503434865]},"properties":{"Name":"平田農業就業改善センター","Jusho":"島根県出雲市東福町2110","洪水":"◎","がけ崩れ、土石流及び地滑り":"◎","高潮":"","地震":"","津波":"◎","大規模な火事":"","内水氾濫":"","火山現象":"","指定避難所との重複":"◎","備考":""}},
{"type":"Feature","geometry":{"type":"Point","coordinates":[132.8446494148,35.4597552099]},"properties":{"Name":"檜山小学校(体育館)","Jusho":"島根県出雲市多久谷町182-1","洪水":"◎","がけ崩れ、土石流及び地滑り":"◎","高潮":"","地震":"◎","津波":"◎","大規模な火事":"","内水氾濫":"","火山現象":"","指定避難所との重複":"◎","備考":""}},
{"type":"Feature","geometry":{"type":"Point","coordinates":[132.8458773940,35.4605557921]},"properties":{"Name":"檜山コミュニティセンター","Jusho":"島根県出雲市多久町10","洪水":"◎","がけ崩れ、土石流及び地滑り":"","高潮":"","地震":"","津波":"◎","大規模な火事":"","内水氾濫":"","火山現象":"","指定避難所との重複":"◎","備考":""}},
{"type":"Feature","geometry":{"type":"Point","coordinates":[132.8703680147,35.4589451385]},"properties":{"Name":"東コミュニティセンター","Jusho":"島根県出雲市鹿園寺町49-3","洪水":"◎","がけ崩れ、土石流及び地滑り":"◎","高潮":"","地震":"◎","津波":"◎","大規模な火事":"","内水氾濫":"","火山現象":"","指定避難所との重複":"◎","備考":""}},
{"type":"Feature","geometry":{"type":"Point","coordinates":[132.8767578177,35.4655735328]},"properties":{"Name":"東小学校(体育館)","Jusho":"島根県出雲市鹿園寺町1004-6","洪水":"◎","がけ崩れ、土石流及び地滑り":"◎","高潮":"","地震":"◎","津波":"◎","大規模な火事":"","内水氾濫":"","火山現象":"","指定避難所との重複":"◎","備考":""}},
{"type":"Feature","geometry":{"type":"Point","coordinates":[132.8795310847,35.4622289647]},"properties":{"Name":"青少年の家サンレイク","Jusho":"島根県出雲市小境町1991-2","洪水":"◎","がけ崩れ、土石流及び地滑り":"◎","高潮":"","地震":"◎","津波":"◎","大規模な火事":"","内水氾濫":"","火山現象":"","指定避難所との重複":"◎","備考":""}},
{"type":"Feature","geometry":{"type":"Point","coordinates":[132.7555729047,35.4573563009]},"properties":{"Name":"北浜小学校(体育館、校舎)","Jusho":"島根県出雲市十六島町1383-5","洪水":"◎","がけ崩れ、土石流及び地滑り":"◎","高潮":"","地震":"◎","津波":"","大規模な火事":"","内水氾濫":"","火山現象":"","指定避難所との重複":"◎","備考":""}},
{"type":"Feature","geometry":{"type":"Point","coordinates":[132.7550747305,35.4575367770]},"properties":{"Name":"北浜コミュニティセンター","Jusho":"島根県出雲市十六島町1851-1","洪水":"◎","がけ崩れ、土石流及び地滑り":"","高潮":"","地震":"","津波":"","大規模な火事":"","内水氾濫":"","火山現象":"","指定避難所との重複":"◎","備考":""}},
{"type":"Feature","geometry":{"type":"Point","coordinates":[132.7886529587,35.4798539377]},"properties":{"Name":"塩津小学校(体育館)","Jusho":"島根県出雲市塩津町101-2","洪水":"◎","がけ崩れ、土石流及び地滑り":"","高潮":"","地震":"","津波":"◎","大規模な火事":"","内水氾濫":"","火山現象":"","指定避難所との重複":"◎","備考":""}},
{"type":"Feature","geometry":{"type":"Point","coordinates":[132.8487505339,35.5000288185]},"properties":{"Name":"佐香コミュニティセンター","Jusho":"島根県出雲市坂浦町3601","洪水":"◎","がけ崩れ、土石流及び地滑り":"◎","高潮":"","地震":"◎","津波":"◎","大規模な火事":"","内水氾濫":"","火山現象":"","指定避難所との重複":"◎","備考":""}},
{"type":"Feature","geometry":{"type":"Point","coordinates":[132.8473757868,35.4993744222]},"properties":{"Name":"旧佐香小学校(体育館)","Jusho":"島根県出雲市坂浦町2472-1","洪水":"◎","がけ崩れ、土石流及び地滑り":"◎","高潮":"","地震":"","津波":"◎","大規模な火事":"","内水氾濫":"","火山現象":"","指定避難所との重複":"◎","備考":""}},
{"type":"Feature","geometry":{"type":"Point","coordinates":[132.8289743313,35.4956168489]},"properties":{"Name":"三津町自治会館(水産センター）","Jusho":"島根県出雲市三津町146-7","洪水":"◎","がけ崩れ、土石流及び地滑り":"","高潮":"","地震":"◎","津波":"◎","大規模な火事":"","内水氾濫":"","火山現象":"","指定避難所との重複":"◎","備考":""}},
{"type":"Feature","geometry":{"type":"Point","coordinates":[132.8944194515,35.4862877824]},"properties":{"Name":"伊野小学校(体育館)","Jusho":"島根県出雲市野郷町459-2","洪水":"◎","がけ崩れ、土石流及び地滑り":"","高潮":"","地震":"◎","津波":"◎","大規模な火事":"","内水氾濫":"","火山現象":"","指定避難所との重複":"◎","備考":""}},
{"type":"Feature","geometry":{"type":"Point","coordinates":[132.8949661552,35.4851099458]},"properties":{"Name":"伊野コミュニティセンター","Jusho":"島根県出雲市野郷町492-5","洪水":"◎","がけ崩れ、土石流及び地滑り":"◎","高潮":"","地震":"","津波":"◎","大規模な火事":"","内水氾濫":"","火山現象":"","指定避難所との重複":"◎","備考":""}},
{"type":"Feature","geometry":{"type":"Point","coordinates":[132.7354028573,35.2357695165]},"properties":{"Name":"潮の井荘","Jusho":"島根県出雲市佐田町須佐749-5","洪水":"◎","がけ崩れ、土石流及び地滑り":"◎","高潮":"","地震":"","津波":"◎","大規模な火事":"","内水氾濫":"","火山現象":"","指定避難所との重複":"◎","備考":""}},
{"type":"Feature","geometry":{"type":"Point","coordinates":[132.7181308750,35.2538291655]},"properties":{"Name":"佐田支所(須佐コミュニティセンター)","Jusho":"島根県出雲市佐田町反辺1747-6","洪水":"◎","がけ崩れ、土石流及び地滑り":"","高潮":"","地震":"◎","津波":"◎","大規模な火事":"","内水氾濫":"","火山現象":"","指定避難所との重複":"◎","備考":""}},
{"type":"Feature","geometry":{"type":"Point","coordinates":[132.7259300632,35.2434446877]},"properties":{"Name":"須佐小学校(体育館)","Jusho":"島根県出雲市佐田町須佐1137-1","洪水":"◎","がけ崩れ、土石流及び地滑り":"","高潮":"","地震":"◎","津波":"◎","大規模な火事":"","内水氾濫":"","火山現象":"","指定避難所との重複":"◎","備考":""}},
{"type":"Feature","geometry":{"type":"Point","coordinates":[132.7358283491,35.2345480101]},"properties":{"Name":"出雲須佐温泉ゆかり館","Jusho":"島根県出雲市佐田町原田737","洪水":"◎","がけ崩れ、土石流及び地滑り":"◎","高潮":"","地震":"◎","津波":"◎","大規模な火事":"","内水氾濫":"","火山現象":"","指定避難所との重複":"◎","備考":""}},
{"type":"Feature","geometry":{"type":"Point","coordinates":[132.7213334326,35.2516169325]},"properties":{"Name":"佐田スポーツセンター","Jusho":"島根県出雲市佐田町反辺1948-1","洪水":"◎","がけ崩れ、土石流及び地滑り":"","高潮":"","地震":"","津波":"◎","大規模な火事":"","内水氾濫":"","火山現象":"","指定避難所との重複":"◎","備考":""}},
{"type":"Feature","geometry":{"type":"Point","coordinates":[132.7217625860,35.2518053032]},"properties":{"Name":"文化練習館","Jusho":"島根県出雲市佐田町反辺1943","洪水":"◎","がけ崩れ、土石流及び地滑り":"◎","高潮":"","地震":"◎","津波":"◎","大規模な火事":"","内水氾濫":"","火山現象":"","指定避難所との重複":"◎","備考":""}},
{"type":"Feature","geometry":{"type":"Point","coordinates":[132.7173262123,35.2544555889]},"properties":{"Name":"スサノオホール","Jusho":"島根県出雲市佐田町反辺1747-4","洪水":"◎","がけ崩れ、土石流及び地滑り":"","高潮":"","地震":"◎","津波":"◎","大規模な火事":"","内水氾濫":"","火山現象":"","指定避難所との重複":"◎","備考":""}},
{"type":"Feature","geometry":{"type":"Point","coordinates":[132.6988807816,35.2585894202]},"properties":{"Name":"佐田中学校(体育館)","Jusho":"島根県出雲市佐田町八幡原200","洪水":"◎","がけ崩れ、土石流及び地滑り":"","高潮":"","地震":"","津波":"◎","大規模な火事":"","内水氾濫":"","火山現象":"","指定避難所との重複":"◎","備考":""}},
{"type":"Feature","geometry":{"type":"Point","coordinates":[132.6927228487,35.2471238018]},"properties":{"Name":"窪田コミュニティセンター","Jusho":"島根県出雲市佐田町八幡原492-6","洪水":"◎","がけ崩れ、土石流及び地滑り":"","高潮":"","地震":"◎","津波":"◎","大規模な火事":"","内水氾濫":"","火山現象":"","指定避難所との重複":"◎","備考":""}},
{"type":"Feature","geometry":{"type":"Point","coordinates":[132.6814250686,35.2448605826]},"properties":{"Name":"飯の原農村公園センターハウス","Jusho":"島根県出雲市佐田町一窪田657","洪水":"◎","がけ崩れ、土石流及び地滑り":"","高潮":"","地震":"◎","津波":"◎","大規模な火事":"","内水氾濫":"","火山現象":"","指定避難所との重複":"◎","備考":""}},
{"type":"Feature","geometry":{"type":"Point","coordinates":[132.6694160597,35.2326107937]},"properties":{"Name":"窪田小学校(体育館)","Jusho":"島根県出雲市佐田町一窪田1430-8","洪水":"◎","がけ崩れ、土石流及び地滑り":"","高潮":"","地震":"◎","津波":"◎","大規模な火事":"","内水氾濫":"","火山現象":"","指定避難所との重複":"◎","備考":""}},
{"type":"Feature","geometry":{"type":"Point","coordinates":[132.6689109295,35.2334246143]},"properties":{"Name":"窪田保育所","Jusho":"島根県出雲市佐田町一窪田1430-1","洪水":"◎","がけ崩れ、土石流及び地滑り":"◎","高潮":"","地震":"","津波":"◎","大規模な火事":"","内水氾濫":"","火山現象":"","指定避難所との重複":"◎","備考":""}},
{"type":"Feature","geometry":{"type":"Point","coordinates":[132.5836300420,35.2593776056]},"properties":{"Name":"旧田儀小学校(体育館)","Jusho":"島根県出雲市多伎町口田儀1221","洪水":"◎","がけ崩れ、土石流及び地滑り":"◎","高潮":"","地震":"◎","津波":"◎","大規模な火事":"","内水氾濫":"","火山現象":"","指定避難所との重複":"◎","備考":""}},
{"type":"Feature","geometry":{"type":"Point","coordinates":[132.6314656536,35.2843749565]},"properties":{"Name":"多伎中学校（体育館）","Jusho":"島根県出雲市多伎町多岐785","洪水":"◎","がけ崩れ、土石流及び地滑り":"◎","高潮":"","地震":"◎","津波":"◎","大規模な火事":"","内水氾濫":"","火山現象":"","指定避難所との重複":"◎","備考":""}},
{"type":"Feature","geometry":{"type":"Point","coordinates":[132.6298637413,35.2833345814]},"properties":{"Name":"多伎小学校（体育館）","Jusho":"島根県出雲市多伎町多岐900","洪水":"◎","がけ崩れ、土石流及び地滑り":"","高潮":"","地震":"◎","津波":"◎","大規模な火事":"","内水氾濫":"","火山現象":"","指定避難所との重複":"◎","備考":""}},
{"type":"Feature","geometry":{"type":"Point","coordinates":[132.6254326190,35.2851609332]},"properties":{"Name":"多伎コミュニティセンター","Jusho":"島根県出雲市多伎町小田73","洪水":"◎","がけ崩れ、土石流及び地滑り":"◎","高潮":"","地震":"◎","津波":"◎","大規模な火事":"","内水氾濫":"","火山現象":"","指定避難所との重複":"◎","備考":""}},
{"type":"Feature","geometry":{"type":"Point","coordinates":[132.6261460906,35.2842028808]},"properties":{"Name":"デイサービスセンターたき","Jusho":"島根県出雲市多伎町小田50-8","洪水":"◎","がけ崩れ、土石流及び地滑り":"◎","高潮":"","地震":"◎","津波":"◎","大規模な火事":"","内水氾濫":"","火山現象":"","指定避難所との重複":"◎","備考":""}},
{"type":"Feature","geometry":{"type":"Point","coordinates":[132.6432293921,35.2972852056]},"properties":{"Name":"多伎勤労者体育センター","Jusho":"島根県出雲市多伎町久村1341-1","洪水":"◎","がけ崩れ、土石流及び地滑り":"","高潮":"","地震":"◎","津波":"◎","大規模な火事":"","内水氾濫":"","火山現象":"","指定避難所との重複":"◎","備考":""}},
{"type":"Feature","geometry":{"type":"Point","coordinates":[132.6753635406,35.3228200082]},"properties":{"Name":"湖陵コミュニティセンター","Jusho":"島根県出雲市湖陵町二部1320","洪水":"◎","がけ崩れ、土石流及び地滑り":"◎","高潮":"","地震":"","津波":"◎","大規模な火事":"","内水氾濫":"","火山現象":"","指定避難所との重複":"◎","備考":""}},
{"type":"Feature","geometry":{"type":"Point","coordinates":[132.6726288110,35.3176879862]},"properties":{"Name":"湖陵幼稚園","Jusho":"島根県出雲市湖陵町二部1117","洪水":"◎","がけ崩れ、土石流及び地滑り":"◎","高潮":"","地震":"◎","津波":"◎","大規模な火事":"","内水氾濫":"","火山現象":"","指定避難所との重複":"◎","備考":""}},
{"type":"Feature","geometry":{"type":"Point","coordinates":[132.6746105459,35.3154708323]},"properties":{"Name":"湖陵中学校(体育館)","Jusho":"島根県出雲市湖陵町三部1183","洪水":"◎","がけ崩れ、土石流及び地滑り":"◎","高潮":"","地震":"◎","津波":"◎","大規模な火事":"","内水氾濫":"","火山現象":"","指定避難所との重複":"◎","備考":""}},
{"type":"Feature","geometry":{"type":"Point","coordinates":[132.6712031664,35.3161996857]},"properties":{"Name":"湖陵小学校(体育館)","Jusho":"島根県出雲市湖陵町二部1100","洪水":"◎","がけ崩れ、土石流及び地滑り":"◎","高潮":"","地震":"◎","津波":"◎","大規模な火事":"","内水氾濫":"","火山現象":"","指定避難所との重複":"◎","備考":""}},
{"type":"Feature","geometry":{"type":"Point","coordinates":[132.6647761999,35.3209151368]},"properties":{"Name":"湖陵体育センター","Jusho":"島根県出雲市湖陵町板津137-1","洪水":"◎","がけ崩れ、土石流及び地滑り":"◎","高潮":"","地震":"◎","津波":"◎","大規模な火事":"","内水氾濫":"","火山現象":"","指定避難所との重複":"◎","備考":""}},
{"type":"Feature","geometry":{"type":"Point","coordinates":[132.6838855267,35.3946766451]},"properties":{"Name":"大社小学校(体育館)","Jusho":"島根県出雲市大社町杵築南900-1","洪水":"◎","がけ崩れ、土石流及び地滑り":"◎","高潮":"","地震":"◎","津波":"◎","大規模な火事":"","内水氾濫":"","火山現象":"","指定避難所との重複":"◎","備考":""}},
{"type":"Feature","geometry":{"type":"Point","coordinates":[132.6857126017,35.3931857715]},"properties":{"Name":"大社中学校(体育館)","Jusho":"島根県出雲市大社町杵築南1330","洪水":"◎","がけ崩れ、土石流及び地滑り":"◎","高潮":"","地震":"◎","津波":"◎","大規模な火事":"","内水氾濫":"","火山現象":"","指定避難所との重複":"◎","備考":""}},
{"type":"Feature","geometry":{"type":"Point","coordinates":[132.6824534438,35.3954087033]},"properties":{"Name":"大社幼稚園","Jusho":"島根県出雲市大社町杵築南1201","洪水":"◎","がけ崩れ、土石流及び地滑り":"◎","高潮":"","地震":"◎","津波":"◎","大規模な火事":"","内水氾濫":"","火山現象":"","指定避難所との重複":"◎","備考":""}},
{"type":"Feature","geometry":{"type":"Point","coordinates":[132.6827170074,35.3943463641]},"properties":{"Name":"たいしゃ保育園","Jusho":"島根県出雲市大社町杵築南1235","洪水":"◎","がけ崩れ、土石流及び地滑り":"◎","高潮":"","地震":"◎","津波":"◎","大規模な火事":"","内水氾濫":"","火山現象":"","指定避難所との重複":"◎","備考":""}},
{"type":"Feature","geometry":{"type":"Point","coordinates":[132.6799260824,35.3946268848]},"properties":{"Name":"大社コミュニティセンター","Jusho":"島根県出雲市大社町杵築南1051-1","洪水":"◎","がけ崩れ、土石流及び地滑り":"◎","高潮":"","地震":"","津波":"◎","大規模な火事":"","内水氾濫":"","火山現象":"","指定避難所との重複":"◎","備考":""}},
{"type":"Feature","geometry":{"type":"Point","coordinates":[132.6849225656,35.3907180654]},"properties":{"Name":"大社文化プレイスうらら館","Jusho":"島根県出雲市大社町杵築南1338-9","洪水":"◎","がけ崩れ、土石流及び地滑り":"◎","高潮":"","地震":"◎","津波":"◎","大規模な火事":"","内水氾濫":"","火山現象":"","指定避難所との重複":"◎","備考":""}},
{"type":"Feature","geometry":{"type":"Point","coordinates":[132.6886887342,35.3987746864]},"properties":{"Name":"県立古代出雲歴史博物館","Jusho":"島根県出雲市大社町杵築東99-4","洪水":"◎","がけ崩れ、土石流及び地滑り":"◎","高潮":"","地震":"◎","津波":"◎","大規模な火事":"","内水氾濫":"","火山現象":"","指定避難所との重複":"◎","備考":""}},
{"type":"Feature","geometry":{"type":"Point","coordinates":[132.7028278826,35.3810667404]},"properties":{"Name":"大社高等学校(体育館)","Jusho":"島根県出雲市大社町北荒木1473","洪水":"◎","がけ崩れ、土石流及び地滑り":"◎","高潮":"","地震":"◎","津波":"◎","大規模な火事":"","内水氾濫":"","火山現象":"","指定避難所との重複":"◎","備考":""}},
{"type":"Feature","geometry":{"type":"Point","coordinates":[132.7065062542,35.3838984076]},"properties":{"Name":"浜山公園施設（カミアリーナ）","Jusho":"島根県出雲市大社町北荒木1868-10","洪水":"◎","がけ崩れ、土石流及び地滑り":"◎","高潮":"","地震":"◎","津波":"◎","大規模な火事":"","内水氾濫":"","火山現象":"","指定避難所との重複":"◎","備考":""}},
{"type":"Feature","geometry":{"type":"Point","coordinates":[132.6904988308,35.3845281976]},"properties":{"Name":"荒木小学校(体育館)","Jusho":"島根県出雲市大社町北荒木413","洪水":"◎","がけ崩れ、土石流及び地滑り":"◎","高潮":"","地震":"◎","津波":"◎","大規模な火事":"","内水氾濫":"","火山現象":"","指定避難所との重複":"◎","備考":""}},
{"type":"Feature","geometry":{"type":"Point","coordinates":[132.6881764813,35.3830262052]},"properties":{"Name":"荒木幼稚園","Jusho":"島根県出雲市大社町北荒木310","洪水":"◎","がけ崩れ、土石流及び地滑り":"◎","高潮":"","地震":"◎","津波":"◎","大規模な火事":"","内水氾濫":"","火山現象":"","指定避難所との重複":"◎","備考":""}},
{"type":"Feature","geometry":{"type":"Point","coordinates":[132.6904636043,35.3830028316]},"properties":{"Name":"荒木コミュニティセンター","Jusho":"島根県出雲市大社町北荒木389-2","洪水":"◎","がけ崩れ、土石流及び地滑り":"◎","高潮":"","地震":"◎","津波":"◎","大規模な火事":"","内水氾濫":"","火山現象":"","指定避難所との重複":"◎","備考":""}},
{"type":"Feature","geometry":{"type":"Point","coordinates":[132.7188434588,35.3928110816]},"properties":{"Name":"遙堪小学校(体育館)","Jusho":"島根県出雲市大社町遙堪73","洪水":"","がけ崩れ、土石流及び地滑り":"◎","高潮":"","地震":"◎","津波":"◎","大規模な火事":"","内水氾濫":"","火山現象":"","指定避難所との重複":"◎","備考":""}},
{"type":"Feature","geometry":{"type":"Point","coordinates":[132.7179046856,35.3925793082]},"properties":{"Name":"遙堪幼稚園","Jusho":"島根県出雲市大社町遙堪73-1","洪水":"","がけ崩れ、土石流及び地滑り":"◎","高潮":"","地震":"◎","津波":"◎","大規模な火事":"","内水氾濫":"","火山現象":"","指定避難所との重複":"◎","備考":""}},
{"type":"Feature","geometry":{"type":"Point","coordinates":[132.7194550024,35.3922863107]},"properties":{"Name":"遙堪コミュニティセンター","Jusho":"島根県出雲市大社町遙堪359-2","洪水":"","がけ崩れ、土石流及び地滑り":"◎","高潮":"","地震":"◎","津波":"◎","大規模な火事":"","内水氾濫":"","火山現象":"","指定避難所との重複":"◎","備考":""}},
{"type":"Feature","geometry":{"type":"Point","coordinates":[132.6343635367,35.4299648360]},"properties":{"Name":"旧日御碕小学校(体育館)","Jusho":"島根県出雲市大社町日御碕521-1","洪水":"◎","がけ崩れ、土石流及び地滑り":"◎","高潮":"","地震":"◎","津波":"◎","大規模な火事":"","内水氾濫":"","火山現象":"","指定避難所との重複":"◎","備考":""}},
{"type":"Feature","geometry":{"type":"Point","coordinates":[132.6360894692,35.4291334932]},"properties":{"Name":"日御碕コミュニティセンター","Jusho":"島根県出雲市大社町宇龍338-3","洪水":"◎","がけ崩れ、土石流及び地滑り":"","高潮":"","地震":"◎","津波":"◎","大規模な火事":"","内水氾濫":"","火山現象":"","指定避難所との重複":"◎","備考":""}},
{"type":"Feature","geometry":{"type":"Point","coordinates":[132.6935595730,35.4415492667]},"properties":{"Name":"旧鵜鷺小学校(体育館)","Jusho":"島根県出雲市大社町鷺浦275","洪水":"◎","がけ崩れ、土石流及び地滑り":"","高潮":"","地震":"◎","津波":"◎","大規模な火事":"","内水氾濫":"","火山現象":"","指定避難所との重複":"◎","備考":""}},
{"type":"Feature","geometry":{"type":"Point","coordinates":[132.6917234244,35.4414337016]},"properties":{"Name":"鵜鷺コミュニティセンター","Jusho":"島根県出雲市大社町鷺浦1045-1","洪水":"◎","がけ崩れ、土石流及び地滑り":"","高潮":"","地震":"","津波":"◎","大規模な火事":"","内水氾濫":"","火山現象":"","指定避難所との重複":"◎","備考":""}},
{"type":"Feature","geometry":{"type":"Point","coordinates":[132.8741373610,35.3819887738]},"properties":{"Name":"四季荘","Jusho":"島根県出雲市斐川町学頭1369","洪水":"◎","がけ崩れ、土石流及び地滑り":"","高潮":"","地震":"◎","津波":"◎","大規模な火事":"","内水氾濫":"","火山現象":"","指定避難所との重複":"◎","備考":""}},
{"type":"Feature","geometry":{"type":"Point","coordinates":[132.8549379986,35.3968705395]},"properties":{"Name":"斐川第1体育館","Jusho":"島根県出雲市斐川町荘原2876-3","洪水":"◎","がけ崩れ、土石流及び地滑り":"◎","高潮":"","地震":"◎","津波":"◎","大規模な火事":"","内水氾濫":"","火山現象":"","指定避難所との重複":"◎","備考":""}},
{"type":"Feature","geometry":{"type":"Point","coordinates":[132.8575059381,35.3969333875]},"properties":{"Name":"荘原コミュニティセンター","Jusho":"島根県出雲市斐川町荘原3835","洪水":"","がけ崩れ、土石流及び地滑り":"◎","高潮":"","地震":"◎","津波":"◎","大規模な火事":"","内水氾濫":"","火山現象":"","指定避難所との重複":"◎","備考":""}},
{"type":"Feature","geometry":{"type":"Point","coordinates":[132.8550007549,35.3981140490]},"properties":{"Name":"東部保育園","Jusho":"島根県出雲市斐川町荘原2300-1","洪水":"◎","がけ崩れ、土石流及び地滑り":"◎","高潮":"","地震":"◎","津波":"◎","大規模な火事":"","内水氾濫":"","火山現象":"","指定避難所との重複":"◎","備考":""}},
{"type":"Feature","geometry":{"type":"Point","coordinates":[132.8424182433,35.3932687794]},