var toyama={"type":"FeatureCollection","name":"toyama","features":[
{"type":"Feature","geometry":{"type":"Point","coordinates":[137.2095850000,36.6904420000]},"properties":{"Name":"旧総曲輪小学校(体育館)","Jusho":"富山県富山市総曲輪4-4-7","洪水":"","がけ崩れ、土石流及び地滑り":"◎","高潮":"","地震":"◎","津波":"","大規模な火事":"◎","内水氾濫":"","火山現象":"","指定避難所との重複":"◎","備考":""}},
{"type":"Feature","geometry":{"type":"Point","coordinates":[137.2172950000,36.6933920000]},"properties":{"Name":"旧八人町小学校（富山市教育センター）","Jusho":"富山県富山市八人町5-17","洪水":"◎","がけ崩れ、土石流及び地滑り":"◎","高潮":"","地震":"◎","津波":"","大規模な火事":"◎","内水氾濫":"","火山現象":"","指定避難所との重複":"◎","備考":""}},
{"type":"Feature","geometry":{"type":"Point","coordinates":[137.2067700000,36.7012210000]},"properties":{"Name":"雄峰高校","Jusho":"富山県富山市神通町2-12-10","洪水":"◎","がけ崩れ、土石流及び地滑り":"◎","高潮":"","地震":"◎","津波":"","大規模な火事":"◎","内水氾濫":"","火山現象":"","指定避難所との重複":"◎","備考":""}},
{"type":"Feature","geometry":{"type":"Point","coordinates":[137.2230950000,36.6946070000]},"properties":{"Name":"柳町小学校","Jusho":"富山県富山市柳町4-2-26","洪水":"◎","がけ崩れ、土石流及び地滑り":"◎","高潮":"","地震":"◎","津波":"","大規模な火事":"◎","内水氾濫":"","火山現象":"","指定避難所との重複":"◎","備考":""}},
{"type":"Feature","geometry":{"type":"Point","coordinates":[137.2240240000,36.6856120000]},"properties":{"Name":"旧清水町小学校(体育館)","Jusho":"富山県富山市清水町8-1-1","洪水":"","がけ崩れ、土石流及び地滑り":"◎","高潮":"","地震":"◎","津波":"","大規模な火事":"◎","内水氾濫":"","火山現象":"","指定避難所との重複":"◎","備考":""}},
{"type":"Feature","geometry":{"type":"Point","coordinates":[137.2129770000,36.6845850000]},"properties":{"Name":"旧星井町小学校(体育館)","Jusho":"富山県富山市星井町2-7-29","洪水":"◎","がけ崩れ、土石流及び地滑り":"◎","高潮":"","地震":"◎","津波":"","大規模な火事":"◎","内水氾濫":"","火山現象":"","指定避難所との重複":"◎","備考":""}},
{"type":"Feature","geometry":{"type":"Point","coordinates":[137.2194820000,36.6869640000]},"properties":{"Name":"中央小学校","Jusho":"富山県富山市五番町4-35","洪水":"◎","がけ崩れ、土石流及び地滑り":"◎","高潮":"","地震":"◎","津波":"","大規模な火事":"◎","内水氾濫":"","火山現象":"","指定避難所との重複":"◎","備考":""}},
{"type":"Feature","geometry":{"type":"Point","coordinates":[137.2064200000,36.6850990000]},"properties":{"Name":"西田地方小学校","Jusho":"富山県富山市西田地方町1-1-25","洪水":"◎","がけ崩れ、土石流及び地滑り":"◎","高潮":"","地震":"◎","津波":"","大規模な火事":"◎","内水氾濫":"","火山現象":"","指定避難所との重複":"◎","備考":""}},
{"type":"Feature","geometry":{"type":"Point","coordinates":[137.2208850000,36.6770190000]},"properties":{"Name":"堀川小学校","Jusho":"富山県富山市堀川小泉町1-13-10","洪水":"◎","がけ崩れ、土石流及び地滑り":"◎","高潮":"","地震":"◎","津波":"","大規模な火事":"◎","内水氾濫":"","火山現象":"","指定避難所との重複":"◎","備考":""}},
{"type":"Feature","geometry":{"type":"Point","coordinates":[137.2304480000,36.6636660000]},"properties":{"Name":"堀川南小学校","Jusho":"富山県富山市本郷町282-3","洪水":"◎","がけ崩れ、土石流及び地滑り":"◎","高潮":"","地震":"◎","津波":"","大規模な火事":"◎","内水氾濫":"","火山現象":"","指定避難所との重複":"◎","備考":""}},
{"type":"Feature","geometry":{"type":"Point","coordinates":[137.2037560000,36.6731550000]},"properties":{"Name":"光陽小学校","Jusho":"富山県富山市二口町1-4-1","洪水":"◎","がけ崩れ、土石流及び地滑り":"◎","高潮":"","地震":"◎","津波":"","大規模な火事":"◎","内水氾濫":"","火山現象":"","指定避難所との重複":"◎","備考":""}},
{"type":"Feature","geometry":{"type":"Point","coordinates":[137.2356360000,36.6903900000]},"properties":{"Name":"東部小学校","Jusho":"富山県富山市石金1-5-44","洪水":"◎","がけ崩れ、土石流及び地滑り":"◎","高潮":"","地震":"◎","津波":"","大規模な火事":"◎","内水氾濫":"","火山現象":"","指定避難所との重複":"◎","備考":""}},
{"type":"Feature","geometry":{"type":"Point","coordinates":[137.2211550000,36.7081220000]},"properties":{"Name":"奥田小学校","Jusho":"富山県富山市奥田双葉町10-18","洪水":"◎","がけ崩れ、土石流及び地滑り":"◎","高潮":"","地震":"◎","津波":"","大規模な火事":"◎","内水氾濫":"","火山現象":"","指定避難所との重複":"◎","備考":""}},
{"type":"Feature","geometry":{"type":"Point","coordinates":[137.2206110000,36.7193180000]},"properties":{"Name":"奥田北小学校","Jusho":"富山県富山市下新北町3-72","洪水":"◎","がけ崩れ、土石流及び地滑り":"◎","高潮":"","地震":"◎","津波":"","大規模な火事":"◎","内水氾濫":"","火山現象":"","指定避難所との重複":"◎","備考":""}},
{"type":"Feature","geometry":{"type":"Point","coordinates":[137.1990770000,36.7082790000]},"properties":{"Name":"桜谷小学校","Jusho":"富山県富山市田刈屋279","洪水":"◎","がけ崩れ、土石流及び地滑り":"◎","高潮":"","地震":"◎","津波":"","大規模な火事":"◎","内水氾濫":"","火山現象":"","指定避難所との重複":"◎","備考":""}},
{"type":"Feature","geometry":{"type":"Point","coordinates":[137.1845820000,36.7022802900]},"properties":{"Name":"五福小学校","Jusho":"富山県富山市五福4431-2","洪水":"◎","がけ崩れ、土石流及び地滑り":"◎","高潮":"","地震":"◎","津波":"","大規模な火事":"◎","内水氾濫":"","火山現象":"","指定避難所との重複":"◎","備考":""}},
{"type":"Feature","geometry":{"type":"Point","coordinates":[137.1845580000,36.6862010000]},"properties":{"Name":"神明小学校","Jusho":"富山県富山市高田147-2","洪水":"◎","がけ崩れ、土石流及び地滑り":"◎","高潮":"","地震":"◎","津波":"","大規模な火事":"◎","内水氾濫":"","火山現象":"","指定避難所との重複":"◎","備考":""}},
{"type":"Feature","geometry":{"type":"Point","coordinates":[137.2305934000,36.7541994500]},"properties":{"Name":"岩瀬小学校","Jusho":"富山県富山市岩瀬御蔵町1","洪水":"◎","がけ崩れ、土石流及び地滑り":"◎","高潮":"","地震":"◎","津波":"◎","大規模な火事":"◎","内水氾濫":"","火山現象":"","指定避難所との重複":"◎","備考":""}},
{"type":"Feature","geometry":{"type":"Point","coordinates":[137.2297590000,36.7464300000]},"properties":{"Name":"萩浦小学校","Jusho":"富山県富山市高畠町2-11-28","洪水":"◎","がけ崩れ、土石流及び地滑り":"◎","高潮":"","地震":"◎","津波":"","大規模な火事":"◎","内水氾濫":"","火山現象":"","指定避難所との重複":"◎","備考":""}},
{"type":"Feature","geometry":{"type":"Point","coordinates":[137.2528460000,36.7542520000]},"properties":{"Name":"大広田小学校","Jusho":"富山県富山市田畑183","洪水":"◎","がけ崩れ、土石流及び地滑り":"◎","高潮":"","地震":"◎","津波":"","大規模な火事":"◎","内水氾濫":"","火山現象":"","指定避難所との重複":"◎","備考":""}},
{"type":"Feature","geometry":{"type":"Point","coordinates":[137.2785796000,36.7583847200]},"properties":{"Name":"浜黒崎小学校","Jusho":"富山県富山市浜黒崎3301-2","洪水":"◎","がけ崩れ、土石流及び地滑り":"◎","高潮":"","地震":"◎","津波":"◎","大規模な火事":"◎","内水氾濫":"","火山現象":"","指定避難所との重複":"◎","備考":""}},
{"type":"Feature","geometry":{"type":"Point","coordinates":[137.2677020000,36.7296860000]},"properties":{"Name":"針原小学校","Jusho":"富山県富山市針原中町523-1","洪水":"◎","がけ崩れ、土石流及び地滑り":"◎","高潮":"","地震":"◎","津波":"","大規模な火事":"◎","内水氾濫":"","火山現象":"","指定避難所との重複":"◎","備考":""}},
{"type":"Feature","geometry":{"type":"Point","coordinates":[137.2043540000,36.6970350000]},"properties":{"Name":"芝園中学校","Jusho":"富山県富山市芝園町3-1-26","洪水":"◎","がけ崩れ、土石流及び地滑り":"◎","高潮":"","地震":"◎","津波":"","大規模な火事":"◎","内水氾濫":"","火山現象":"","指定避難所との重複":"◎","備考":""}},
{"type":"Feature","geometry":{"type":"Point","coordinates":[137.2420890000,36.7299210000]},"properties":{"Name":"豊田小学校","Jusho":"富山県富山市米田2-1","洪水":"◎","がけ崩れ、土石流及び地滑り":"◎","高潮":"","地震":"◎","津波":"","大規模な火事":"◎","内水氾濫":"","火山現象":"","指定避難所との重複":"◎","備考":""}},
{"type":"Feature","geometry":{"type":"Point","coordinates":[137.2469890000,36.7135220000]},"properties":{"Name":"広田小学校","Jusho":"富山県富山市鍋田22-53","洪水":"◎","がけ崩れ、土石流及び地滑り":"◎","高潮":"","地震":"◎","津波":"","大規模な火事":"◎","内水氾濫":"","火山現象":"","指定避難所との重複":"◎","備考":""}},
{"type":"Feature","geometry":{"type":"Point","coordinates":[137.2518220000,36.7021150000]},"properties":{"Name":"新庄小学校","Jusho":"富山県富山市新庄町1-6-30","洪水":"◎","がけ崩れ、土石流及び地滑り":"◎","高潮":"","地震":"◎","津波":"","大規模な火事":"◎","内水氾濫":"","火山現象":"","指定避難所との重複":"◎","備考":""}},
{"type":"Feature","geometry":{"type":"Point","coordinates":[137.2629800000,36.7110980000]},"properties":{"Name":"新庄北小学校","Jusho":"富山県富山市新庄本町2-4-11","洪水":"◎","がけ崩れ、土石流及び地滑り":"◎","高潮":"","地震":"◎","津波":"","大規模な火事":"◎","内水氾濫":"","火山現象":"","指定避難所との重複":"◎","備考":""}},
{"type":"Feature","geometry":{"type":"Point","coordinates":[137.2681500000,36.6868730000]},"properties":{"Name":"藤ノ木小学校","Jusho":"富山県富山市藤木1246","洪水":"◎","がけ崩れ、土石流及び地滑り":"◎","高潮":"","地震":"◎","津波":"","大規模な火事":"◎","内水氾濫":"","火山現象":"","指定避難所との重複":"◎","備考":""}},
{"type":"Feature","geometry":{"type":"Point","coordinates":[137.2401250000,36.6787460000]},"properties":{"Name":"山室小学校","Jusho":"富山県富山市中市2-10-5","洪水":"◎","がけ崩れ、土石流及び地滑り":"◎","高潮":"","地震":"◎","津波":"","大規模な火事":"◎","内水氾濫":"","火山現象":"","指定避難所との重複":"◎","備考":""}},
{"type":"Feature","geometry":{"type":"Point","coordinates":[137.2536020000,36.6718500000]},"properties":{"Name":"山室中部小学校","Jusho":"富山県富山市山室荒屋162-2","洪水":"◎","がけ崩れ、土石流及び地滑り":"◎","高潮":"","地震":"◎","津波":"","大規模な火事":"◎","内水氾濫":"","火山現象":"","指定避難所との重複":"◎","備考":""}},
{"type":"Feature","geometry":{"type":"Point","coordinates":[137.2509500000,36.6537710000]},"properties":{"Name":"太田小学校","Jusho":"富山県富山市太田14-2","洪水":"◎","がけ崩れ、土石流及び地滑り":"◎","高潮":"","地震":"◎","津波":"","大規模な火事":"◎","内水氾濫":"","火山現象":"","指定避難所との重複":"◎","備考":""}},
{"type":"Feature","geometry":{"type":"Point","coordinates":[137.2221510000,36.6542230000]},"properties":{"Name":"蜷川小学校","Jusho":"富山県富山市赤田75-1","洪水":"◎","がけ崩れ、土石流及び地滑り":"◎","高潮":"","地震":"◎","津波":"","大規模な火事":"◎","内水氾濫":"","火山現象":"","指定避難所との重複":"◎","備考":""}},
{"type":"Feature","geometry":{"type":"Point","coordinates":[137.1947990000,36.6346060000]},"properties":{"Name":"新保小学校","Jusho":"富山県富山市任海888-2","洪水":"◎","がけ崩れ、土石流及び地滑り":"◎","高潮":"","地震":"◎","津波":"","大規模な火事":"◎","内水氾濫":"","火山現象":"","指定避難所との重複":"◎","備考":""}},
{"type":"Feature","geometry":{"type":"Point","coordinates":[137.2210720000,36.6293460000]},"properties":{"Name":"熊野小学校","Jusho":"富山県富山市宮保602","洪水":"◎","がけ崩れ、土石流及び地滑り":"◎","高潮":"","地震":"◎","津波":"","大規模な火事":"◎","内水氾濫":"","火山現象":"","指定避難所との重複":"◎","備考":""}},
{"type":"Feature","geometry":{"type":"Point","coordinates":[137.2529150000,36.6225380000]},"properties":{"Name":"月岡小学校","Jusho":"富山県富山市上千俵町500","洪水":"◎","がけ崩れ、土石流及び地滑り":"◎","高潮":"","地震":"◎","津波":"","大規模な火事":"◎","内水氾濫":"","火山現象":"","指定避難所との重複":"◎","備考":""}},
{"type":"Feature","geometry":{"type":"Point","coordinates":[137.1954115000,36.7548819800]},"properties":{"Name":"四方小学校","Jusho":"富山県富山市四方405","洪水":"◎","がけ崩れ、土石流及び地滑り":"◎","高潮":"","地震":"◎","津波":"◎","大規模な火事":"◎","内水氾濫":"","火山現象":"","指定避難所との重複":"◎","備考":""}},
{"type":"Feature","geometry":{"type":"Point","coordinates":[137.1961460000,36.7408740000]},"properties":{"Name":"八幡小学校","Jusho":"富山県富山市八幡670","洪水":"◎","がけ崩れ、土石流及び地滑り":"◎","高潮":"","地震":"◎","津波":"","大規模な火事":"◎","内水氾濫":"","火山現象":"","指定避難所との重複":"◎","備考":""}},
{"type":"Feature","geometry":{"type":"Point","coordinates":[137.2080250000,36.7453070000]},"properties":{"Name":"草島小学校","Jusho":"富山県富山市草島93","洪水":"◎","がけ崩れ、土石流及び地滑り":"◎","高潮":"","地震":"◎","津波":"","大規模な火事":"◎","内水氾濫":"","火山現象":"","指定避難所との重複":"◎","備考":""}},
{"type":"Feature","geometry":{"type":"Point","coordinates":[137.1911210000,36.7490910000]},"properties":{"Name":"倉垣小学校","Jusho":"富山県富山市布目4002","洪水":"◎","がけ崩れ、土石流及び地滑り":"◎","高潮":"","地震":"◎","津波":"","大規模な火事":"◎","内水氾濫":"","火山現象":"","指定避難所との重複":"◎","備考":""}},
{"type":"Feature","geometry":{"type":"Point","coordinates":[137.1690280000,36.7138860000]},"properties":{"Name":"呉羽小学校","Jusho":"富山県富山市呉羽町6171","洪水":"◎","がけ崩れ、土石流及び地滑り":"◎","高潮":"","地震":"◎","津波":"","大規模な火事":"◎","内水氾濫":"","火山現象":"","指定避難所との重複":"◎","備考":""}},
{"type":"Feature","geometry":{"type":"Point","coordinates":[137.1890890000,36.7197820000]},"properties":{"Name":"長岡小学校","Jusho":"富山県富山市長岡9420","洪水":"◎","がけ崩れ、土石流及び地滑り":"◎","高潮":"","地震":"◎","津波":"","大規模な火事":"◎","内水氾濫":"","火山現象":"","指定避難所との重複":"◎","備考":""}},
{"type":"Feature","geometry":{"type":"Point","coordinates":[137.1530070000,36.7296790000]},"properties":{"Name":"寒江小学校","Jusho":"富山県富山市本郷中部427","洪水":"◎","がけ崩れ、土石流及び地滑り":"◎","高潮":"","地震":"◎","津波":"","大規模な火事":"◎","内水氾濫":"","火山現象":"","指定避難所との重複":"◎","備考":""}},
{"type":"Feature","geometry":{"type":"Point","coordinates":[137.1412570000,36.6916010000]},"properties":{"Name":"古沢小学校","Jusho":"富山県富山市古沢501","洪水":"◎","がけ崩れ、土石流及び地滑り":"◎","高潮":"","地震":"◎","津波":"","大規模な火事":"◎","内水氾濫":"","火山現象":"","指定避難所との重複":"◎","備考":""}},
{"type":"Feature","geometry":{"type":"Point","coordinates":[137.1318820000,36.7077710000]},"properties":{"Name":"老田小学校","Jusho":"富山県富山市中老田317","洪水":"◎","がけ崩れ、土石流及び地滑り":"◎","高潮":"","地震":"◎","津波":"","大規模な火事":"◎","内水氾濫":"","火山現象":"","指定避難所との重複":"◎","備考":""}},
{"type":"Feature","geometry":{"type":"Point","coordinates":[137.1200610000,36.6828910000]},"properties":{"Name":"池多小学校","Jusho":"富山県富山市西押川1442","洪水":"◎","がけ崩れ、土石流及び地滑り":"◎","高潮":"","地震":"◎","津波":"","大規模な火事":"◎","内水氾濫":"","火山現象":"","指定避難所との重複":"◎","備考":""}},
{"type":"Feature","geometry":{"type":"Point","coordinates":[137.3069652000,36.7517393900]},"properties":{"Name":"水橋中部小学校","Jusho":"富山県富山市水橋町568","洪水":"◎","がけ崩れ、土石流及び地滑り":"◎","高潮":"","地震":"◎","津波":"◎","大規模な火事":"◎","内水氾濫":"","火山現象":"","指定避難所との重複":"◎","備考":""}},
{"type":"Feature","geometry":{"type":"Point","coordinates":[137.3000390000,36.7521230000]},"properties":{"Name":"水橋西部小学校","Jusho":"富山県富山市水橋辻ヶ堂1919-2","洪水":"◎","がけ崩れ、土石流及び地滑り":"◎","高潮":"","地震":"◎","津波":"◎","大規模な火事":"◎","内水氾濫":"","火山現象":"","指定避難所との重複":"◎","備考":""}},
{"type":"Feature","geometry":{"type":"Point","coordinates":[137.3246390000,36.7397320000]},"properties":{"Name":"水橋東部小学校","Jusho":"富山県富山市水橋上桜木114","洪水":"◎","がけ崩れ、土石流及び地滑り":"◎","高潮":"","地震":"◎","津波":"","大規模な火事":"◎","内水氾濫":"","火山現象":"","指定避難所との重複":"◎","備考":""}},
{"type":"Feature","geometry":{"type":"Point","coordinates":[137.2929540000,36.7210960000]},"properties":{"Name":"三郷小学校","Jusho":"富山県富山市水橋小路345","洪水":"◎","がけ崩れ、土石流及び地滑り":"◎","高潮":"","地震":"◎","津波":"","大規模な火事":"◎","内水氾濫":"","火山現象":"","指定避難所との重複":"◎","備考":""}},
{"type":"Feature","geometry":{"type":"Point","coordinates":[137.3142600000,36.7261980000]},"properties":{"Name":"上条小学校","Jusho":"富山県富山市水橋石割99","洪水":"◎","がけ崩れ、土石流及び地滑り":"◎","高潮":"","地震":"◎","津波":"","大規模な火事":"◎","内水氾濫":"","火山現象":"","指定避難所との重複":"◎","備考":""}},
{"type":"Feature","geometry":{"type":"Point","coordinates":[137.2066320000,36.6827670000]},"properties":{"Name":"南部中学校","Jusho":"富山県富山市西田地方町2-10-10","洪水":"◎","がけ崩れ、土石流及び地滑り":"◎","高潮":"","地震":"◎","津波":"","大規模な火事":"◎","内水氾濫":"","火山現象":"","指定避難所との重複":"◎","備考":""}},
{"type":"Feature","geometry":{"type":"Point","coordinates":[137.2283250000,36.6789940000]},"properties":{"Name":"大泉中学校","Jusho":"富山県富山市大泉東町2-11-26","洪水":"◎","がけ崩れ、土石流及び地滑り":"◎","高潮":"","地震":"◎","津波":"","大規模な火事":"◎","内水氾濫":"","火山現象":"","指定避難所との重複":"◎","備考":""}},
{"type":"Feature","geometry":{"type":"Point","coordinates":[137.2227870000,36.6747920000]},"properties":{"Name":"堀川中学校","Jusho":"富山県富山市堀川小泉町1-21-15","洪水":"◎","がけ崩れ、土石流及び地滑り":"◎","高潮":"","地震":"◎","津波":"","大規模な火事":"◎","内水氾濫":"","火山現象":"","指定避難所との重複":"◎","備考":""}},
{"type":"Feature","geometry":{"type":"Point","coordinates":[137.2429430000,36.6914510000]},"properties":{"Name":"東部中学校","Jusho":"富山県富山市長江新町4-4-60","洪水":"◎","がけ崩れ、土石流及び地滑り":"◎","高潮":"","地震":"◎","津波":"","大規模な火事":"◎","内水氾濫":"","火山現象":"","指定避難所との重複":"◎","備考":""}},
{"type":"Feature","geometry":{"type":"Point","coordinates":[137.2257060000,36.7018540000]},"properties":{"Name":"奥田中学校","Jusho":"富山県富山市奥井町25-10","洪水":"◎","がけ崩れ、土石流及び地滑り":"◎","高潮":"","地震":"◎","津波":"","大規模な火事":"◎","内水氾濫":"","火山現象":"","指定避難所との重複":"◎","備考":""}},
{"type":"Feature","geometry":{"type":"Point","coordinates":[137.1900030000,36.7033210000]},"properties":{"Name":"西部中学校","Jusho":"富山県富山市五福130","洪水":"◎","がけ崩れ、土石流及び地滑り":"◎","高潮":"","地震":"◎","津波":"","大規模な火事":"◎","内水氾濫":"","火山現象":"","指定避難所との重複":"◎","備考":""}},
{"type":"Feature","geometry":{"type":"Point","coordinates":[137.2044920000,36.6966900000]},"properties":{"Name":"芝園小学校","Jusho":"富山県富山市芝園町3-1-26","洪水":"◎","がけ崩れ、土石流及び地滑り":"◎","高潮":"","地震":"◎","津波":"","大規模な火事":"◎","内水氾濫":"","火山現象":"","指定避難所との重複":"◎","備考":""}},
{"type":"Feature","geometry":{"type":"Point","coordinates":[137.2330210000,36.7429020000]},"properties":{"Name":"岩瀬中学校","Jusho":"富山県富山市蓮町4-3-10","洪水":"◎","がけ崩れ、土石流及び地滑り":"◎","高潮":"","地震":"◎","津波":"","大規模な火事":"◎","内水氾濫":"","火山現象":"","指定避難所との重複":"◎","備考":""}},
{"type":"Feature","geometry":{"type":"Point","coordinates":[137.2495480000,36.7479190000]},"properties":{"Name":"北部中学校","Jusho":"富山県富山市東富山寿町2-4-52","洪水":"◎","がけ崩れ、土石流及び地滑り":"◎","高潮":"","地震":"◎","津波":"","大規模な火事":"◎","内水氾濫":"","火山現象":"","指定避難所との重複":"◎","備考":""}},
{"type":"Feature","geometry":{"type":"Point","coordinates":[137.2537050000,36.6943940000]},"properties":{"Name":"新庄中学校","Jusho":"富山県富山市荒川5-4-18","洪水":"◎","がけ崩れ、土石流及び地滑り":"◎","高潮":"","地震":"◎","津波":"","大規模な火事":"◎","内水氾濫":"","火山現象":"","指定避難所との重複":"◎","備考":""}},
{"type":"Feature","geometry":{"type":"Point","coordinates":[137.2735440000,36.6918730000]},"properties":{"Name":"藤ノ木中学校","Jusho":"富山県富山市日俣222","洪水":"◎","がけ崩れ、土石流及び地滑り":"◎","高潮":"","地震":"◎","津波":"","大規模な火事":"◎","内水氾濫":"","火山現象":"","指定避難所との重複":"◎","備考":""}},
{"type":"Feature","geometry":{"type":"Point","coordinates":[137.2406930000,36.6685520000]},"properties":{"Name":"山室中学校","Jusho":"富山県富山市山室30-1","洪水":"◎","がけ崩れ、土石流及び地滑り":"◎","高潮":"","地震":"◎","津波":"","大規模な火事":"◎","内水氾濫":"","火山現象":"","指定避難所との重複":"◎","備考":""}},
{"type":"Feature","geometry":{"type":"Point","coordinates":[137.2121920000,36.6342780000]},"properties":{"Name":"興南中学校","Jusho":"富山県富山市下熊野728","洪水":"◎","がけ崩れ、土石流及び地滑り":"◎","高潮":"","地震":"◎","津波":"","大規模な火事":"◎","内水氾濫":"","火山現象":"","指定避難所との重複":"◎","備考":""}},
{"type":"Feature","geometry":{"type":"Point","coordinates":[137.2519120000,36.6172820000]},"properties":{"Name":"月岡中学校","Jusho":"富山県富山市中布目156","洪水":"◎","がけ崩れ、土石流及び地滑り":"◎","高潮":"","地震":"◎","津波":"","大規模な火事":"◎","内水氾濫":"","火山現象":"","指定避難所との重複":"◎","備考":""}},
{"type":"Feature","geometry":{"type":"Point","coordinates":[137.1860490000,36.7491910000]},"properties":{"Name":"和合中学校","Jusho":"富山県富山市布目3967","洪水":"◎","がけ崩れ、土石流及び地滑り":"◎","高潮":"","地震":"◎","津波":"","大規模な火事":"◎","内水氾濫":"","火山現象":"","指定避難所との重複":"◎","備考":""}},
{"type":"Feature","geometry":{"type":"Point","coordinates":[137.1648950000,36.7123750000]},"properties":{"Name":"呉羽中学校","Jusho":"富山県富山市呉羽町6662","洪水":"◎","がけ崩れ、土石流及び地滑り":"◎","高潮":"","地震":"◎","津波":"","大規模な火事":"◎","内水氾濫":"","火山現象":"","指定避難所との重複":"◎","備考":""}},
{"type":"Feature","geometry":{"type":"Point","coordinates":[137.3069873000,36.7509603900]},"properties":{"Name":"水橋中学校","Jusho":"富山県富山市水橋舘町443","洪水":"◎","がけ崩れ、土石流及び地滑り":"◎","高潮":"","地震":"◎","津波":"◎","大規模な火事":"◎","内水氾濫":"","火山現象":"","指定避難所との重複":"◎","備考":""}},
{"type":"Feature","geometry":{"type":"Point","coordinates":[137.3128160000,36.7224350000]},"properties":{"Name":"三成中学校","Jusho":"富山県富山市水橋石割70","洪水":"◎","がけ崩れ、土石流及び地滑り":"◎","高潮":"","地震":"◎","津波":"","大規模な火事":"◎","内水氾濫":"","火山現象":"","指定避難所との重複":"◎","備考":""}},
{"type":"Feature","geometry":{"type":"Point","coordinates":[137.2036980000,36.6958820000]},"properties":{"Name":"富山中部高校","Jusho":"富山県富山市芝園町3-1-26","洪水":"◎","がけ崩れ、土石流及び地滑り":"◎","高潮":"","地震":"◎","津波":"","大規模な火事":"◎","内水氾濫":"","火山現象":"","指定避難所との重複":"◎","備考":""}},
{"type":"Feature","geometry":{"type":"Point","coordinates":[137.2173980000,36.6725950000]},"properties":{"Name":"富山高校","Jusho":"富山県富山市太郎丸1","洪水":"◎","がけ崩れ、土石流及び地滑り":"◎","高潮":"","地震":"◎","津波":"","大規模な火事":"◎","内水氾濫":"","火山現象":"","指定避難所との重複":"◎","備考":""}},
{"type":"Feature","geometry":{"type":"Point","coordinates":[137.2209850000,36.6748410000]},"properties":{"Name":"富山いずみ高校","Jusho":"富山県富山市堀川小泉町1-21-1","洪水":"◎","がけ崩れ、土石流及び地滑り":"◎","高潮":"","地震":"◎","津波":"","大規模な火事":"◎","内水氾濫":"","火山現象":"","指定避難所との重複":"◎","備考":""}},
{"type":"Feature","geometry":{"type":"Point","coordinates":[137.2441300000,36.6509640000]},"properties":{"Name":"富山高等専門学校","Jusho":"富山県富山市本郷町13","洪水":"◎","がけ崩れ、土石流及び地滑り":"◎","高潮":"","地震":"◎","津波":"","大規模な火事":"◎","内水氾濫":"","火山現象":"","指定避難所との重複":"◎","備考":""}},
{"type":"Feature","geometry":{"type":"Point","coordinates":[137.2387260000,36.6851100000]},"properties":{"Name":"不二越工業高校","Jusho":"富山県富山市東石金町7-5","洪水":"◎","がけ崩れ、土石流及び地滑り":"◎","高潮":"","地震":"◎","津波":"","大規模な火事":"◎","内水氾濫":"","火山現象":"","指定避難所との重複":"◎","備考":""}},
{"type":"Feature","geometry":{"type":"Point","coordinates":[137.2190210000,36.7012490000]},"properties":{"Name":"龍谷富山高校","Jusho":"富山県富山市赤江町2-10","洪水":"◎","がけ崩れ、土石流及び地滑り":"◎","高潮":"","地震":"◎","津波":"","大規模な火事":"◎","内水氾濫":"","火山現象":"","指定避難所との重複":"◎","備考":""}},
{"type":"Feature","geometry":{"type":"Point","coordinates":[137.1949110000,36.7052280000]},"properties":{"Name":"富山大学附属小・中学校","Jusho":"富山県富山市五艘1300","洪水":"◎","がけ崩れ、土石流及び地滑り":"◎","高潮":"","地震":"◎","津波":"","大規模な火事":"◎","内水氾濫":"","火山現象":"","指定避難所との重複":"◎","備考":""}},
{"type":"Feature","geometry":{"type":"Point","coordinates":[137.1935330000,36.6985190000]},"properties":{"Name":"富山工業高校","Jusho":"富山県富山市五福2238","洪水":"◎","がけ崩れ、土石流及び地滑り":"◎","高潮":"","地震":"◎","津波":"","大規模な火事":"◎","内水氾濫":"","火山現象":"","指定避難所との重複":"◎","備考":""}},
{"type":"Feature","geometry":{"type":"Point","coordinates":[137.1861030000,36.6993120000]},"properties":{"Name":"富山大学五福キャンパス","Jusho":"富山県富山市五福3190","洪水":"◎","がけ崩れ、土石流及び地滑り":"◎","高潮":"","地震":"◎","津波":"","大規模な火事":"◎","内水氾濫":"","火山現象":"","指定避難所との重複":"◎","備考":""}},
{"type":"Feature","geometry":{"type":"Point","coordinates":[137.1419320000,36.6797880000]},"properties":{"Name":"富山大学杉谷キャンパス","Jusho":"富山県富山市杉谷2630","洪水":"◎","がけ崩れ、土石流及び地滑り":"◎","高潮":"","地震":"◎","津波":"","大規模な火事":"◎","内水氾濫":"","火山現象":"","指定避難所との重複":"◎","備考":""}},
{"type":"Feature","geometry":{"type":"Point","coordinates":[137.1883560000,36.6930260000]},"properties":{"Name":"富山商業高校","Jusho":"富山県富山市庄高田413","洪水":"◎","がけ崩れ、土石流及び地滑り":"◎","高潮":"","地震":"◎","津波":"","大規模な火事":"◎","内水氾濫":"","火山現象":"","指定避難所との重複":"◎","備考":""}},
{"type":"Feature","geometry":{"type":"Point","coordinates":[137.2346190000,36.7424370000]},"properties":{"Name":"富山北部高校","Jusho":"富山県富山市蓮町4-3-20","洪水":"◎","がけ崩れ、土石流及び地滑り":"◎","高潮":"","地震":"◎","津波":"","大規模な火事":"◎","内水氾濫":"","火山現象":"","指定避難所との重複":"◎","備考":""}},
{"type":"Feature","geometry":{"type":"Point","coordinates":[137.2529490000,36.7487760000]},"properties":{"Name":"高朋高校","Jusho":"富山県富山市東富山寿町1-1-39","洪水":"◎","がけ崩れ、土石流及び地滑り":"◎","高潮":"","地震":"◎","津波":"","大規模な火事":"◎","内水氾濫":"","火山現象":"","指定避難所との重複":"◎","備考":""}},
{"type":"Feature","geometry":{"type":"Point","coordinates":[137.2603750000,36.7597210000]},"properties":{"Name":"富山学園","Jusho":"富山県富山市針日225","洪水":"◎","がけ崩れ、土石流及び地滑り":"◎","高潮":"","地震":"◎","津波":"","大規模な火事":"◎","内水氾濫":"","火山現象":"","指定避難所との重複":"◎","備考":""}},
{"type":"Feature","geometry":{"type":"Point","coordinates":[137.2567560000,36.7409500000]},"properties":{"Name":"富山東高校","Jusho":"富山県富山市下飯野荒田6-1","洪水":"◎","がけ崩れ、土石流及び地滑り":"◎","高潮":"","地震":"◎","津波":"","大規模な火事":"◎","内水氾濫":"","火山現象":"","指定避難所との重複":"◎","備考":""}},
{"type":"Feature","geometry":{"type":"Point","coordinates":[137.2624730000,36.7005380000]},"properties":{"Name":"富山県技術専門学院","Jusho":"富山県富山市向新庄町1-14-48","洪水":"◎","がけ崩れ、土石流及び地滑り":"◎","高潮":"","地震":"◎","津波":"","大規模な火事":"◎","内水氾濫":"","火山現象":"","指定避難所との重複":"◎","備考":""}},
{"type":"Feature","geometry":{"type":"Point","coordinates":[137.2652640000,36.7066250000]},"properties":{"Name":"富山第一高校","Jusho":"富山県富山市向新庄町5-1-54","洪水":"◎","がけ崩れ、土石流及び地滑り":"◎","高潮":"","地震":"◎","津波":"","大規模な火事":"◎","内水氾濫":"","火山現象":"","指定避難所との重複":"◎","備考":""}},
{"type":"Feature","geometry":{"type":"Point","coordinates":[137.2678440000,36.6938030000]},"properties":{"Name":"富山視覚総合支援学校","Jusho":"富山県富山市大江干144","洪水":"◎","がけ崩れ、土石流及び地滑り":"◎","高潮":"","地震":"◎","津波":"","大規模な火事":"◎","内水氾濫":"","火山現象":"","指定避難所との重複":"◎","備考":""}},
{"type":"Feature","geometry":{"type":"Point","coordinates":[137.2371290000,36.6485320000]},"properties":{"Name":"富山南高校","Jusho":"富山県富山市布市98","洪水":"◎","がけ崩れ、土石流及び地滑り":"◎","高潮":"","地震":"◎","津波":"","大規模な火事":"◎","内水氾濫":"","火山現象":"","指定避難所との重複":"◎","備考":""}},
{"type":"Feature","geometry":{"type":"Point","coordinates":[137.1613630000,36.7168280000]},"properties":{"Name":"呉羽高校","Jusho":"富山県富山市呉羽町2070-5","洪水":"◎","がけ崩れ、土石流及び地滑り":"◎","高潮":"","地震":"◎","津波":"","大規模な火事":"◎","内水氾濫":"","火山現象":"","指定避難所との重複":"◎","備考":""}},
{"type":"Feature","geometry":{"type":"Point","coordinates":[137.1394940000,36.7211830000]},"properties":{"Name":"富山短期大学","Jusho":"富山県富山市願海寺444","洪水":"◎","がけ崩れ、土石流及び地滑り":"◎","高潮":"","地震":"◎","津波":"","大規模な火事":"◎","内水氾濫":"","火山現象":"","指定避難所との重複":"◎","備考":""}},
{"type":"Feature","geometry":{"type":"Point","coordinates":[137.2997640000,36.7396010000]},"properties":{"Name":"水橋高校","Jusho":"富山県富山市水橋中村24","洪水":"◎","がけ崩れ、土石流及び地滑り":"◎","高潮":"","地震":"◎","津波":"","大規模な火事":"◎","内水氾濫":"","火山現象":"","指定避難所との重複":"◎","備考":""}},
{"type":"Feature","geometry":{"type":"Point","coordinates":[137.1655850000,36.6922800000]},"properties":{"Name":"富山総合支援学校","Jusho":"富山県富山市金屋4982","洪水":"◎","がけ崩れ、土石流及び地滑り":"","高潮":"","地震":"◎","津波":"","大規模な火事":"◎","内水氾濫":"","火山現象":"","指定避難所との重複":"◎","備考":""}},
{"type":"Feature","geometry":{"type":"Point","coordinates":[137.2026150000,36.6942400000]},"properties":{"Name":"旧安野屋小学校体育館","Jusho":"富山県富山市安野屋町1-1-42","洪水":"","がけ崩れ、土石流及び地滑り":"◎","高潮":"","地震":"◎","津波":"","大規模な火事":"◎","内水氾濫":"","火山現象":"","指定避難所との重複":"◎","備考":""}},
{"type":"Feature","geometry":{"type":"Point","coordinates":[137.2140310000,36.7067570000]},"properties":{"Name":"総合体育館","Jusho":"富山県富山市湊入船町12-1","洪水":"◎","がけ崩れ、土石流及び地滑り":"◎","高潮":"","地震":"◎","津波":"","大規模な火事":"◎","内水氾濫":"","火山現象":"","指定避難所との重複":"◎","備考":""}},
{"type":"Feature","geometry":{"type":"Point","coordinates":[137.2475970000,36.7369560000]},"properties":{"Name":"東富山体育館","Jusho":"富山県富山市米田16-2","洪水":"","がけ崩れ、土石流及び地滑り":"◎","高潮":"","地震":"◎","津波":"","大規模な火事":"◎","内水氾濫":"","火山現象":"","指定避難所との重複":"◎","備考":""}},
{"type":"Feature","geometry":{"type":"Point","coordinates":[137.2499730000,36.6807580000]},"properties":{"Name":"2000年体育館","Jusho":"富山県富山市天正寺85","洪水":"◎","がけ崩れ、土石流及び地滑り":"◎","高潮":"","地震":"◎","津波":"","大規模な火事":"◎","内水氾濫":"","火山現象":"","指定避難所との重複":"◎","備考":""}},
{"type":"Feature","geometry":{"type":"Point","coordinates":[137.2620860000,36.7306080000]},"properties":{"Name":"富山市民球場","Jusho":"富山県富山市下飯野30-1","洪水":"◎","がけ崩れ、土石流及び地滑り":"◎","高潮":"","地震":"◎","津波":"","大規模な火事":"◎","内水氾濫":"","火山現象":"","指定避難所との重複":"◎","備考":""}},
{"type":"Feature","geometry":{"type":"Point","coordinates":[137.3054110000,36.7490530000]},"properties":{"Name":"勤労身体障害者体育センター","Jusho":"富山県富山市水橋畠等298-2","洪水":"","がけ崩れ、土石流及び地滑り":"◎","高潮":"","地震":"◎","津波":"","大規模な火事":"◎","内水氾濫":"","火山現象":"","指定避難所との重複":"◎","備考":""}},
{"type":"Feature","geometry":{"type":"Point","coordinates":[137.2513270000,36.6341420000]},"properties":{"Name":"営農サポートセンター","Jusho":"富山県富山市月岡町3-101","洪水":"◎","がけ崩れ、土石流及び地滑り":"◎","高潮":"","地震":"◎","津波":"","大規模な火事":"◎","内水氾濫":"","火山現象":"","指定避難所との重複":"◎","備考":""}},
{"type":"Feature","geometry":{"type":"Point","coordinates":[137.2322580000,36.5220550000]},"properties":{"Name":"下タ北部地区福祉センター","Jusho":"富山県富山市布尻991","洪水":"◎","がけ崩れ、土石流及び地滑り":"","高潮":"","地震":"◎","津波":"","大規模な火事":"◎","内水氾濫":"","火山現象":"","指定避難所との重複":"◎","備考":""}},
{"type":"Feature","geometry":{"type":"Point","coordinates":[137.1899730000,36.5649700000]},"properties":{"Name":"旧小羽小学校(体育館)","Jusho":"富山県富山市小羽279","洪水":"","がけ崩れ、土石流及び地滑り":"","高潮":"","地震":"◎","津波":"","大規模な火事":"◎","内水氾濫":"","火山現象":"","指定避難所との重複":"◎","備考":""}},
{"type":"Feature","geometry":{"type":"Point","coordinates":[137.2239660000,36.5854830000]},"properties":{"Name":"船峅小学校","Jusho":"富山県富山市坂本1733","洪水":"◎","がけ崩れ、土石流及び地滑り":"◎","高潮":"","地震":"◎","津波":"","大規模な火事":"◎","内水氾濫":"","火山現象":"","指定避難所との重複":"◎","備考":""}},
{"type":"Feature","geometry":{"type":"Point","coordinates":[137.2063530000,36.5776420000]},"properties":{"Name":"大沢野小学校","Jusho":"富山県富山市高内144","洪水":"◎","がけ崩れ、土石流及び地滑り":"◎","高潮":"","地震":"◎","津波":"","大規模な火事":"◎","内水氾濫":"","火山現象":"","指定避難所との重複":"◎","備考":""}},
{"type":"Feature","geometry":{"type":"Point","coordinates":[137.2043950000,36.6045290000]},"properties":{"Name":"大久保小学校","Jusho":"富山県富山市下大久保2430","洪水":"◎","がけ崩れ、土石流及び地滑り":"◎","高潮":"","地震":"◎","津波":"","大規模な火事":"◎","内水氾濫":"","火山現象":"","指定避難所との重複":"◎","備考":""}},
{"type":"Feature","geometry":{"type":"Point","coordinates":[137.2142720000,36.5905540000]},"properties":{"Name":"大沢野中学校","Jusho":"富山県富山市八木山550","洪水":"◎","がけ崩れ、土石流及び地滑り":"◎","高潮":"","地震":"◎","津波":"","大規模な火事":"◎","内水氾濫":"","火山現象":"","指定避難所との重複":"◎","備考":""}},
{"type":"Feature","geometry":{"type":"Point","coordinates":[137.2142910000,36.5864110000]},"properties":{"Name":"富山高等支援学校","Jusho":"富山県富山市坂本2600","洪水":"◎","がけ崩れ、土石流及び地滑り":"◎","高潮":"","地震":"◎","津波":"","大規模な火事":"◎","内水氾濫":"","火山現象":"","指定避難所との重複":"◎","備考":""}},
{"type":"Feature","geometry":{"type":"Point","coordinates":[137.2428900000,36.4710980000]},"properties":{"Name":"下タ南部地区福祉センター","Jusho":"富山県富山市舟渡66","洪水":"◎","がけ崩れ、土石流及び地滑り":"","高潮":"","地震":"◎","津波":"","大規模な火事":"◎","内水氾濫":"","火山現象":"","指定避難所との重複":"◎","備考":""}},
{"type":"Feature","geometry":{"type":"Point","coordinates":[137.2429720000,36.4708540000]},"properties":{"Name":"下タ南部体育館","Jusho":"富山県富山市舟渡66","洪水":"◎","がけ崩れ、土石流及び地滑り":"","高潮":"","地震":"◎","津波":"","大規模な火事":"◎","内水氾濫":"","火山現象":"","指定避難所との重複":"◎","備考":""}},
{"type":"Feature","geometry":{"type":"Point","coordinates":[137.2338030000,36.5295810000]},"properties":{"Name":"下タ北部体育館","Jusho":"富山県富山市布尻672","洪水":"◎","がけ崩れ、土石流及び地滑り":"","高潮":"","地震":"◎","津波":"","大規模な火事":"◎","内水氾濫":"","火山現象":"","指定避難所との重複":"◎","備考":""}},
{"type":"Feature","geometry":{"type":"Point","coordinates":[137.1914240000,36.5645730000]},"properties":{"Name":"小羽地区福祉センター","Jusho":"富山県富山市小羽361","洪水":"","がけ崩れ、土石流及び地滑り":"","高潮":"","地震":"◎","津波":"","大規模な火事":"◎","内水氾濫":"","火山現象":"","指定避難所との重複":"◎","備考":""}},
{"type":"Feature","geometry":{"type":"Point","coordinates":[137.2215390000,36.5836880000]},"properties":{"Name":"船峅地区福祉センター","Jusho":"富山県富山市坂本482","洪水":"◎","がけ崩れ、土石流及び地滑り":"◎","高潮":"","地震":"◎","津波":"","大規模な火事":"◎","内水氾濫":"","火山現象":"","指定避難所との重複":"◎","備考":""}},
{"type":"Feature","geometry":{"type":"Point","coordinates":[137.2208950000,36.5600270000]},"properties":{"Name":"猿倉コミュニティセンター","Jusho":"富山県富山市舟新81-1","洪水":"◎","がけ崩れ、土石流及び地滑り":"◎","高潮":"","地震":"◎","津波":"","大規模な火事":"◎","内水氾濫":"","火山現象":"","指定避難所との重複":"◎","備考":""}},
{"type":"Feature","geometry":{"type":"Point","coordinates":[137.2132340000,36.5623680000]},"properties":{"Name":"笹津会館","Jusho":"富山県富山市笹津495","洪水":"◎","がけ崩れ、土石流及び地滑り":"◎","高潮":"","地震":"◎","津波":"","大規模な火事":"◎","内水氾濫":"","火山現象":"","指定避難所との重複":"◎","備考":""}},
{"type":"Feature","geometry":{"type":"Point","coordinates":[137.2021480000,36.5775440000]},"properties":{"Name":"大沢野青少年体育センター","Jusho":"富山県富山市高内114-1","洪水":"◎","がけ崩れ、土石流及び地滑り":"◎","高潮":"","地震":"◎","津波":"","大規模な火事":"◎","内水氾濫":"","火山現象":"","指定避難所との重複":"◎","備考":""}},
{"type":"Feature","geometry":{"type":"Point","coordinates":[137.2019900000,36.5781480000]},"properties":{"Name":"大沢野武道館","Jusho":"富山県富山市高内114-1","洪水":"◎","がけ崩れ、土石流及び地滑り":"◎","高潮":"","地震":"◎","津波":"","大規模な火事":"◎","内水氾濫":"","火山現象":"","指定避難所との重複":"◎","備考":""}},
{"type":"Feature","geometry":{"type":"Point","coordinates":[137.2076650000,36.5864930000]},"properties":{"Name":"大沢野北部地区福祉センター","Jusho":"富山県富山市上大久保187","洪水":"◎","がけ崩れ、土石流及び地滑り":"◎","高潮":"","地震":"◎","津波":"","大規模な火事":"◎","内水氾濫":"","火山現象":"","指定避難所との重複":"◎","備考":""}},
{"type":"Feature","geometry":{"type":"Point","coordinates":[137.2022300000,36.5613040000]},"properties":{"Name":"大沢野健康福祉センター(ウインディ)","Jusho":"富山県富山市春日96-1","洪水":"◎","がけ崩れ、土石流及び地滑り":"◎","高潮":"","地震":"◎","津波":"","大規模な火事":"◎","内水氾濫":"","火山現象":"","指定避難所との重複":"◎","備考":""}},
{"type":"Feature","geometry":{"type":"Point","coordinates":[137.2080660000,36.6051040000]},"properties":{"Name":"大久保ふれあいセンター","Jusho":"富山県富山市下大久保1776-1","洪水":"◎","がけ崩れ、土石流及び地滑り":"◎","高潮":"","地震":"◎","津波":"","大規模な火事":"◎","内水氾濫":"","火山現象":"","指定避難所との重複":"◎","備考":""}},
{"type":"Feature","geometry":{"type":"Point","coordinates":[137.3009600000,36.6097580000]},"properties":{"Name":"上滝小学校","Jusho":"富山県富山市上滝517","洪水":"◎","がけ崩れ、土石流及び地滑り":"◎","高潮":"","地震":"◎","津波":"","大規模な火事":"◎","内水氾濫":"","火山現象":"","指定避難所との重複":"◎","備考":""}},
{"type":"Feature","geometry":{"type":"Point","coordinates":[137.3840490000,36.5743470000]},"properties":{"Name":"小見小学校","Jusho":"富山県富山市小見250","洪水":"◎","がけ崩れ、土石流及び地滑り":"◎","高潮":"","地震":"◎","津波":"","大規模な火事":"◎","内水氾濫":"","火山現象":"","指定避難所との重複":"◎","備考":""}},
{"type":"Feature","geometry":{"type":"Point","coordinates":[137.2791020000,36.6190670000]},"properties":{"Name":"大庄小学校","Jusho":"富山県富山市善名453","洪水":"◎","がけ崩れ、土石流及び地滑り":"◎","高潮":"","地震":"◎","津波":"","大規模な火事":"◎","内水氾濫":"","火山現象":"","指定避難所との重複":"◎","備考":""}},
{"type":"Feature","geometry":{"type":"Point","coordinates":[137.2569350000,36.6034360000]},"properties":{"Name":"福沢小学校","Jusho":"富山県富山市東福沢46-4","洪水":"◎","がけ崩れ、土石流及び地滑り":"◎","高潮":"","地震":"◎","津波":"","大規模な火事":"◎","内水氾濫":"","火山現象":"","指定避難所との重複":"◎","備考":""}},
{"type":"Feature","geometry":{"type":"Point","coordinates":[137.2925130000,36.6104040000]},"properties":{"Name":"上滝中学校","Jusho":"富山県富山市中滝160","洪水":"◎","がけ崩れ、土石流及び地滑り":"◎","高潮":"","地震":"◎","津波":"","大規模な火事":"◎","内水氾濫":"","火山現象":"","指定避難所との重複":"◎","備考":""}},
{"type":"Feature","geometry":{"type":"Point","coordinates":[137.4324570000,36.5767310000]},"properties":{"Name":"大山B&G海洋センター体育館","Jusho":"富山県富山市本宮12","洪水":"◎","がけ崩れ、土石流及び地滑り":"","高潮":"","地震":"◎","津波":"","大規模な火事":"◎","内水氾濫":"","火山現象":"","指定避難所との重複":"◎","備考":""}},
{"type":"Feature","geometry":{"type":"Point","coordinates":[137.3546951312,36.5697864917]},"properties":{"Name":"牧地区コミュニティセンター","Jusho":"富山県富山市牧814","洪水":"◎","がけ崩れ、土石流及び地滑り":"","高潮":"","地震":"◎","津波":"","大規模な火事":"◎","内水氾濫":"","火山現象":"","指定避難所との重複":"◎","備考":""}},
{"type":"Feature","geometry":{"type":"Point","coordinates":[137.3265860000,36.5827460000]},"properties":{"Name":"岡田公民館（旧上滝公民館岡田分館）","Jusho":"富山県富山市岡田781","洪水":"◎","がけ崩れ、土石流及び地滑り":"","高潮":"","地震":"◎","津波":"","大規模な火事":"◎","内水氾濫":"","火山現象":"","指定避難所との重複":"◎","備考":""}},
{"type":"Feature","geometry":{"type":"Point","coordinates":[137.2948950000,36.6033030000]},"properties":{"Name":"文珠寺公民館","Jusho":"富山県富山市文珠寺1300-4","洪水":"◎","がけ崩れ、土石流及び地滑り":"◎","高潮":"","地震":"◎","津波":"","大規模な火事":"◎","内水氾濫":"","火山現象":"","指定避難所との重複":"◎","備考":""}},
{"type":"Feature","geometry":{"type":"Point","coordinates":[137.2906950000,36.6107130000]},"properties":{"Name":"大山社会体育館","Jusho":"富山県富山市花崎378","洪水":"◎","がけ崩れ、土石流及び地滑り":"◎","高潮":"","地震":"◎","津波":"","大規模な火事":"◎","内水氾濫":"","火山現象":"","指定避難所との重複":"◎","備考":""}},
{"type":"Feature","geometry":{"type":"Point","coordinates":[137.2906650000,36.6112710000]},"properties":{"Name":"大山総合体育センター","Jusho":"富山県富山市花崎386","洪水":"◎","がけ崩れ、土石流及び地滑り":"◎","高潮":"","地震":"◎","津波":"","大規模な火事":"◎","内水氾濫":"","火山現象":"","指定避難所との重複":"◎","備考":""}},
{"type":"Feature","geometry":{"type":"Point","coordinates":[137.2543960000,36.6016550000]},"properties":{"Name":"大山農村環境改善センター","Jusho":"富山県富山市東福沢1818","洪水":"◎","がけ崩れ、土石流及び地滑り":"◎","高潮":"","地震":"◎","津波":"","大規模な火事":"◎","内水氾濫":"","火山現象":"","指定避難所との重複":"◎","備考":""}},
{"type":"Feature","geometry":{"type":"Point","coordinates":[137.2735224907,36.5771144017]},"properties":{"Name":"日尾公民館（旧瀬戸集落センター）","Jusho":"富山県富山市日尾241-1","洪水":"◎","がけ崩れ、土石流及び地滑り":"","高潮":"","地震":"◎","津波":"","大規模な火事":"◎","内水氾濫":"","火山現象":"","指定避難所との重複":"◎","備考":""}},
{"type":"Feature","geometry":{"type":"Point","coordinates":[137.2848980000,36.5830750000]},"properties":{"Name":"楜ヶ原集落センター","Jusho":"富山県富山市楜ヶ原626-1","洪水":"◎","がけ崩れ、土石流及び地滑り":"","高潮":"","地震":"◎","津波":"","大規模な火事":"◎","内水氾濫":"","火山現象":"","指定避難所との重複":"◎","備考":""}},
{"type":"Feature","geometry":{"type":"Point","coordinates":[137.1379240000,36.5760420000]},"properties":{"Name":"八尾小学校","Jusho":"富山県富山市八尾町下笹原5320","洪水":"◎","がけ崩れ、土石流及び地滑り":"◎","高潮":"","地震":"◎","津波":"","大規模な火事":"◎","内水氾濫":"","火山現象":"","指定避難所との重複":"◎","備考":""}},
{"type":"Feature","geometry":{"type":"Point","coordinates":[137.1369910000,36.6111020000]},"properties":{"Name":"保内小学校","Jusho":"富山県富山市八尾町高善寺162","洪水":"◎","がけ崩れ、土石流及び地滑り":"◎","高潮":"","地震":"◎","津波":"","大規模な火事":"◎","内水氾濫":"","火山現象":"","指定避難所との重複":"◎","備考":""}},
{"type":"Feature","geometry":{"type":"Point","coordinates":[137.1627150000,36.6002060000]},"properties":{"Name":"杉原小学校","Jusho":"富山県富山市八尾町黒田3636","洪水":"◎","がけ崩れ、土石流及び地滑り":"◎","高潮":"","地震":"◎","津波":"","大規模な火事":"◎","内水氾濫":"","火山現象":"","指定避難所との重複":"◎","備考":""}},
{"type":"Feature","geometry":{"type":"Point","coordinates":[137.1496970000,36.5643060000]},"properties":{"Name":"卯花公民館","Jusho":"富山県富山市八尾町下笹原42-1","洪水":"◎","がけ崩れ、土石流及び地滑り":"","高潮":"","地震":"◎","津波":"","大規模な火事":"◎","内水氾濫":"","火山現象":"","指定避難所との重複":"◎","備考":""}},
{"type":"Feature","geometry":{"type":"Point","coordinates":[137.1117850000,36.5709980000]},"properties":{"Name":"室牧地区コミュニティセンター","Jusho":"富山県富山市八尾町中242","洪水":"◎","がけ崩れ、土石流及び地滑り":"","高潮":"","地震":"◎","津波":"","大規模な火事":"◎","内水氾濫":"","火山現象":"","指定避難所との重複":"◎","備考":""}},
{"type":"Feature","geometry":{"type":"Point","coordinates":[137.1541660000,36.5755250000]},"properties":{"Name":"黒瀬谷交流センター喜楽里館","Jusho":"富山県富山市八尾町小長谷352","洪水":"◎","がけ崩れ、土石流及び地滑り":"◎","高潮":"","地震":"◎","津波":"","大規模な火事":"◎","内水氾濫":"","火山現象":"","指定避難所との重複":"◎","備考":""}},
{"type":"Feature","geometry":{"type":"Point","coordinates":[137.1247310000,36.5488280000]},"properties":{"Name":"野積地区コミュニティセンター","Jusho":"富山県富山市八尾町水口242","洪水":"◎","がけ崩れ、土石流及び地滑り":"◎","高潮":"","地震":"◎","津波":"","大規模な火事":"◎","内水氾濫":"","火山現象":"","指定避難所との重複":"◎","備考":""}},
{"type":"Feature","geometry":{"type":"Point","coordinates":[137.0971510000,36.5295790000]},"properties":{"Name":"仁歩地区コミュニティセンター","Jusho":"富山県富山市八尾町三ッ松14-1","洪水":"◎","がけ崩れ、土石流及び地滑り":"","高潮":"","地震":"◎","津波":"","大規模な火事":"◎","内水氾濫":"","火山現象":"","指定避難所との重複":"◎","備考":""}},
{"type":"Feature","geometry":{"type":"Point","coordinates":[137.0803620000,36.4792690000]},"properties":{"Name":"大長谷交流センター","Jusho":"富山県富山市八尾町内名88","洪水":"◎","がけ崩れ、土石流及び地滑り":"","高潮":"","地震":"◎","津波":"","大規模な火事":"◎","内水氾濫":"","火山現象":"","指定避難所との重複":"◎","備考":""}},
{"type":"Feature","geometry":{"type":"Point","coordinates":[137.1316900000,36.5858550000]},"properties":{"Name":"八尾中学校","Jusho":"富山県富山市八尾町福島上野250","洪水":"◎","がけ崩れ、土石流及び地滑り":"◎","高潮":"","地震":"◎","津波":"","大規模な火事":"◎","内水氾濫":"","火山現象":"","指定避難所との重複":"◎","備考":""}},
{"type":"Feature","geometry":{"type":"Point","coordinates":[137.1641940000,36.6052080000]},"properties":{"Name":"杉原中学校","Jusho":"富山県富山市八尾町大杉84","洪水":"◎","がけ崩れ、土石流及び地滑り":"◎","高潮":"","地震":"◎","津波":"","大規模な火事":"◎","内水氾濫":"","火山現象":"","指定避難所との重複":"◎","備考":""}},
{"type":"Feature","geometry":{"type":"Point","coordinates":[137.1304560000,36.5850780000]},"properties":{"Name":"八尾高校","Jusho":"富山県富山市八尾町福島213","洪水":"◎","がけ崩れ、土石流及び地滑り":"◎","高潮":"","地震":"◎","津波":"","大規模な火事":"◎","内水氾濫":"","火山現象":"","指定避難所との重複":"◎","備考":""}},
{"type":"Feature","geometry":{"type":"Point","coordinates":[137.1306190000,36.5761150000]},"properties":{"Name":"八尾曳山展示館","Jusho":"富山県富山市八尾町上新町2898-1","洪水":"◎","がけ崩れ、土石流及び地滑り":"","高潮":"","地震":"◎","津波":"","大規模な火事":"◎","内水氾濫":"","火山現象":"","指定避難所との重複":"◎","備考":""}},
{"type":"Feature","geometry":{"type":"Point","coordinates":[137.1381040000,36.5783770000]},"properties":{"Name":"八尾ふらっと館","Jusho":"富山県富山市八尾町東町2149","洪水":"◎","がけ崩れ、土石流及び地滑り":"◎","高潮":"","地震":"◎","津波":"","大規模な火事":"◎","内水氾濫":"","火山現象":"","指定避難所との重複":"◎","備考":""}},
{"type":"Feature","geometry":{"type":"Point","coordinates":[137.1376430000,36.5828610000]},"properties":{"Name":"八尾健康福祉総合センター","Jusho":"富山県富山市八尾町福島200","洪水":"◎","がけ崩れ、土石流及び地滑り":"◎","高潮":"","地震":"◎","津波":"","大規模な火事":"◎","内水氾濫":"","火山現象":"","指定避難所との重複":"◎","備考":""}},
{"type":"Feature","geometry":{"type":"Point","coordinates":[137.1315520000,36.6058350000]},"properties":{"Name":"保内公民館","Jusho":"富山県富山市八尾町新田101","洪水":"◎","がけ崩れ、土石流及び地滑り":"◎","高潮":"","地震":"◎","津波":"","大規模な火事":"◎","内水氾濫":"","火山現象":"","指定避難所との重複":"◎","備考":""}},
{"type":"Feature","geometry":{"type":"Point","coordinates":[137.1628670000,36.6013850000]},"properties":{"Name":"杉原公民館","Jusho":"富山県富山市八尾町大杉12","洪水":"◎","がけ崩れ、土石流及び地滑り":"◎","高潮":"","地震":"◎","津波":"","大規模な火事":"◎","内水氾濫":"","火山現象":"","指定避難所との重複":"◎","備考":""}},
{"type":"Feature","geometry":{"type":"Point","coordinates":[137.1437350000,36.6013640000]},"properties":{"Name":"八尾スポーツアリーナ","Jusho":"富山県富山市八尾町井田101","洪水":"","がけ崩れ、土石流及び地滑り":"◎","高潮":"","地震":"◎","津波":"","大規模な火事":"◎","内水氾濫":"","火山現象":"","指定避難所との重複":"◎","備考":""}},
{"type":"Feature","geometry":{"type":"Point","coordinates":[137.1435990000,36.6004190000]},"properties":{"Name":"八尾コミュニティセンター","Jusho":"富山県富山市八尾町井田126","洪水":"","がけ崩れ、土石流及び地滑り":"◎","高潮":"","地震":"◎","津波":"","大規模な火事":"◎","内水氾濫":"","火山現象":"","指定避難所との重複":"◎","備考":""}},
{"type":"Feature","geometry":{"type":"Point","coordinates":[137.1819250000,36.5211210000]},"properties":{"Name":"桐谷防雪センター","Jusho":"富山県富山市八尾町桐谷2055","洪水":"◎","がけ崩れ、土石流及び地滑り":"","高潮":"","地震":"◎","津波":"","大規模な火事":"◎","内水氾濫":"","火山現象":"","指定避難所との重複":"◎","備考":""}},
{"type":"Feature","geometry":{"type":"Point","coordinates":[137.1374300000,36.5700670000]},"properties":{"Name":"八尾農村環境改善センター","Jusho":"富山県富山市八尾町梅苑町1-95-1","洪水":"◎","がけ崩れ、土石流及び地滑り":"","高潮":"","地震":"◎","津波":"","大規模な火事":"◎","内水氾濫":"","火山現象":"","指定避難所との重複":"◎","備考":""}},
{"type":"Feature","geometry":{"type":"Point","coordinates":[137.1368450000,36.5702750000]},"properties":{"Name":"林業総合センター","Jusho":"富山県富山市八尾町梅苑町1-95-1","洪水":"◎","がけ崩れ、土石流及び地滑り":"","高潮":"","地震":"◎","津波":"","大規模な火事":"◎","内水氾濫":"","火山現象":"","指定避難所との重複":"◎","備考":""}},
{"type":"Feature","geometry":{"type":"Point","coordinates":[137.1407060000,36.5689370000]},"properties":{"Name":"中山間地活性化施設","Jusho":"富山県富山市八尾町下笹原678-1","洪水":"◎","がけ崩れ、土石流及び地滑り":"◎","高潮":"","地震":"◎","津波":"","大規模な火事":"◎","内水氾濫":"","火山現象":"","指定避難所との重複":"◎","備考":""}},
{"type":"Feature","geometry":{"type":"Point","coordinates":[137.1596320000,36.5710630000]},"properties":{"Name":"黒瀬谷公民館","Jusho":"富山県富山市八尾町樫尾162","洪水":"◎","がけ崩れ、土石流及び地滑り":"◎","高潮":"","地震":"◎","津波":"","大規模な火事":"◎","内水氾濫":"","火山現象":"","指定避難所との重複":"◎","備考":""}},
{"type":"Feature","geometry":{"type":"Point","coordinates":[137.1147280000,36.5179510000]},"properties":{"Name":"広畑防雪センター","Jusho":"富山県富山市八尾町布谷1467-7","洪水":"◎","がけ崩れ、土石流及び地滑り":"","高潮":"","地震":"◎","津波":"","大規模な火事":"◎","内水氾濫":"","火山現象":"","指定避難所との重複":"◎","備考":""}},
{"type":"Feature","geometry":{"type":"Point","coordinates":[137.1595070000,36.6608840000]},"properties":{"Name":"速星小学校","Jusho":"富山県富山市婦中町速星752","洪水":"◎","がけ崩れ、土石流及び地滑り":"◎","高潮":"","地震":"◎","津波":"","大規模な火事":"◎","内水氾濫":"","火山現象":"","指定避難所との重複":"◎","備考":""}},
{"type":"Feature","geometry":{"type":"Point","coordinates":[137.1754870000,36.6689760000]},"properties":{"Name":"鵜坂小学校","Jusho":"富山県富山市婦中町上田島68","洪水":"◎","がけ崩れ、土石流及び地滑り":"◎","高潮":"","地震":"◎","津波":"","大規模な火事":"◎","内水氾濫":"","火山現象":"","指定避難所との重複":"◎","備考":""}},
{"type":"Feature","geometry":{"type":"Point","coordinates":[137.1518040000,36.6772900000]},"properties":{"Name":"朝日小学校","Jusho":"富山県富山市婦中町下条5518","洪水":"◎","がけ崩れ、土石流及び地滑り":"◎","高潮":"","地震":"◎","津波":"","大規模な火事":"◎","内水氾濫":"","火山現象":"","指定避難所との重複":"◎","備考":""}},
{"type":"Feature","geometry":{"type":"Point","coordinates":[137.1717270000,36.6305320000]},"properties":{"Name":"宮野小学校","Jusho":"富山県富山市婦中町地角399","洪水":"◎","がけ崩れ、土石流及び地滑り":"◎","高潮":"","地震":"◎","津波":"","大規模な火事":"◎","内水氾濫":"","火山現象":"","指定避難所との重複":"◎","備考":""}},
{"type":"Feature","geometry":{"type":"Point","coordinates":[137.1283270000,36.6557720000]},"properties":{"Name":"古里小学校","Jusho":"富山県富山市婦中町羽根43","洪水":"◎","がけ崩れ、土石流及び地滑り":"◎","高潮":"","地震":"◎","津波":"","大規模な火事":"◎","内水氾濫":"","火山現象":"","指定避難所との重複":"◎","備考":""}},
{"type":"Feature","geometry":{"type":"Point","coordinates":[137.0945350000,36.6297370000]},"properties":{"Name":"音川小学校","Jusho":"富山県富山市婦中町外輪野5959","洪水":"◎","がけ崩れ、土石流及び地滑り":"◎","高潮":"","地震":"◎","津波":"","大規模な火事":"◎","内水氾濫":"","火山現象":"","指定避難所との重複":"◎","備考":""}},
{"type":"Feature","geometry":{"type":"Point","coordinates":[137.1352860000,36.6370990000]},"properties":{"Name":"神保小学校","Jusho":"富山県富山市婦中町高日附820","洪水":"◎","がけ崩れ、土石流及び地滑り":"◎","高潮":"","地震":"◎","津波":"","大規模な火事":"◎","内水氾濫":"","火山現象":"","指定避難所との重複":"◎","備考":""}},
{"type":"Feature","geometry":{"type":"Point","coordinates":[137.1648430000,36.6553060000]},"properties":{"Name":"速星中学校","Jusho":"富山県富山市婦中町板倉345-1","洪水":"◎","がけ崩れ、土石流及び地滑り":"◎","高潮":"","地震":"◎","津波":"","大規模な火事":"◎","内水氾濫":"","火山現象":"","指定避難所との重複":"◎","備考":""}},
{"type":"Feature","geometry":{"type":"Point","coordinates":[137.1224900000,36.6449400000]},"properties":{"Name":"城山中学校","Jusho":"富山県富山市婦中町河原町561-5","洪水":"◎","がけ崩れ、土石流及び地滑り":"◎","高潮":"","地震":"◎","津波":"","大規模な火事":"◎","内水氾濫":"","火山現象":"","指定避難所との重複":"◎","備考":""}},
{"type":"Feature","geometry":{"type":"Point","coordinates":[137.1641690000,36.6585450000]},"properties":{"Name":"富山西高校","Jusho":"富山県富山市婦中町速星926","洪水":"◎","がけ崩れ、土石流及び地滑り":"◎","高潮":"","地震":"◎","津波":"","大規模な火事":"◎","内水氾濫":"","火山現象":"","指定避難所との重複":"◎","備考":""}},
{"type":"Feature","geometry":{"type":"Point","coordinates":[137.1274130000,36.6589310000]},"properties":{"Name":"しらとり支援学校","Jusho":"富山県富山市婦中町下邑2877","洪水":"◎","がけ崩れ、土石流及び地滑り":"◎","高潮":"","地震":"◎","津波":"","大規模な火事":"◎","内水氾濫":"","火山現象":"","指定避難所との重複":"◎","備考":""}},
{"type":"Feature","geometry":{"type":"Point","coordinates":[137.1601860000,36.6601220000]},"properties":{"Name":"婦中中央児童館","Jusho":"富山県富山市婦中町速星750-2","洪水":"◎","がけ崩れ、土石流及び地滑り":"◎","高潮":"","地震":"◎","津波":"","大規模な火事":"◎","内水氾濫":"","火山現象":"","指定避難所との重複":"◎","備考":""}},
{"type":"Feature","geometry":{"type":"Point","coordinates":[137.1638970000,36.6558220000]},"properties":{"Name":"速星公民館","Jusho":"富山県富山市婦中町砂子田1-1","洪水":"◎","がけ崩れ、土石流及び地滑り":"◎","高潮":"","地震":"◎","津波":"","大規模な火事":"◎","内水氾濫":"","火山現象":"","指定避難所との重複":"◎","備考":""}},
{"type":"Feature","geometry":{"type":"Point","coordinates":[137.1558580000,36.6629400000]},"properties":{"Name":"笹倉地区コミュニティセンター","Jusho":"富山県富山市婦中町笹倉433","洪水":"","がけ崩れ、土石流及び地滑り":"◎","高潮":"","地震":"◎","津波":"","大規模な火事":"◎","内水氾濫":"","火山現象":"","指定避難所との重複":"◎","備考":""}},
{"type":"Feature","geometry":{"type":"Point","coordinates":[137.1638950000,36.6553170000]},"properties":{"Name":"婦中ふれあい館","Jusho":"富山県富山市婦中町砂子田1-1","洪水":"◎","がけ崩れ、土石流及び地滑り":"◎","高潮":"","地震":"◎","津波":"","大規模な火事":"◎","内水氾濫":"","火山現象":"","指定避難所との重複":"◎","備考":""}},
{"type":"Feature","geometry":{"type":"Point","coordinates":[137.1641833000,36.6545330400]},"properties":{"Name":"婦中体育館","Jusho":"富山県富山市婦中町砂子田1-1","洪水":"◎","がけ崩れ、土石流及び地滑り":"◎","高潮":"","地震":"◎","津波":"","大規模な火事":"◎","内水氾濫":"","火山現象":"","指定避難所との重複":"◎","備考":""}},
{"type":"Feature","geometry":{"type":"Point","coordinates":[137.1737420000,36.6692140000]},"properties":{"Name":"鵜坂公民館","Jusho":"富山県富山市婦中町上田島18-1","洪水":"","がけ崩れ、土石流及び地滑り":"◎","高潮":"","地震":"◎","津波":"","大規模な火事":"◎","内水氾濫":"","火山現象":"","指定避難所との重複":"◎","備考":""}},
{"type":"Feature","geometry":{"type":"Point","coordinates":[137.1511700000,36.6747210000]},"properties":{"Name":"朝日地域農業再編センター","Jusho":"富山県富山市婦中町下条281","洪水":"◎","がけ崩れ、土石流及び地滑り":"◎","高潮":"","地震":"◎","津波":"","大規模な火事":"◎","内水氾濫":"","火山現象":"","指定避難所との重複":"◎","備考":""}},
{"type":"Feature","geometry":{"type":"Point","coordinates":[137.1683050000,36.6224230000]},"properties":{"Name":"宮川地区コミュニティセンター","Jusho":"富山県富山市婦中町広田4178","洪水":"◎","がけ崩れ、土石流及び地滑り":"◎","高潮":"","地震":"◎","津波":"","大規模な火事":"◎","内水氾濫":"","火山現象":"","指定避難所との重複":"◎","備考":""}},
{"type":"Feature","geometry":{"type":"Point","coordinates":[137.1688790000,36.6379310000]},"properties":{"Name":"婦中熊野公民館","Jusho":"富山県富山市婦中町堀657","洪水":"◎","がけ崩れ、土石流及び地滑り":"◎","高潮":"","地震":"◎","津波":"","大規模な火事":"◎","内水氾濫":"","火山現象":"","指定避難所との重複":"◎","備考":""}},
{"type":"Feature","geometry":{"type":"Point","coordinates":[137.1231100000,36.6453720000]},"properties":{"Name":"婦中武道館","Jusho":"富山県富山市婦中町長沢428","洪水":"◎","がけ崩れ、土石流及び地滑り":"◎","高潮":"","地震":"◎","津波":"","大規模な火事":"◎","内水氾濫":"","火山現象":"","指定避難所との重複":"◎","備考":""}},
{"type":"Feature","geometry":{"type":"Point","coordinates":[137.1276860000,36.6553460000]},"properties":{"Name":"婦中農村環境改善センター","Jusho":"富山県富山市婦中町羽根6","洪水":"◎","がけ崩れ、土石流及び地滑り":"◎","高潮":"","地震":"◎","津波":"","大規模な火事":"◎","内水氾濫":"","火山現象":"","指定避難所との重複":"◎","備考":""}},
{"type":"Feature","geometry":{"type":"Point","coordinates":[137.0919370000,36.6290910000]},"properties":{"Name":"婦中体育館音川分館","Jusho":"富山県富山市婦中町外輪野5230-1","洪水":"◎","がけ崩れ、土石流及び地滑り":"◎","高潮":"","地震":"◎","津波":"","大規模な火事":"◎","内水氾濫":"","火山現象":"","指定避難所との重複":"◎","備考":""}},
{"type":"Feature","geometry":{"type":"Point","coordinates":[137.0937100000,36.6295820000]},"properties":{"Name":"音川交流センター","Jusho":"富山県富山市婦中町外輪野6324-1","洪水":"◎","がけ崩れ、土石流及び地滑り":"","高潮":"","地震":"◎","津波":"","大規模な火事":"◎","内水氾濫":"","火山現象":"","指定避難所との重複":"◎","備考":""}},
{"type":"Feature","geometry":{"type":"Point","coordinates":[137.1371840000,36.6385920000]},"properties":{"Name":"神保地区コミュニティセンター","Jusho":"富山県富山市婦中町上吉川403-1","洪水":"◎","がけ崩れ、土石流及び地滑り":"◎","高潮":"","地震":"◎","津波":"","大規模な火事":"◎","内水氾濫":"","火山現象":"","指定避難所との重複":"◎","備考":""}},
{"type":"Feature","geometry":{"type":"Point","coordinates":[137.0805710000,36.5847000000]},"properties":{"Name":"山田小・中学校","Jusho":"富山県富山市山田北山41","洪水":"◎","がけ崩れ、土石流及び地滑り":"","高潮":"","地震":"◎","津波":"","大規模な火事":"◎","内水氾濫":"","火山現象":"","指定避難所との重複":"◎","備考":""}},
{"type":"Feature","geometry":{"type":"Point","coordinates":[137.0841960000,36.5874710000]},"properties":{"Name":"山田総合体育センター","Jusho":"富山県富山市山田中瀬2","洪水":"◎","がけ崩れ、土石流及び地滑り":"","高潮":"","地震":"◎","津波":"","大規模な火事":"◎","内水氾濫":"","火山現象":"","指定避難所との重複":"◎","備考":""}},
{"type":"Feature","geometry":{"type":"Point","coordinates":[137.0649370000,36.5799350000]},"properties":{"Name":"山田交流促進センター","Jusho":"富山県富山市山田赤目谷145","洪水":"◎","がけ崩れ、土石流及び地滑り":"◎","高潮":"","地震":"◎","津波":"","大規模な火事":"◎","内水氾濫":"","火山現象":"","指定避難所との重複":"◎","備考":""}},
{"type":"Feature","geometry":{"type":"Point","coordinates":[137.0808440000,36.5800530000]},"properties":{"Name":"山田公民館","Jusho":"富山県富山市山田湯880","洪水":"◎","がけ崩れ、土石流及び地滑り":"","高潮":"","地震":"◎","津波":"","大規模な火事":"◎","内水氾濫":"","火山現象":"","指定避難所との重複":"◎","備考":""}},
{"type":"Feature","geometry":{"type":"Point","coordinates":[137.0635370000,36.5511090000]},"properties":{"Name":"南部地区集会場(谷)","Jusho":"富山県富山市山田谷425","洪水":"◎","がけ崩れ、土石流及び地滑り":"","高潮":"","地震":"◎","津波":"","大規模な火事":"◎","内水氾濫":"","火山現象":"","指定避難所との重複":"◎","備考":""}},
{"type":"Feature","geometry":{"type":"Point","coordinates":[137.0492240000,36.5894920000]},"properties":{"Name":"西部地区集会場(清水)","Jusho":"富山県富山市山田清水7","洪水":"◎","がけ崩れ、土石流及び地滑り":"","高潮":"","地震":"◎","津波":"","大規模な火事":"◎","内水氾濫":"","火山現象":"","指定避難所との重複":"◎","備考":""}},
{"type":"Feature","geometry":{"type":"Point","coordinates":[137.0970370000,36.5834550000]},"properties":{"Name":"東部地区集会場(沢連)","Jusho":"富山県富山市山田宿坊823","洪水":"◎","がけ崩れ、土石流及び地滑り":"","高潮":"","地震":"◎","津波":"","大規模な火事":"◎","内水氾濫":"","火山現象":"","指定避難所との重複":"◎","備考":""}},
{"type":"Feature","geometry":{"type":"Point","coordinates":[137.2383920000,36.4730220000]},"properties":{"Name":"細入南部地区コミュニティセンター","Jusho":"富山県富山市猪谷851-1","洪水":"◎","がけ崩れ、土石流及び地滑り":"◎","高潮":"","地震":"◎","津波":"","大規模な火事":"◎","内水氾濫":"","火山現象":"","指定避難所との重複":"◎","備考":""}},
{"type":"Feature","geometry":{"type":"Point","coordinates":[137.2328670000,36.5358800000]},"properties":{"Name":"神通碧小学校・楡原中学校","Jusho":"富山県富山市楡原405","洪水":"◎","がけ崩れ、土石流及び地滑り":"◎","高潮":"","地震":"◎","津波":"","大規模な火事":"◎","内水氾濫":"","火山現象":"","指定避難所との重複":"◎","備考":""}},
{"type":"Feature","geometry":{"type":"Point","coordinates":[137.2158100000,36.5567040000]},"properties":{"Name":"西笹津集落センター","Jusho":"富山県富山市西笹津258","洪水":"◎","がけ崩れ、土石流及び地滑り":"◎","高潮":"","地震":"◎","津波":"","大規模な火事":"◎","内水氾濫":"","火山現象":"","指定避難所との重複":"◎","備考":""}},
{"type":"Feature","geometry":{"type":"Point","coordinates":[137.2248150000,36.5498430000]},"properties":{"Name":"岩稲地区公民館","Jusho":"富山県富山市岩稲419","洪水":"◎","がけ崩れ、土石流及び地滑り":"","高潮":"","地震":"◎","津波":"","大規模な火事":"◎","内水氾濫":"","火山現象":"","指定避難所との重複":"◎","備考":""}},
{"type":"Feature","geometry":{"type":"Point","coordinates":[137.2269460000,36.5477700000]},"properties":{"Name":"富山県漕艇場","Jusho":"富山県富山市岩稲20-1","洪水":"◎","がけ崩れ、土石流及び地滑り":"","高潮":"","地震":"◎","津波":"","大規模な火事":"◎","内水氾濫":"","火山現象":"","指定避難所との重複":"◎","備考":""}},
{"type":"Feature","geometry":{"type":"Point","coordinates":[137.2309250000,36.5327280000]},"properties":{"Name":"楡原公民館","Jusho":"富山県富山市楡原1280-1","洪水":"◎","がけ崩れ、土石流及び地滑り":"◎","高潮":"","地震":"◎","津波":"","大規模な火事":"◎","内水氾濫":"","火山現象":"","指定避難所との重複":"◎","備考":""}},
{"type":"Feature","geometry":{"type":"Point","coordinates":[137.2291010000,36.5278730000]},"properties":{"Name":"細入公民館","Jusho":"富山県富山市楡原1077","洪水":"◎","がけ崩れ、土石流及び地滑り":"","高潮":"","地震":"◎","津波":"","大規模な火事":"◎","内水氾濫":"","火山現象":"","指定避難所との重複":"◎","備考":""}},
{"type":"Feature","geometry":{"type":"Point","coordinates":[137.2297360000,36.5286190000]},"properties":{"Name":"細入総合福祉センター","Jusho":"富山県富山市楡原1128","洪水":"◎","がけ崩れ、土石流及び地滑り":"","高潮":"","地震":"◎","津波":"","大規模な火事":"◎","内水氾濫":"","火山現象":"","指定避難所との重複":"◎","備考":""}},
{"type":"Feature","geometry":{"type":"Point","coordinates":[137.2298340000,36.5087090000]},"properties":{"Name":"庵谷地区公民館","Jusho":"富山県富山市庵谷575-1","洪水":"◎","がけ崩れ、土石流及び地滑り":"","高潮":"","地震":"◎","津波":"","大規模な火事":"◎","内水氾濫":"","火山現象":"","指定避難所との重複":"◎","備考":""}},
{"type":"Feature","geometry":{"type":"Point","coordinates":[137.2358260000,36.4911550000]},"properties":{"Name":"片掛地区公民館","Jusho":"富山県富山市片掛1981-1","洪水":"◎","がけ崩れ、土石流及び地滑り":"","高潮":"","地震":"◎","津波":"","大規模な火事":"◎","内水氾濫":"","火山現象":"","指定避難所との重複":"◎","備考":""}},
{"type":"Feature","geometry":{"type":"Point","coordinates":[137.2393150000,36.4713440000]},"properties":{"Name":"猪谷関所館","Jusho":"富山県富山市猪谷978-4","洪水":"◎","がけ崩れ、土石流及び地滑り":"","高潮":"","地震":"◎","津波":"","大規模な火事":"◎","内水氾濫":"","火山現象":"","指定避難所との重複":"◎","備考":""}},
{"type":"Feature","geometry":{"type":"Point","coordinates":[137.2436100000,36.4619640000]},"properties":{"Name":"蟹寺地区公民館","Jusho":"富山県富山市蟹寺153","洪水":"◎","がけ崩れ、土石流及び地滑り":"","高潮":"","地震":"◎","津波":"","大規模な火事":"◎","内水氾濫":"","火山現象":"","指定避難所との重複":"◎","備考":""}},
{"type":"Feature","geometry":{"type":"Point","coordinates":[137.1647623000,36.7169740700]},"properties":{"Name":"富山市民芸術創造センター","Jusho":"富山県富山市呉羽町2247-3","洪水":"◎","がけ崩れ、土石流及び地滑り":"◎","高潮":"","地震":"◎","津波":"","大規模な火事":"◎","内水氾濫":"","火山現象":"","指定避難所との重複":"◎","備考":""}},
{"type":"Feature","geometry":{"type":"Point","coordinates":[137.1949582000,36.7568564100]},"properties":{"Name":"四方地区センター","Jusho":"富山県富山市四方142-1","洪水":"","がけ崩れ、土石流及び地滑り":"","高潮":"","地震":"","津波":"◎","大規模な火事":"","内水氾濫":"","火山現象":"","指定避難所との重複":"","備考":""}},
{"type":"Feature","geometry":{"type":"Point","coordinates":[137.3102614000,36.7503925400]},"properties":{"Name":"水橋中部地区センター","Jusho":"富山県富山市水橋舘町312-1","洪水":"","がけ崩れ、土石流及び地滑り":"","高潮":"","地震":"","津波":"◎","大規模な火事":"","内水氾濫":"","火山現象":"","指定避難所との重複":"","備考":""}},
{"type":"Feature","geometry":{"type":"Point","coordinates":[137.1952662000,36.7572127200]},"properties":{"Name":"四方公園","Jusho":"富山県富山市四方字中坪158-1","洪水":"","がけ崩れ、土石流及び地滑り":"","高潮":"","地震":"","津波":"◎","大規模な火事":"","内水氾濫":"","火山現象":"","指定避難所との重複":"","備考":""}},
{"type":"Feature","geometry":{"type":"Point","coordinates":[137.2321036000,36.7555469600]},"properties":{"Name":"北保健福祉センター","Jusho":"富山県富山市岩瀬文化町23-2","洪水":"◎","がけ崩れ、土石流及び地滑り":"","高潮":"","地震":"","津波":"◎","大規模な火事":"","内水氾濫":"","火山現象":"","指定避難所との重複":"","備考":""}},
{"type":"Feature","geometry":{"type":"Point","coordinates":[137.2299423000,36.7491924200]},"properties":{"Name":"富山北消防署","Jusho":"富山県富山市高畠町1-10-30","洪水":"","がけ崩れ、土石流及び地滑り":"","高潮":"","地震":"","津波":"◎","大規模な火事":"","内水氾濫":"","火山現象":"","指定避難所との重複":"","備考":""}},
{"type":"Feature","geometry":{"type":"Point","coordinates":[137.2348616000,36.7573192700]},"properties":{"Name":"富山競輪場","Jusho":"富山県富山市岩瀬池田町8-2","洪水":"◎","がけ崩れ、土石流及び地滑り":"","高潮":"","地震":"◎","津波":"◎","大規模な火事":"◎","内水氾濫":"","火山現象":"","指定避難所との重複":"","備考":""}},
{"type":"Feature","geometry":{"type":"Point","coordinates":[137.2402452000,36.7602050900]},"properties":{"Name":"富山パークゴルフ場","Jusho":"富山県富山市岩瀬天池町1番地8","洪水":"","がけ崩れ、土石流及び地滑り":"","高潮":"","地震":"","津波":"◎","大規模な火事":"","内水氾濫":"","火山現象":"","指定避難所との重複":"","備考":""}},
{"type":"Feature","geometry":{"type":"Point","coordinates":[137.2735475000,36.7582109400]},"properties":{"Name":"浜黒崎浄化センター管理棟","Jusho":"富山県富山市浜黒崎18","洪水":"","がけ崩れ、土石流及び地滑り":"","高潮":"","地震":"","津波":"◎","大規模な火事":"","内水氾濫":"","火山現象":"","指定避難所との重複":"","備考":""}},
{"type":"Feature","geometry":{"type":"Point","coordinates":[137.2942434000,36.7501822300]},"properties":{"Name":"水橋浄化センター機械棟","Jusho":"富山県富山市水橋辻ヶ堂101","洪水":"","がけ崩れ、土石流及び地滑り":"","高潮":"","地震":"","津波":"◎","大規模な火事":"","内水氾濫":"","火山現象":"","指定避難所との重複":"","備考":""}},
{"type":"Feature","geometry":{"type":"Point","coordinates":[137.2968250000,36.7559662700]},"properties":{"Name":"水橋フィッシャリーナ多目的広場","Jusho":"富山県富山市水橋辻ヶ堂地内","洪水":"","がけ崩れ、土石流及び地滑り":"","高潮":"","地震":"","津波":"◎","大規模な火事":"","内水氾濫":"","火山現象":"","指定避難所との重複":"","備考":""}},
{"type":"Feature","geometry":{"type":"Point","coordinates":[137.3091987000,36.7503158600]},"properties":{"Name":"水橋消防署","Jusho":"富山県富山市水橋舘町420-1","洪水":"","がけ崩れ、土石流及び地滑り":"","高潮":"","地震":"","津波":"◎","大規模な火事":"","内水氾濫":"","火山現象":"","指定避難所との重複":"","備考":""}},
{"type":"Feature","geometry":{"type":"Point","coordinates":[137.3122931000,36.7545724200]},"properties":{"Name":"水橋中村市営住宅","Jusho":"富山県富山市水橋中村町2-2","洪水":"","がけ崩れ、土石流及び地滑り":"","高潮":"","地震":"","津波":"◎","大規模な火事":"","内水氾濫":"","火山現象":"","指定避難所との重複":"","備考":""}},
{"type":"Feature","geometry":{"type":"Point","coordinates":[137.2029120000,36.7534583400]},"properties":{"Name":"(株)亀久組","Jusho":"富山県富山市四方荒屋1281","洪水":"","がけ崩れ、土石流及び地滑り":"","高潮":"","地震":"","津波":"◎","大規模な火事":"","内水氾濫":"","火山現象":"","指定避難所との重複":"","備考":""}},
{"type":"Feature","geometry":{"type":"Point","coordinates":[137.2280029000,36.7576812100]},"properties":{"Name":"富山港湾運送(株)港湾ビル","Jusho":"富山県富山市東岩瀬町100-3","洪水":"","がけ崩れ、土石流及び地滑り":"","高潮":"","地震":"","津波":"◎","大規模な火事":"","内水氾濫":"","火山現象":"","指定避難所との重複":"","備考":""}},
{"type":"Feature","geometry":{"type":"Point","coordinates":[137.2278009000,36.7565593300]},"properties":{"Name":"富山県富山港事務所","Jusho":"富山県富山市東岩瀬町5","洪水":"◎","がけ崩れ、土石流及び地滑り":"","高潮":"","地震":"","津波":"◎","大規模な火事":"","内水氾濫":"","火山現象":"","指定避難所との重複":"","備考":""}},
{"type":"Feature","geometry":{"type":"Point","coordinates":[137.2340451000,36.7613800700]},"properties":{"Name":"富山ライトレール岩瀬浜駅","Jusho":"富山県富山市岩瀬天神町45","洪水":"","がけ崩れ、土石流及び地滑り":"","高潮":"","地震":"","津波":"◎","大規模な火事":"","内水氾濫":"","火山現象":"","指定避難所との重複":"","備考":""}},
{"type":"Feature","geometry":{"type":"Point","coordinates":[137.2604039000,36.7597473600]},"properties":{"Name":"富山県立富山学園","Jusho":"富山県富山市針日225","洪水":"","がけ崩れ、土石流及び地滑り":"","高潮":"","地震":"","津波":"◎","大規模な火事":"","内水氾濫":"","火山現象":"","指定避難所との重複":"","備考":""}},
{"type":"Feature","geometry":{"type":"Point","coordinates":[137.3146562000,36.7550421600]},"properties":{"Name":"ミューズ駐車場","Jusho":"富山県富山市水橋市江47","洪水":"","がけ崩れ、土石流及び地滑り":"","高潮":"","地震":"","津波":"◎","大規模な火事":"","内水氾濫":"","火山現象":"","指定避難所との重複":"","備考":""}},
{"type":"Feature","geometry":{"type":"Point","coordinates":[137.2130335000,36.7052677700]},"properties":{"Name":"富山武道館","Jusho":"富山県富山市牛島町2-10","洪水":"◎","がけ崩れ、土石流及び地滑り":"","高潮":"","地震":"","津波":"","大規模な火事":"","内水氾濫":"","火山現象":"","指定避難所との重複":"","備考":""}},
{"type":"Feature","geometry":{"type":"Point","coordinates":[137.2123715000,36.7030281700]},"properties":{"Name":"市駅北駐車場","Jusho":"富山県富山市牛島町24-2","洪水":"◎","がけ崩れ、土石流及び地滑り":"","高潮":"","地震":"","津波":"","大規模な火事":"","内水氾濫":"","火山現象":"","指定避難所との重複":"","備考":""}},
{"type":"Feature","geometry":{"type":"Point","coordinates":[137.2131279000,36.7035442800]},"properties":{"Name":"オーバードホール","Jusho":"富山県富山市牛島町9-28","洪水":"◎","がけ崩れ、土石流及び地滑り":"","高潮":"","地震":"","津波":"","大規模な火事":"","内水氾濫":"","火山現象":"","指定避難所との重複":"","備考":""}},
{"type":"Feature","geometry":{"type":"Point","coordinates":[137.2259976000,36.7130531900]},"properties":{"Name":"富山聴覚総合支援学校","Jusho":"富山県富山市下奥井1-9-56","洪水":"◎","がけ崩れ、土石流及び地滑り":"","高潮":"","地震":"","津波":"","大規模な火事":"","内水氾濫":"","火山現象":"","指定避難所との重複":"","備考":""}},
{"type":"Feature","geometry":{"type":"Point","coordinates":[137.2164625000,36.7047803100]},"properties":{"Name":"富山公共職業安定所","Jusho":"富山県富山市奥田新町45","洪水":"◎","がけ崩れ、土石流及び地滑り":"","高潮":"","地震":"","津波":"","大規模な火事":"","内水氾濫":"","火山現象":"","指定避難所との重複":"","備考":""}},
{"type":"Feature","geometry":{"type":"Point","coordinates":[137.2172864000,36.6934009300]},"properties":{"Name":"旧八人町幼稚園","Jusho":"富山県富山市八人町5-17","洪水":"◎","がけ崩れ、土石流及び地滑り":"","高潮":"","地震":"","津波":"","大規模な火事":"","内水氾濫":"","火山現象":"","指定避難所との重複":"","備考":""}},
{"type":"Feature","geometry":{"type":"Point","coordinates":[137.2169967000,36.6935385700]},"properties":{"Name":"八人町地区センター","Jusho":"富山県富山市八人町5-17","洪水":"◎","がけ崩れ、土石流及び地滑り":"","高潮":"","地震":"","津波":"","大規模な火事":"","内水氾濫":"","火山現象":"","指定避難所との重複":"","備考":""}},
{"type":"Feature","geometry":{"type":"Point","coordinates":[137.2132969000,36.6911818000]},"properties":{"Name":"総曲輪駐車場","Jusho":"富山県富山市総曲輪2-8-3","洪水":"◎","がけ崩れ、土石流及び地滑り":"","高潮":"","地震":"","津波":"","大規模な火事":"","内水氾濫":"","火山現象":"","指定避難所との重複":"","備考":""}},
{"type":"Feature","geometry":{"type":"Point","coordinates":[137.2140798000,36.6891305900]},"properties":{"Name":"グランドパーキング","Jusho":"富山県富山市総曲輪3-6-15-13","洪水":"◎","がけ崩れ、土石流及び地滑り":"","高潮":"","地震":"","津波":"","大規模な火事":"","内水氾濫":"","火山現象":"","指定避難所との重複":"","備考":""}},
{"type":"Feature","geometry":{"type":"Point","coordinates":[137.2125355000,36.6991370400]},"properties":{"Name":"桜町駐車場","Jusho":"富山県富山市桜町2-1-1","洪水":"◎","がけ崩れ、土石流及び地滑り":"","高潮":"","地震":"","津波":"","大規模な火事":"","内水氾濫":"","火山現象":"","指定避難所との重複":"","備考":""}},
{"type":"Feature","geometry":{"type":"Point","coordinates":[137.2179413000,36.6976679300]},"properties":{"Name":"富山県教育会館","Jusho":"富山県富山市千歳町1-2-7","洪水":"◎","がけ崩れ、土石流及び地滑り":"","高潮":"","地震":"","津波":"","大規模な火事":"","内水氾濫":"","火山現象":"","指定避難所との重複":"","備考":""}},
{"type":"Feature","geometry":{"type":"Point","coordinates":[137.2109088000,36.6905015700]},"properties":{"Name":"富山市民プラザ","Jusho":"富山県富山市大手町6-14","洪水":"◎","がけ崩れ、土石流及び地滑り":"","高潮":"","地震":"","津波":"","大規模な火事":"","内水氾濫":"","火山現象":"","指定避難所との重複":"","備考":""}},
{"type":"Feature","geometry":{"type":"Point","coordinates":[137.2108899000,36.6915420000]},"properties":{"Name":"富山国際会議場","Jusho":"富山県富山市大手町1-2","洪水":"◎","がけ崩れ、土石流及び地滑り":"","高潮":"","地震":"","津波":"","大規模な火事":"","内水氾濫":"","火山現象":"","指定避難所との重複":"","備考":""}},
{"type":"Feature","geometry":{"type":"Point","coordinates":[137.2123138000,36.6955835300]},"properties":{"Name":"県民会館","Jusho":"富山県富山市新総曲輪4-18","洪水":"◎","がけ崩れ、土石流及び地滑り":"","高潮":"","地震":"","津波":"","大規模な火事":"","内水氾濫":"","火山現象":"","指定避難所との重複":"","備考":""}},
{"type":"Feature","geometry":{"type":"Point","coordinates":[137.2079175000,36.6854948000]},"properties":{"Name":"西田地方地区センター","Jusho":"富山県富山市相生町5-17","洪水":"◎","がけ崩れ、土石流及び地滑り":"","高潮":"","地震":"","津波":"","大規模な火事":"","内水氾濫":"","火山現象":"","指定避難所との重複":"","備考":""}},
{"type":"Feature","geometry":{"type":"Point","coordinates":[137.2118212000,36.6808632600]},"properties":{"Name":"科学博物館","Jusho":"富山県富山市西中野町1-8-31","洪水":"◎","がけ崩れ、土石流及び地滑り":"","高潮":"","地震":"","津波":"","大規模な火事":"","内水氾濫":"","火山現象":"","指定避難所との重複":"","備考":""}},
{"type":"Feature","geometry":{"type":"Point","coordinates":[137.2204209000,36.6897323400]},"properties":{"Name":"とやまインキュベータオフィス","Jusho":"富山県富山市中央通り2-3-22","洪水":"◎","がけ崩れ、土石流及び地滑り":"","高潮":"","地震":"","津波":"","大規模な火事":"","内水氾濫":"","火山現象":"","指定避難所との重複":"","備考":""}},
{"type":"Feature","geometry":{"type":"Point","coordinates":[137.2147944000,36.6824627100]},"properties":{"Name":"星井町地区センター","Jusho":"富山県富山市西中野町2-1-24","洪水":"◎","がけ崩れ、土石流及び地滑り":"","高潮":"","地震":"","津波":"","大規模な火事":"","内水氾濫":"","火山現象":"","指定避難所との重複":"","備考":""}},
{"type":"Feature","geometry":{"type":"Point","coordinates":[137.2243263000,36.6856342900]},"properties":{"Name":"清水町地区センター","Jusho":"富山県富山市清水町8-1-31","洪水":"◎","がけ崩れ、土石流及び地滑り":"","高潮":"","地震":"","津波":"","大規模な火事":"","内水氾濫":"","火山現象":"","指定避難所との重複":"","備考":""}},
{"type":"Feature","geometry":{"type":"Point","coordinates":[137.2223454000,36.6874692600]},"properties":{"Name":"五番町地区センター","Jusho":"富山県富山市辰巳町1-2-8","洪水":"◎","がけ崩れ、土石流及び地滑り":"","高潮":"","地震":"","津波":"","大規模な火事":"","内水氾濫":"","火山現象":"","指定避難所との重複":"","備考":""}},
{"type":"Feature","geometry":{"type":"Point","coordinates":[137.2271360000,36.6853547300]},"properties":{"Name":"清水保育所","Jusho":"富山県富山市旭町10-17","洪水":"◎","がけ崩れ、土石流及び地滑り":"","高潮":"","地震":"","津波":"","大規模な火事":"","内水氾濫":"","火山現象":"","指定避難所との重複":"","備考":""}},
{"type":"Feature","geometry":{"type":"Point","coordinates":[137.2257123000,36.6969977300]},"properties":{"Name":"柳町地区センター","Jusho":"富山県富山市弥生町1-12-22","洪水":"◎","がけ崩れ、土石流及び地滑り":"","高潮":"","地震":"","津波":"","大規模な火事":"","内水氾濫":"","火山現象":"","指定避難所との重複":"","備考":""}},
{"type":"Feature","geometry":{"type":"Point","coordinates":[137.2321262000,36.6957326100]},"properties":{"Name":"稲荷元町保育所","Jusho":"富山県富山市稲荷元町2-13-13","洪水":"◎","がけ崩れ、土石流及び地滑り":"","高潮":"","地震":"","津波":"","大規模な火事":"","内水氾濫":"","火山現象":"","指定避難所との重複":"","備考":""}},
{"type":"Feature","geometry":{"type":"Point","coordinates":[137.2251699000,36.6939349800]},"properties":{"Name":"柳町保育所","Jusho":"富山県富山市於保多町1-23","洪水":"◎","がけ崩れ、土石流及び地滑り":"","高潮":"","地震":"","津波":"","大規模な火事":"","内水氾濫":"","火山現象":"","指定避難所との重複":"","備考":""}},
{"type":"Feature","geometry":{"type":"Point","coordinates":[137.2344160000,36.6909185200]},"properties":{"Name":"東部地区センター","Jusho":"富山県富山市石金1-2-13","洪水":"◎","がけ崩れ、土石流及び地滑り":"","高潮":"","地震":"","津波":"","大規模な火事":"","内水氾濫":"","火山現象":"","指定避難所との重複":"","備考":""}},
{"type":"Feature","geometry":{"type":"Point","coordinates":[137.2374106000,36.6868129200]},"properties":{"Name":"石金保育所","Jusho":"富山県富山市石金3-2-37","洪水":"◎","がけ崩れ、土石流及び地滑り":"","高潮":"","地震":"","津波":"","大規模な火事":"","内水氾濫":"","火山現象":"","指定避難所との重複":"","備考":""}},
{"type":"Feature","geometry":{"type":"Point","coordinates":[137.2360952258,36.6906512545]},"properties":{"Name":"東部児童館","Jusho":"富山県富山市石金1-13-41","洪水":"◎","がけ崩れ、土石流及び地滑り":"","高潮":"","地震":"","津波":"","大規模な火事":"","内水氾濫":"","火山現象":"","指定避難所との重複":"","備考":""}},
{"type":"Feature","geometry":{"type":"Point","coordinates":[137.2335911000,36.7601529200]},"properties":{"Name":"岩瀬カナル会館","Jusho":"富山県富山市岩瀬天神町48","洪水":"◎","がけ崩れ、土石流及び地滑り":"","高潮":"","地震":"","津波":"","大規模な火事":"","内水氾濫":"","火山現象":"","指定避難所との重複":"","備考":""}},
{"type":"Feature","geometry":{"type":"Point","coordinates":[137.2406675000,36.7620515100]},"properties":{"Name":"富山市エコタウン交流推進センター","Jusho":"富山県富山市岩瀬天池町1-7","洪水":"◎","がけ崩れ、土石流及び地滑り":"","高潮":"","地震":"","津波":"","大規模な火事":"","内水氾濫":"","火山現象":"","指定避難所との重複":"","備考":""}},
{"type":"Feature","geometry":{"type":"Point","coordinates":[137.2289473000,36.7462758000]},"properties":{"Name":"萩浦地区センター","Jusho":"富山県富山市高畠町2-11-36","洪水":"◎","がけ崩れ、土石流及び地滑り":"","高潮":"","地震":"","津波":"","大規模な火事":"","内水氾濫":"","火山現象":"","指定避難所との重複":"","備考":""}},
{"type":"Feature","geometry":{"type":"Point","coordinates":[137.2392888000,36.7428266100]},"properties":{"Name":"岩瀬スポーツ公園","Jusho":"富山県富山市森5-1-17","洪水":"◎","がけ崩れ、土石流及び地滑り":"","高潮":"","地震":"","津波":"","大規模な火事":"","内水氾濫":"","火山現象":"","指定避難所との重複":"","備考":""}},
{"type":"Feature","geometry":{"type":"Point","coordinates":[137.2346850244,36.7300865877]},"properties":{"Name":"豊田地区センター","Jusho":"富山県富山市豊田本町1-2-5","洪水":"◎","がけ崩れ、土石流及び地滑り":"","高潮":"","地震":"","津波":"","大規模な火事":"","内水氾濫":"","火山現象":"","指定避難所との重複":"","備考":""}},
{"type":"Feature","geometry":{"type":"Point","coordinates":[137.2343846170,36.7300564921]},"properties":{"Name":"豊田保育所","Jusho":"富山県富山市豊田本町1-2-3","洪水":"◎","がけ崩れ、土石流及び地滑り":"","高潮":"","地震":"","津波":"","大規模な火事":"","内水氾濫":"","火山現象":"","指定避難所との重複":"","備考":""}},
{"type":"Feature","geometry":{"type":"Point","coordinates":[137.2503223000,36.7517844400]},"properties":{"Name":"大広田地区センター","Jusho":"富山県富山市東富山寿町2-1-14","洪水":"◎","がけ崩れ、土石流及び地滑り":"","高潮":"","地震":"","津波":"","大規模な火事":"","内水氾濫":"","火山現象":"","指定避難所との重複":"","備考":""}},
{"type":"Feature","geometry":{"type":"Point","coordinates":[137.2513437000,36.7633036500]},"properties":{"Name":"海岸通老人福祉センター","Jusho":"富山県富山市海岸通264-11","洪水":"◎","がけ崩れ、土石流及び地滑り":"","高潮":"","地震":"","津波":"","大規模な火事":"","内水氾濫":"","火山現象":"","指定避難所との重複":"","備考":""}},
{"type":"Feature","geometry":{"type":"Point","coordinates":[137.2735489000,36.7582647700]},"properties":{"Name":"浜黒崎浄化センター","Jusho":"富山県富山市浜黒崎18","洪水":"◎","がけ崩れ、土石流及び地滑り":"","高潮":"","地震":"","津波":"","大規模な火事":"","内水氾濫":"","火山現象":"","指定避難所との重複":"","備考":""}},
{"type":"Feature","geometry":{"type":"Point","coordinates":[137.2778672000,36.7581530200]},"properties":{"Name":"浜黒崎地区センター","Jusho":"富山県富山市浜黒崎3295-12","洪水":"◎","がけ崩れ、土石流及び地滑り":"","高潮":"","地震":"","津波":"","大規模な火事":"","内水氾濫":"","火山現象":"","指定避難所との重複":"","備考":""}},
{"type":"Feature","geometry":{"type":"Point","coordinates":[137.2475100000,36.7159325100]},"properties":{"Name":"広田地区センター","Jusho":"富山県富山市新屋字野畑割1-3","洪水":"◎","がけ崩れ、土石流及び地滑り":"","高潮":"","地震":"","津波":"","大規模な火事":"","内水氾濫":"","火山現象":"","指定避難所との重複":"","備考":""}},
{"type":"Feature","geometry":{"type":"Point","coordinates":[137.2712538000,36.7315014300]},"properties":{"Name":"針原地区センター","Jusho":"富山県富山市針原中町901-2","洪水":"◎","がけ崩れ、土石流及び地滑り":"","高潮":"","地震":"","津波":"","大規模な火事":"","内水氾濫":"","火山現象":"","指定避難所との重複":"","備考":""}},
{"type":"Feature","geometry":{"type":"Point","coordinates":[137.2645852000,36.7332040200]},"properties":{"Name":"運転教育センター","Jusho":"富山県富山市高島62","洪水":"◎","がけ崩れ、土石流及び地滑り":"","高潮":"","地震":"","津波":"","大規模な火事":"","内水氾濫":"","火山現象":"","指定避難所との重複":"","備考":""}},
{"type":"Feature","geometry":{"type":"Point","coordinates":[137.2526109000,36.6986537300]},"properties":{"Name":"新庄適応指導教室","Jusho":"富山県富山市新庄町3-3-84","洪水":"◎","がけ崩れ、土石流及び地滑り":"","高潮":"","地震":"","津波":"","大規模な火事":"","内水氾濫":"","火山現象":"","指定避難所との重複":"","備考":""}},
{"type":"Feature","geometry":{"type":"Point","coordinates":[137.2519482000,36.7026871500]},"properties":{"Name":"新庄地区センター","Jusho":"富山県富山市新庄町1-3-16","洪水":"◎","がけ崩れ、土石流及び地滑り":"","高潮":"","地震":"","津波":"","大規模な火事":"","内水氾濫":"","火山現象":"","指定避難所との重複":"","備考":""}},
{"type":"Feature","geometry":{"type":"Point","coordinates":[137.2629559000,36.7114032600]},"properties":{"Name":"新庄北地区センター","Jusho":"富山県富山市新庄本町2-4-11","洪水":"◎","がけ崩れ、土石流及び地滑り":"","高潮":"","地震":"","津波":"","大規模な火事":"","内水氾濫":"","火山現象":"","指定避難所との重複":"","備考":""}},
{"type":"Feature","geometry":{"type":"Point","coordinates":[137.2522985000,36.6983129700]},"properties":{"Name":"新庄保育所","Jusho":"富山県富山市新庄町3-4-20","洪水":"◎","がけ崩れ、土石流及び地滑り":"","高潮":"","地震":"","津波":"","大規模な火事":"","内水氾濫":"","火山現象":"","指定避難所との重複":"","備考":""}},
{"type":"Feature","geometry":{"type":"Point","coordinates":[137.2465532000,36.6927776400]},"properties":{"Name":"東老人憩いの家","Jusho":"富山県富山市荒川4-74-3","洪水":"◎","がけ崩れ、土石流及び地滑り":"","高潮":"","地震":"","津波":"","大規模な火事":"","内水氾濫":"","火山現象":"","指定避難所との重複":"","備考":""}},
{"type":"Feature","geometry":{"type":"Point","coordinates":[137.2941944000,36.7501469700]},"properties":{"Name":"水橋浄化センター","Jusho":"富山県富山市水橋辻ヶ堂101","洪水":"◎","がけ崩れ、土石流及び地滑り":"","高潮":"","地震":"","津波":"","大規模な火事":"","内水氾濫":"","火山現象":"","指定避難所との重複":"","備考":""}},
{"type":"Feature","geometry":{"type":"Point","coordinates":[137.3264337000,36.7391377600]},"properties":{"Name":"水橋東部地区センター","Jusho":"富山県富山市水橋小池146-1","洪水":"◎","がけ崩れ、土石流及び地滑り":"","高潮":"","地震":"","津波":"","大規模な火事":"","内水氾濫":"","火山現象":"","指定避難所との重複":"","備考":""}},
{"type":"Feature","geometry":{"type":"Point","coordinates":[137.3266628000,36.7396937100]},"properties":{"Name":"水橋東部保育所","Jusho":"富山県富山市水橋小池391","洪水":"◎","がけ崩れ、土石流及び地滑り":"","高潮":"","地震":"","津波":"","大規模な火事":"","内水氾濫":"","火山現象":"","指定避難所との重複":"","備考":""}},
{"type":"Feature","geometry":{"type":"Point","coordinates":[137.2913089000,36.7206389000]},"properties":{"Name":"三郷地区センター","Jusho":"富山県富山市水橋小路34","洪水":"◎","がけ崩れ、土石流及び地滑り":"","高潮":"","地震":"","津波":"","大規模な火事":"","内水氾濫":"","火山現象":"","指定避難所との重複":"","備考":""}},
{"type":"Feature","geometry":{"type":"Point","coordinates":[137.2923315000,36.7199500500]},"properties":{"Name":"三郷保育所","Jusho":"富山県富山市水橋小路338-1","洪水":"◎","がけ崩れ、土石流及び地滑り":"","高潮":"","地震":"","津波":"","大規模な火事":"","内水氾濫":"","火山現象":"","指定避難所との重複":"","備考":""}},
{"type":"Feature","geometry":{"type":"Point","coordinates":[137.3137046000,36.7234482500]},"properties":{"Name":"上条地区センター","Jusho":"富山県富山市水橋石割73-1","洪水":"◎","がけ崩れ、土石流及び地滑り":"","高潮":"","地震":"","津波":"","大規模な火事":"","内水氾濫":"","火山現象":"","指定避難所との重複":"","備考":""}},
{"type":"Feature","geometry":{"type":"Point","coordinates":[137.3132998000,36.7231289800]},"properties":{"Name":"上条保育所","Jusho":"富山県富山市水橋石割72-2","洪水":"◎","がけ崩れ、土石流及び地滑り":"","高潮":"","地震":"","津波":"","大規模な火事":"","内水氾濫":"","火山現象":"","指定避難所との重複":"","備考":""}},
{"type":"Feature","geometry":{"type":"Point","coordinates":[137.1885485000,36.7392709600]},"properties":{"Name":"和合保育所","Jusho":"富山県富山市布目4173","洪水":"◎","がけ崩れ、土石流及び地滑り":"","高潮":"","地震":"","津波":"","大規模な火事":"","内水氾濫":"","火山現象":"","指定避難所との重複":"","備考":""}},
{"type":"Feature","geometry":{"type":"Point","coordinates":[137.1907065000,36.7338779900]},"properties":{"Name":"八幡地区センター","Jusho":"富山県富山市八町東262","洪水":"◎","がけ崩れ、土石流及び地滑り":"","高潮":"","地震":"","津波":"","大規模な火事":"","内水氾濫":"","火山現象":"","指定避難所との重複":"","備考":""}},
{"type":"Feature","geometry":{"type":"Point","coordinates":[137.1857503407,36.7478245191]},"properties":{"Name":"倉垣地区センター","Jusho":"富山県富山市布目3967","洪水":"◎","がけ崩れ、土石流及び地滑り":"","高潮":"","地震":"","津波":"","大規模な火事":"","内水氾濫":"","火山現象":"","指定避難所との重複":"","備考":""}},
{"type":"Feature","geometry":{"type":"Point","coordinates":[137.1858029000,36.7084101000]},"properties":{"Name":"呉羽山老人福祉センター","Jusho":"富山県富山市安養坊10-1-1","洪水":"◎","がけ崩れ、土石流及び地滑り":"","高潮":"","地震":"","津波":"","大規模な火事":"","内水氾濫":"","火山現象":"","指定避難所との重複":"","備考":""}},
{"type":"Feature","geometry":{"type":"Point","coordinates":[137.1990623000,36.7086672100]},"properties":{"Name":"桜谷地区センター","Jusho":"富山県富山市田刈屋279","洪水":"◎","がけ崩れ、土石流及び地滑り":"","高潮":"","地震":"","津波":"","大規模な火事":"","内水氾濫":"","火山現象":"","指定避難所との重複":"","備考":""}},
{"type":"Feature","geometry":{"type":"Point","coordinates":[137.1895315000,36.7103467100]},"properties":{"Name":"民俗民芸村管理センター","Jusho":"富山県富山市安養坊1181-1","洪水":"◎","がけ崩れ、土石流及び地滑り":"","高潮":"","地震":"","津波":"","大規模な火事":"","内水氾濫":"","火山現象":"","指定避難所との重複":"","備考":""}},
{"type":"Feature","geometry":{"type":"Point","coordinates":[137.1848215000,36.7019456300]},"properties":{"Name":"五福地区センター","Jusho":"富山県富山市五福4431-1","洪水":"◎","がけ崩れ、土石流及び地滑り":"","高潮":"","地震":"","津波":"","大規模な火事":"","内水氾濫":"","火山現象":"","指定避難所との重複":"","備考":""}},
{"type":"Feature","geometry":{"type":"Point","coordinates":[137.2671306000,36.6865212200]},"properties":{"Name":"藤ノ木地区センター","Jusho":"富山県富山市藤木1246","洪水":"◎","がけ崩れ、土石流及び地滑り":"","高潮":"","地震":"","津波":"","大規模な火事":"","内水氾濫":"","火山現象":"","指定避難所との重複":"","備考":""}},
{"type":"Feature","geometry":{"type":"Point","coordinates":[137.2338498000,36.6755788800]},"properties":{"Name":"勤労青少年ホーム","Jusho":"富山県富山市山室181","洪水":"◎","がけ崩れ、土石流及び地滑り":"","高潮":"","地震":"","津波":"","大規模な火事":"","内水氾濫":"","火山現象":"","指定避難所との重複":"","備考":""}},
{"type":"Feature","geometry":{"type":"Point","coordinates":[137.2372335000,36.6788277400]},"properties":{"Name":"山室地区センター","Jusho":"富山県富山市中市2-8-76","洪水":"◎","がけ崩れ、土石流及び地滑り":"","高潮":"","地震":"","津波":"","大規模な火事":"","内水氾濫":"","火山現象":"","指定避難所との重複":"","備考":""}},
{"type":"Feature","geometry":{"type":"Point","coordinates":[137.2453468000,36.6713544900]},"properties":{"Name":"山室児童館","Jusho":"富山県富山市高屋敷573-5","洪水":"◎","がけ崩れ、土石流及び地滑り":"","高潮":"","地震":"","津波":"","大規模な火事":"","内水氾濫":"","火山現象":"","指定避難所との重複":"","備考":""}},
{"type":"Feature","geometry":{"type":"Point","coordinates":[137.2398548000,36.6734410300]},"properties":{"Name":"やまむろ保育園","Jusho":"富山県富山市山室5-3","洪水":"◎","がけ崩れ、土石流及び地滑り":"","高潮":"","地震":"","津波":"","大規模な火事":"","内水氾濫":"","火山現象":"","指定避難所との重複":"","備考":""}},
{"type":"Feature","geometry":{"type":"Point","coordinates":[137.2522801000,36.6713672700]},"properties":{"Name":"山室中部地区センター","Jusho":"富山県富山市山室荒屋84","洪水":"◎","がけ崩れ、土石流及び地滑り":"","高潮":"","地震":"","津波":"","大規模な火事":"","内水氾濫":"","火山現象":"","指定避難所との重複":"","備考":""}},
{"type":"Feature","geometry":{"type":"Point","coordinates":[137.2028162000,36.6734213700]},"properties":{"Name":"光陽地区センター","Jusho":"富山県富山市二口町1-12-3","洪水":"◎","がけ崩れ、土石流及び地滑り":"","高潮":"","地震":"","津波":"","大規模な火事":"","内水氾濫":"","火山現象":"","指定避難所との重複":"","備考":""}},
{"type":"Feature","geometry":{"type":"Point","coordinates":[137.2225866000,36.6763811400]},"properties":{"Name":"堀川地区センター","Jusho":"富山県富山市堀川小泉町1-18-13","洪水":"◎","がけ崩れ、土石流及び地滑り":"","高潮":"","地震":"","津波":"","大規模な火事":"","内水氾濫":"","火山現象":"","指定避難所との重複":"","備考":""}},
{"type":"Feature","geometry":{"type":"Point","coordinates":[137.2026685000,36.6854602900]},"properties":{"Name":"堀川保育所","Jusho":"富山県富山市磯部町3-9-3","洪水":"◎","がけ崩れ、土石流及び地滑り":"","高潮":"","地震":"","津波":"","大規模な火事":"","内水氾濫":"","火山現象":"","指定避難所との重複":"","備考":""}},
{"type":"Feature","geometry":{"type":"Point","coordinates":[137.2265910000,36.6683321600]},"properties":{"Name":"幼保連携型認定こども園堀川南保育園","Jusho":"富山県富山市大町16-1","洪水":"◎","がけ崩れ、土石流及び地滑り":"","高潮":"","地震":"","津波":"","大規模な火事":"","内水氾濫":"","火山現象":"","指定避難所との重複":"","備考":""}},
{"type":"Feature","geometry":{"type":"Point","coordinates":[137.2163228000,36.6697300600]},"properties":{"Name":"南老人福祉センター","Jusho":"富山県富山市今泉88-1","洪水":"◎","がけ崩れ、土石流及び地滑り":"","高潮":"","地震":"","津波":"","大規模な火事":"","内水氾濫":"","火山現象":"","指定避難所との重複":"","備考":""}},
{"type":"Feature","geometry":{"type":"Point","coordinates":[137.2316706000,36.6624048600]},"properties":{"Name":"堀川南地区センター","Jusho":"富山県富山市本郷町243-45","洪水":"◎","がけ崩れ、土石流及び地滑り":"","高潮":"","地震":"","津波":"","大規模な火事":"","内水氾濫":"","火山現象":"","指定避難所との重複":"","備考":""}},
{"type":"Feature","geometry":{"type":"Point","coordinates":[137.2115481000,36.6440948200]},"properties":{"Name":"障害者福祉プラザ","Jusho":"富山県富山市蜷川15","洪水":"◎","がけ崩れ、土石流及び地滑り":"","高潮":"","地震":"","津波":"","大規模な火事":"","内水氾濫":"","火山現象":"","指定避難所との重複":"","備考":""}},
{"type":"Feature","geometry":{"type":"Point","coordinates":[137.2053989000,36.6452511900]},"properties":{"Name":"富山市保健所","Jusho":"富山県富山市蜷川459-1","洪水":"◎","がけ崩れ、土石流及び地滑り":"","高潮":"","地震":"","津波":"","大規模な火事":"","内水氾濫":"","火山現象":"","指定避難所との重複":"","備考":""}},
{"type":"Feature","geometry":{"type":"Point","coordinates":[137.2215408000,36.6547804200]},"properties":{"Name":"蜷川地区センター","Jusho":"富山県富山市赤田50","洪水":"◎","がけ崩れ、土石流及び地滑り":"","高潮":"","地震":"","津波":"","大規模な火事":"","内水氾濫":"","火山現象":"","指定避難所との重複":"","備考":""}},
{"type":"Feature","geometry":{"type":"Point","coordinates":[137.2265446000,36.6554793300]},"properties":{"Name":"蜷川児童館","Jusho":"富山県富山市下堀字上大道割77-7","洪水":"◎","がけ崩れ、土石流及び地滑り":"","高潮":"","地震":"","津波":"","大規模な火事":"","内水氾濫":"","火山現象":"","指定避難所との重複":"","備考":""}},
{"type":"Feature","geometry":{"type":"Point","coordinates":[137.2056502000,36.6296771600]},"properties":{"Name":"環境センター","Jusho":"富山県富山市栗山字向田橋場割637","洪水":"◎","がけ崩れ、土石流及び地滑り":"","高潮":"","地震":"","津波":"","大規模な火事":"","内水氾濫":"","火山現象":"","指定避難所との重複":"","備考":""}},
{"type":"Feature","geometry":{"type":"Point","coordinates":[137.1939060000,36.6326084400]},"properties":{"Name":"新保地区センター","Jusho":"富山県富山市新保306-1","洪水":"◎","がけ崩れ、土石流及び地滑り":"","高潮":"","地震":"","津波":"","大規模な火事":"","内水氾濫":"","火山現象":"","指定避難所との重複":"","備考":""}},
{"type":"Feature","geometry":{"type":"Point","coordinates":[137.1900923000,36.6448730500]},"properties":{"Name":"富山県総合体育センター","Jusho":"富山県富山市秋ヶ島183","洪水":"◎","がけ崩れ、土石流及び地滑り":"","高潮":"","地震":"","津波":"","大規模な火事":"","内水氾濫":"","火山現象":"","指定避難所との重複":"","備考":""}},
{"type":"Feature","geometry":{"type":"Point","coordinates":[137.1982180000,36.6392116300]},"properties":{"Name":"富山能楽堂","Jusho":"富山県富山市友杉1097","洪水":"◎","がけ崩れ、土石流及び地滑り":"","高潮":"","地震":"","津波":"","大規模な火事":"","内水氾濫":"","火山現象":"","指定避難所との重複":"","備考":""}},
{"type":"Feature","geometry":{"type":"Point","coordinates":[137.1973221000,36.6391384500]},"properties":{"Name":"体育文化センター","Jusho":"富山県富山市友杉1097","洪水":"◎","がけ崩れ、土石流及び地滑り":"","高潮":"","地震":"","津波":"","大規模な火事":"","内水氾濫":"","火山現象":"","指定避難所との重複":"","備考":""}},
{"type":"Feature","geometry":{"type":"Point","coordinates":[137.2024963000,36.6369207000]},"properties":{"Name":"富山県国際健康プラザ","Jusho":"富山県富山市友杉151","洪水":"◎","がけ崩れ、土石流及び地滑り":"","高潮":"","地震":"","津波":"","大規模な火事":"","内水氾濫":"","火山現象":"","指定避難所との重複":"","備考":""}},
{"type":"Feature","geometry":{"type":"Point","coordinates":[137.2202165000,36.6308166700]},"properties":{"Name":"熊野地区センター","Jusho":"富山県富山市悪王寺128","洪水":"◎","がけ崩れ、土石流及び地滑り":"","高潮":"","地震":"","津波":"","大規模な火事":"","内水氾濫":"","火山現象":"","指定避難所との重複":"","備考":""}},
{"type":"Feature","geometry":{"type":"Point","coordinates":[137.2514287000,36.6539210500]},"properties":{"Name":"太田地区センター","Jusho":"富山県富山市石屋150","洪水":"◎","がけ崩れ、土石流及び地滑り":"","高潮":"","地震":"","津波":"","大規模な火事":"","内水氾濫":"","火山現象":"","指定避難所との重複":"","備考":""}},
{"type":"Feature","geometry":{"type":"Point","coordinates":[137.2613003000,36.6451504400]},"properties":{"Name":"太田保育所","Jusho":"富山県富山市城村168-3","洪水":"◎","がけ崩れ、土石流及び地滑り":"","高潮":"","地震":"","津波":"","大規模な火事":"","内水氾濫":"","火山現象":"","指定避難所との重複":"","備考":""}},
{"type":"Feature","geometry":{"type":"Point","coordinates":[137.2749040000,36.6435281300]},"properties":{"Name":"慈光園","Jusho":"富山県富山市西番104-1","洪水":"◎","がけ崩れ、土石流及び地滑り":"","高潮":"","地震":"","津波":"","大規模な火事":"","内水氾濫":"","火山現象":"","指定避難所との重複":"","備考":""}},
{"type":"Feature","geometry":{"type":"Point","coordinates":[137.2741208000,36.6429771900]},"properties":{"Name":"愛育園","Jusho":"富山県富山市西番104-1","洪水":"◎","がけ崩れ、土石流及び地滑り":"","高潮":"","地震":"","津波":"","大規模な火事":"","内水氾濫":"","火山現象":"","指定避難所との重複":"","備考":""}},
{"type":"Feature","geometry":{"type":"Point","coordinates":[137.2525140000,36.6223306900]},"properties":{"Name":"月岡地区センター","Jusho":"富山県富山市上千俵町509","洪水":"◎","がけ崩れ、土石流及び地滑り":"","高潮":"","地震":"","津波":"","大規模な火事":"","内水氾濫":"","火山現象":"","指定避難所との重複":"","備考":""}},
{"type":"Feature","geometry":{"type":"Point","coordinates":[137.2456868000,36.6296831000]},"properties":{"Name":"月岡保育所","Jusho":"富山県富山市月見町4-41","洪水":"◎","がけ崩れ、土石流及び地滑り":"","高潮":"","地震":"","津波":"","大規模な火事":"","内水氾濫":"","火山現象":"","指定避難所との重複":"","備考":""}},
{"type":"Feature","geometry":{"type":"Point","coordinates":[137.2530880000,36.6222574900]},"properties":{"Name":"月岡幼稚園","Jusho":"富山県富山市上千俵町508","洪水":"◎","がけ崩れ、土石流及び地滑り":"","高潮":"","地震":"","津波":"","大規模な火事":"","内水氾濫":"","火山現象":"","指定避難所との重複":"","備考":""}},
{"type":"Feature","geometry":{"type":"Point","coordinates":[137.2037135000,36.5570101800]},"properties":{"Name":"須原コミュニティセンター","Jusho":"富山県富山市須原1215","洪水":"◎","がけ崩れ、土石流及び地滑り":"","高潮":"","地震":"","津波":"","大規模な火事":"","内水氾濫":"","火山現象":"","指定避難所との重複":"","備考":""}},
{"type":"Feature","geometry":{"type":"Point","coordinates":[137.2960973000,36.6118143300]},"properties":{"Name":"大山中央保育所","Jusho":"富山県富山市中滝16","洪水":"◎","がけ崩れ、土石流及び地滑り":"","高潮":"","地震":"","津波":"","大規模な火事":"","内水氾濫":"","火山現象":"","指定避難所との重複":"","備考":""}},
{"type":"Feature","geometry":{"type":"Point","coordinates":[137.2997453000,36.6082414500]},"properties":{"Name":"大山文化会館","Jusho":"富山県富山市上滝577","洪水":"◎","がけ崩れ、土石流及び地滑り":"","高潮":"","地震":"","津波":"","大規模な火事":"","内水氾濫":"","火山現象":"","指定避難所との重複":"","備考":""}},
{"type":"Feature","geometry":{"type":"Point","coordinates":[137.2795055000,36.6090775900]},"properties":{"Name":"大山老人福祉センター","Jusho":"富山県富山市花崎1151","洪水":"◎","がけ崩れ、土石流及び地滑り":"","高潮":"","地震":"","津波":"","大規模な火事":"","内水氾濫":"","火山現象":"","指定避難所との重複":"","備考":""}},
{"type":"Feature","geometry":{"type":"Point","coordinates":[137.2793897000,36.6188348400]},"properties":{"Name":"大庄幼稚園","Jusho":"富山県富山市善名453","洪水":"◎","がけ崩れ、土石流及び地滑り":"","高潮":"","地震":"","津波":"","大規模な火事":"","内水氾濫":"","火山現象":"","指定避難所との重複":"","備考":""}},
{"type":"Feature","geometry":{"type":"Point","coordinates":[137.2787263000,36.6184864000]},"properties":{"Name":"保育所型認定こども園おおしょう保育園","Jusho":"富山県富山市田畠493-2","洪水":"◎","がけ崩れ、土石流及び地滑り":"","高潮":"","地震":"","津波":"","大規模な火事":"","内水氾濫":"","火山現象":"","指定避難所との重複":"","備考":""}},
{"type":"Feature","geometry":{"type":"Point","coordinates":[137.1816805000,36.6617150500]},"properties":{"Name":"富山県中央植物園","Jusho":"富山県富山市婦中町上轡田42","洪水":"◎","がけ崩れ、土石流及び地滑り":"","高潮":"","地震":"","津波":"","大規模な火事":"","内水氾濫":"","火山現象":"","指定避難所との重複":"","備考":""}},
{"type":"Feature","geometry":{"type":"Point","coordinates":[137.1679163000,36.6256419100]},"properties":{"Name":"宮川保育所","Jusho":"富山県富山市婦中町広田5101","洪水":"◎","がけ崩れ、土石流及び地滑り":"","高潮":"","地震":"","津波":"","大規模な火事":"","内水氾濫":"","火山現象":"","指定避難所との重複":"","備考":""}},
{"type":"Feature","geometry":{"type":"Point","coordinates":[137.1677367000,36.6414225100]},"properties":{"Name":"婦中熊野保育所","Jusho":"富山県富山市婦中町中名479-1","洪水":"◎","がけ崩れ、土石流及び地滑り":"","高潮":"","地震":"","津波":"","大規模な火事":"","内水氾濫":"","火山現象":"","指定避難所との重複":"","備考":""}},
{"type":"Feature","geometry":{"type":"Point","coordinates":[137.1750144000,36.6334494300]},"properties":{"Name":"萩島公民館","Jusho":"富山県富山市婦中町萩島409","洪水":"◎","がけ崩れ、土石流及び地滑り":"","高潮":"","地震":"","津波":"","大規模な火事":"","内水氾濫":"","火山現象":"","指定避難所との重複":"","備考":""}},
{"type":"Feature","geometry":{"type":"Point","coordinates":[137.1744833000,36.6392396100]},"properties":{"Name":"ねむの木ホール","Jusho":"富山県富山市婦中町ねむの木2-121","洪水":"◎","がけ崩れ、土石流及び地滑り":"","高潮":"","地震":"","津波":"","大規模な火事":"","内水氾濫":"","火山現象":"","指定避難所との重複":"","備考":""}},
{"type":"Feature","geometry":{"type":"Point","coordinates":[137.2113598000,36.6932824100]},"properties":{"Name":"城址公園","Jusho":"富山県富山市本丸","洪水":"","がけ崩れ、土石流及び地滑り":"","高潮":"","地震":"◎","津波":"","大規模な火事":"◎","内水氾濫":"","火山現象":"","指定避難所との重複":"","備考":""}},
{"type":"Feature","geometry":{"type":"Point","coordinates":[137.1990860000,36.6859696200]},"properties":{"Name":"神通川緑地","Jusho":"富山県富山市布瀬町地先","洪水":"","がけ崩れ、土石流及び地滑り":"","高潮":"","地震":"◎","津波":"","大規模な火事":"◎","内水氾濫":"","火山現象":"","指定避難所との重複":"","備考":""}},
{"type":"Feature","geometry":{"type":"Point","coordinates":[137.2323543000,36.6989397400]},"properties":{"Name":"稲荷公園","Jusho":"富山県富山市稲荷園町","洪水":"","がけ崩れ、土石流及び地滑り":"","高潮":"","地震":"◎","津波":"","大規模な火事":"◎","内水氾濫":"","火山現象":"","指定避難所との重複":"","備考":""}},
{"type":"Feature","geometry":{"type":"Point","coordinates":[137.1998880000,36.6721244100]},"properties":{"Name":"布瀬南公園","Jusho":"富山県富山市布瀬町南三丁目","洪水":"","がけ崩れ、土石流及び地滑り":"","高潮":"","地震":"◎","津波":"","大規模な火事":"◎","内水氾濫":"","火山現象":"","指定避難所との重複":"","備考":""}},
{"type":"Feature","geometry":{"type":"Point","coordinates":[137.2817838603,36.6971966189]},"properties":{"Name":"富山県常願寺川公園","Jusho":"富山県富山市水橋常願寺","洪水":"","がけ崩れ、土石流及び地滑り":"","高潮":"","地震":"◎","津波":"","大規模な火事":"◎","内水氾濫":"","火山現象":"","指定避難所との重複":"","備考":""}},
{"type":"Feature","geometry":{"type":"Point","coordinates":[137.1899752000,36.6465821700]},"properties":{"Name":"富山県空港スポーツ緑地","Jusho":"富山県富山市秋ヶ島","洪水":"","がけ崩れ、土石流及び地滑り":"","高潮":"","地震":"◎","津波":"","大規模な火事":"◎","内水氾濫":"","火山現象":"","指定避難所との重複":"","備考":""}},
{"type":"Feature","geometry":{"type":"Point","coordinates":[137.1956186000,36.6278831200]},"properties":{"Name":"富山県総合運動公園","Jusho":"富山県富山市南中田","洪水":"","がけ崩れ、土石流及び地滑り":"","高潮":"","地震":"◎","津波":"","大規模な火事":"◎","内水氾濫":"","火山現象":"","指定避難所との重複":"","備考":""}},
{"type":"Feature","geometry":{"type":"Point","coordinates":[137.2463708000,36.6943304500]},"properties":{"Name":"城東ふれあい公園","Jusho":"富山県富山市荒川四丁目","洪水":"","がけ崩れ、土石流及び地滑り":"","高潮":"","地震":"◎","津波":"","大規模な火事":"◎","内水氾濫":"","火山現象":"","指定避難所との重複":"","備考":""}},
{"type":"Feature","geometry":{"type":"Point","coordinates":[137.1894266000,36.6969277700]},"properties":{"Name":"富山県五福公園","Jusho":"富山県富山市五福５区","洪水":"","がけ崩れ、土石流及び地滑り":"","高潮":"","地震":"◎","津波":"","大規模な火事":"◎","内水氾濫":"","火山現象":"","指定避難所との重複":"","備考":""}},
{"type":"Feature","geometry":{"type":"Point","coordinates":[137.2392835000,36.7428941800]},"properties":{"Name":"富山県岩瀬スポーツ公園","Jusho":"富山県富山市森五丁目","洪水":"","がけ崩れ、土石流及び地滑り":"","高潮":"","地震":"◎","津波":"","大規模な火事":"◎","内水氾濫":"","火山現象":"","指定避難所との重複":"","備考":""}},
{"type":"Feature","geometry":{"type":"Point","coordinates":[137.2123261000,36.7085346500]},"properties":{"Name":"富山県富岩運河環水公園","Jusho":"富山県富山市湊入船町62-4","洪水":"","がけ崩れ、土石流及び地滑り":"","高潮":"","地震":"◎","津波":"","大規模な火事":"◎","内水氾濫":"","火山現象":"","指定避難所との重複":"","備考":""}},
{"type":"Feature","geometry":{"type":"Point","coordinates":[137.2172516000,36.5916913500]},"properties":{"Name":"大沢野総合運動公園","Jusho":"富山県富山市八木山650","洪水":"","がけ崩れ、土石流及び地滑り":"","高潮":"","地震":"◎","津波":"","大規模な火事":"◎","内水氾濫":"","火山現象":"","指定避難所との重複":"","備考":""}},
{"type":"Feature","geometry":{"type":"Point","coordinates":[137.2907101000,36.6100068100]},"properties":{"Name":"大山総合グラウンド","Jusho":"富山県富山市花崎391","洪水":"","がけ崩れ、土石流及び地滑り":"","高潮":"","地震":"◎","津波":"","大規模な火事":"◎","内水氾濫":"","火山現象":"","指定避難所との重複":"","備考":""}},
{"type":"Feature","geometry":{"type":"Point","coordinates":[137.1361611000,36.5812756200]},"properties":{"Name":"町民ひろば","Jusho":"富山県富山市八尾町福島字牧野123","洪水":"","がけ崩れ、土石流及び地滑り":"","高潮":"","地震":"◎","津波":"","大規模な火事":"◎","内水氾濫":"","火山現象":"","指定避難所との重複":"","備考":""}},
{"type":"Feature","geometry":{"type":"Point","coordinates":[137.1449330000,36.6014427500]},"properties":{"Name":"八尾スポーツアリーナ駐車場","Jusho":"富山県富山市八尾町井田101","洪水":"","がけ崩れ、土石流及び地滑り":"","高潮":"","地震":"◎","津波":"","大規模な火事":"◎","内水氾濫":"","火山現象":"","指定避難所との重複":"","備考":""}},
{"type":"Feature","geometry":{"type":"Point","coordinates":[137.1663537000,36.6551274000]},"properties":{"Name":"婦中スポーツプラザグラウンド","Jusho":"富山県富山市婦中町板倉269-1","洪水":"","がけ崩れ、土石流及び地滑り":"","高潮":"","地震":"◎","津波":"","大規模な火事":"◎","内水氾濫":"","火山現象":"","指定避難所との重複":"","備考":""}},
{"type":"Feature","geometry":{"type":"Point","coordinates":[137.1436172000,36.6604282900]},"properties":{"Name":"羽根ピースフル公園","Jusho":"富山県富山市婦中町羽根1000-1","洪水":"","がけ崩れ、土石流及び地滑り":"","高潮":"","地震":"◎","津波":"","大規模な火事":"◎","内水氾濫":"","火山現象":"","指定避難所との重複":"","備考":""}},
{"type":"Feature","geometry":{"type":"Point","coordinates":[137.1755946000,36.5969660100]},"properties":{"Name":"自然ふれあい学習館","Jusho":"富山県富山市八尾町城生91-3","洪水":"◎","がけ崩れ、土石流及び地滑り":"","高潮":"","地震":"","津波":"","大規模な火事":"","内水氾濫":"","火山現象":"","指定避難所との重複":"","備考":""}},
{"type":"Feature","geometry":{"type":"Point","coordinates":[137.1647623000,36.7169740700]},"properties":{"Name":"富山市舞台芸術パーク","Jusho":"富山県富山市呉羽町2247-3","洪水":"","がけ崩れ、土石流及び地滑り":"","高潮":"","地震":"◎","津波":"","大規模な火事":"◎","内水氾濫":"","火山現象":"","指定避難所との重複":"","備考":""}},
{"type":"Feature","geometry":{"type":"Point","coordinates":[137.1947280773,36.6959855162]},"properties":{"Name":"富山トヨペット㈱Ｇスクエア本店","Jusho":"富山市五福末広町1238","洪水":"◎","がけ崩れ、土石流及び地滑り":"","高潮":"","地震":"","津波":"","大規模な火事":"","内水氾濫":"","火山現象":"","指定避難所との重複":"","備考":""}},
{"type":"Feature","geometry":{"type":"Point","coordinates":[137.1853323430,36.6848399972]},"properties":{"Name":"西能病院","Jusho":"富山市高田70","洪水":"◎","がけ崩れ、土石流及び地滑り":"","高潮":"","地震":"","津波":"","大規模な火事":"","内水氾濫":"","火山現象":"","指定避難所との重複":"","備考":""}},
{"type":"Feature","geometry":{"type":"Point","coordinates":[137.0153434000,36.7506443500]},"properties":{"Name":"高岡市立平米小学校","Jusho":"富山県高岡市本町12-1","洪水":"◎","がけ崩れ、土石流及び地滑り":"","高潮":"","地震":"◎","津波":"","大規模な火事":"","内水氾濫":"","火山現象":"","指定避難所との重複":"◎","備考":""}},
{"type":"Feature","geometry":{"type":"Point","coordinates":[137.0160287000,36.7511339200]},"properties":{"Name":"高岡市立平米公民館","Jusho":"富山県高岡市本町6-15","洪水":"◎","がけ崩れ、土石流及び地滑り":"","高潮":"","地震":"◎","津波":"","大規模な火事":"","内水氾濫":"","火山現象":"","指定避難所との重複":"◎","備考":""}},
{"type":"Feature","geometry":{"type":"Point","coordinates":[137.0185566000,36.7518410000]},"properties":{"Name":"高岡市立中央保育園","Jusho":"富山県高岡市丸の内2-25","洪水":"◎","がけ崩れ、土石流及び地滑り":"","高潮":"","地震":"◎","津波":"","大規模な火事":"","内水氾濫":"","火山現象":"","指定避難所との重複":"◎","備考":""}},
{"type":"Feature","geometry":{"type":"Point","coordinates":[137.0228466000,36.7436707600]},"properties":{"Name":"高岡市立定塚小学校","Jusho":"富山県高岡市中川町5-1","洪水":"◎","がけ崩れ、土石流及び地滑り":"","高潮":"","地震":"◎","津波":"","大規模な火事":"","内水氾濫":"","火山現象":"","指定避難所との重複":"◎","備考":""}},
{"type":"Feature","geometry":{"type":"Point","coordinates":[137.0240268000,36.7427766400]},"properties":{"Name":"高岡市立高陵中学校","Jusho":"富山県高岡市高陵町4-1","洪水":"◎","がけ崩れ、土石流及び地滑り":"","高潮":"","地震":"◎","津波":"","大規模な火事":"","内水氾濫":"","火山現象":"","指定避難所との重複":"◎","備考":""}},
{"type":"Feature","geometry":{"type":"Point","coordinates":[137.0290711000,36.7514689300]},"properties":{"Name":"富山県立高岡高等学校","Jusho":"富山県高岡市中川園町1-1","洪水":"◎","がけ崩れ、土石流及び地滑り":"","高潮":"","地震":"◎","津波":"","大規模な火事":"","内水氾濫":"","火山現象":"","指定避難所との重複":"◎","備考":""}},
{"type":"Feature","geometry":{"type":"Point","coordinates":[137.0257907000,36.7509552900]},"properties":{"Name":"富山県立高岡工芸高等学校","Jusho":"富山県高岡市中川1-1-20","洪水":"◎","がけ崩れ、土石流及び地滑り":"","高潮":"","地震":"◎","津波":"","大規模な火事":"","内水氾濫":"","火山現象":"","指定避難所との重複":"◎","備考":""}},
{"type":"Feature","geometry":{"type":"Point","coordinates":[137.0240026000,36.7493017400]},"properties":{"Name":"高岡市立高岡市民体育館","Jusho":"富山県高岡市古城1-8","洪水":"◎","がけ崩れ、土石流及び地滑り":"","高潮":"","地震":"","津波":"","大規模な火事":"","内水氾濫":"","火山現象":"","指定避難所との重複":"◎","備考":""}},
{"type":"Feature","geometry":{"type":"Point","coordinates":[137.0261423000,36.7465450100]},"properties":{"Name":"高岡市立定塚公民館","Jusho":"富山県高岡市中川本町12-6","洪水":"◎","がけ崩れ、土石流及び地滑り":"","高潮":"","地震":"◎","津波":"","大規模な火事":"","内水氾濫":"","火山現象":"","指定避難所との重複":"◎","備考":""}},
{"type":"Feature","geometry":{"type":"Point","coordinates":[137.0337175000,36.7534071700]},"properties":{"Name":"高岡龍谷高等学校","Jusho":"富山県高岡市古定塚4-1","洪水":"◎","がけ崩れ、土石流及び地滑り":"","高潮":"","地震":"◎","津波":"","大規模な火事":"","内水氾濫":"","火山現象":"","指定避難所との重複":"◎","備考":""}},
{"type":"Feature","geometry":{"type":"Point","coordinates":[137.0144123000,36.7428201300]},"properties":{"Name":"富山県立志貴野高等学校","Jusho":"富山県高岡市末広町1-7","洪水":"◎","がけ崩れ、土石流及び地滑り":"","高潮":"","地震":"◎","津波":"","大規模な火事":"","内水氾濫":"","火山現象":"","指定避難所との重複":"◎","備考":""}},
{"type":"Feature","geometry":{"type":"Point","coordinates":[137.0287295000,36.7500949700]},"properties":{"Name":"富山県高岡文化ホール","Jusho":"富山県高岡市中川園町１3-1","洪水":"◎","がけ崩れ、土石流及び地滑り":"","高潮":"","地震":"◎","津波":"","大規模な火事":"","内水氾濫":"","火山現象":"","指定避難所との重複":"◎","備考":""}},
{"type":"Feature","geometry":{"type":"Point","coordinates":[137.0206891000,36.7493107400]},"properties":{"Name":"高岡古城公園","Jusho":"富山県高岡市古城","洪水":"","がけ崩れ、土石流及び地滑り":"","高潮":"","地震":"◎","津波":"","大規模な火事":"◎","内水氾濫":"","火山現象":"","指定避難所との重複":"","備考":""}},
{"type":"Feature","geometry":{"type":"Point","coordinates":[137.0189530000,36.7361465200]},"properties":{"Name":"高岡市立下関小学校","Jusho":"富山県高岡市東上関8","洪水":"◎","がけ崩れ、土石流及び地滑り":"","高潮":"","地震":"◎","津波":"","大規模な火事":"","内水氾濫":"","火山現象":"","指定避難所との重複":"◎","備考":""}},
{"type":"Feature","geometry":{"type":"Point","coordinates":[137.0205373000,36.7373455400]},"properties":{"Name":"高岡市立芳野中学校","Jusho":"富山県高岡市駅南2-5-1","洪水":"◎","がけ崩れ、土石流及び地滑り":"","高潮":"","地震":"◎","津波":"","大規模な火事":"","内水氾濫":"","火山現象":"","指定避難所との重複":"◎","備考":""}},
{"type":"Feature","geometry":{"type":"Point","coordinates":[137.0168967000,36.7382575300]},"properties":{"Name":"高岡市立下関公民館","Jusho":"富山県高岡市駅南3-1-30","洪水":"◎","がけ崩れ、土石流及び地滑り":"","高潮":"","地震":"◎","津波":"","大規模な火事":"","内水氾濫":"","火山現象":"","指定避難所との重複":"◎","備考":""}},
{"type":"Feature","geometry":{"type":"Point","coordinates":[137.0225350000,36.7383212300]},"properties":{"Name":"県営高岡武道館","Jusho":"富山県高岡市関72","洪水":"◎","がけ崩れ、土石流及び地滑り":"","高潮":"","地震":"◎","津波":"","大規模な火事":"","内水氾濫":"","火山現象":"","指定避難所との重複":"◎","備考":""}},
{"type":"Feature","geometry":{"type":"Point","coordinates":[137.0234738000,36.7377322800]},"properties":{"Name":"前田公園","Jusho":"富山県高岡市大野","洪水":"","がけ崩れ、土石流及び地滑り":"","高潮":"","地震":"◎","津波":"","大規模な火事":"◎","内水氾濫":"","火山現象":"","指定避難所との重複":"","備考":""}},
{"type":"Feature","geometry":{"type":"Point","coordinates":[137.0189058000,36.7315676300]},"properties":{"Name":"駅南緑の丘公園","Jusho":"富山県高岡市赤祖父４６６","洪水":"","がけ崩れ、土石流及び地滑り":"","高潮":"","地震":"◎","津波":"","大規模な火事":"◎","内水氾濫":"","火山現象":"","指定避難所との重複":"","備考":""}},
{"type":"Feature","geometry":{"type":"Point","coordinates":[137.0033451000,36.7430414900]},"properties":{"Name":"高岡市立博労小学校","Jusho":"富山県高岡市博労本町5-1","洪水":"◎","がけ崩れ、土石流及び地滑り":"","高潮":"","地震":"◎","津波":"","大規模な火事":"","内水氾濫":"","火山現象":"","指定避難所との重複":"◎","備考":""}},
{"type":"Feature","geometry":{"type":"Point","coordinates":[137.0014745000,36.7435757000]},"properties":{"Name":"高岡市ふれあい福祉センター","Jusho":"富山県高岡市博労本町4-1","洪水":"","がけ崩れ、土石流及び地滑り":"","高潮":"","地震":"◎","津波":"","大規模な火事":"","内水氾濫":"","火山現象":"","指定避難所との重複":"◎","備考":""}},
{"type":"Feature","geometry":{"type":"Point","coordinates":[137.0029337000,36.7409277100]},"properties":{"Name":"高岡市社会福祉協議会館","Jusho":"富山県高岡市清水町1-7-30","洪水":"◎","がけ崩れ、土石流及び地滑り":"","高潮":"","地震":"◎","津波":"","大規模な火事":"","内水氾濫":"","火山現象":"","指定避難所との重複":"◎","備考":""}},
{"type":"Feature","geometry":{"type":"Point","coordinates":[136.9961648000,36.7399372800]},"properties":{"Name":"高岡市立木津小学校","Jusho":"富山県高岡市木津312-1","洪水":"◎","がけ崩れ、土石流及び地滑り":"","高潮":"","地震":"◎","津波":"","大規模な火事":"","内水氾濫":"","火山現象":"","指定避難所との重複":"◎","備考":""}},
{"type":"Feature","geometry":{"type":"Point","coordinates":[136.9998903000,36.7363003200]},"properties":{"Name":"高岡市立南星中学校","Jusho":"富山県高岡市木津1395","洪水":"◎","がけ崩れ、土石流及び地滑り":"","高潮":"","地震":"◎","津波":"","大規模な火事":"","内水氾濫":"","火山現象":"","指定避難所との重複":"◎","備考":""}},
{"type":"Feature","geometry":{"type":"Point","coordinates":[136.9975622000,36.7383294300]},"properties":{"Name":"高岡市立木津公民館","Jusho":"富山県高岡市木津613-1","洪水":"","がけ崩れ、土石流及び地滑り":"","高潮":"","地震":"◎","津波":"","大規模な火事":"","内水氾濫":"","火山現象":"","指定避難所との重複":"◎","備考":""}},
{"type":"Feature","geometry":{"type":"Point","coordinates":[136.9935596000,36.7474674800]},"properties":{"Name":"高岡市立横田小学校","Jusho":"富山県高岡市宮田町9-1","洪水":"◎","がけ崩れ、土石流及び地滑り":"","高潮":"","地震":"◎","津波":"","大規模な火事":"","内水氾濫":"","火山現象":"","指定避難所との重複":"◎","備考":""}},
{"type":"Feature","geometry":{"type":"Point","coordinates":[136.9964188000,36.7484604000]},"properties":{"Name":"高岡市立横田公民館","Jusho":"富山県高岡市千石町1-16","洪水":"◎","がけ崩れ、土石流及び地滑り":"","高潮":"","地震":"◎","津波":"","大規模な火事":"","内水氾濫":"","火山現象":"","指定避難所との重複":"◎","備考":""}},
{"type":"Feature","geometry":{"type":"Point","coordinates":[136.9882353000,36.7515753400]},"properties":{"Name":"高岡市立竹平記念体育館","Jusho":"富山県高岡市早川222-1","洪水":"◎","がけ崩れ、土石流及び地滑り":"","高潮":"","地震":"◎","津波":"","大規模な火事":"","内水氾濫":"","火山現象":"","指定避難所との重複":"◎","備考":""}},
{"type":"Feature","geometry":{"type":"Point","coordinates":[137.0008685000,36.7510552600]},"properties":{"Name":"高岡市立西条小学校","Jusho":"富山県高岡市横田本町1-1","洪水":"◎","がけ崩れ、土石流及び地滑り":"","高潮":"","地震":"◎","津波":"","大規模な火事":"","内水氾濫":"","火山現象":"","指定避難所との重複":"◎","備考":""}},
{"type":"Feature","geometry":{"type":"Point","coordinates":[136.9948552000,36.7543017900]},"properties":{"Name":"高岡市立高岡西部中学校","Jusho":"富山県高岡市美幸町2-4-1","洪水":"◎","がけ崩れ、土石流及び地滑り":"","高潮":"","地震":"◎","津波":"","大規模な火事":"","内水氾濫":"","火山現象":"","指定避難所との重複":"◎","備考":""}},
{"type":"Feature","geometry":{"type":"Point","coordinates":[137.0020647000,36.7509864900]},"properties":{"Name":"富山県立高岡西高等学校","Jusho":"富山県高岡市横田町3-4-1","洪水":"◎","がけ崩れ、土石流及び地滑り":"","高潮":"","地震":"◎","津波":"","大規模な火事":"","内水氾濫":"","火山現象":"","指定避難所との重複":"◎","備考":""}},
{"type":"Feature","geometry":{"type":"Point","coordinates":[136.9932007000,36.7579720800]},"properties":{"Name":"富山県立高岡商業高等学校","Jusho":"富山県高岡市横田286","洪水":"◎","がけ崩れ、土石流及び地滑り":"","高潮":"","地震":"◎","津波":"","大規模な火事":"","内水氾濫":"","火山現象":"","指定避難所との重複":"◎","備考":""}},
{"type":"Feature","geometry":{"type":"Point","coordinates":[136.9945096000,36.7552859000]},"properties":{"Name":"高岡市立西条公民館","Jusho":"富山県高岡市美幸町2-6-22","洪水":"","がけ崩れ、土石流及び地滑り":"","高潮":"","地震":"◎","津波":"","大規模な火事":"","内水氾濫":"","火山現象":"","指定避難所との重複":"◎","備考":""}},
{"type":"Feature","geometry":{"type":"Point","coordinates":[136.9993191000,36.7508195000]},"properties":{"Name":"高岡市立西部保育園","Jusho":"富山県高岡市横田本町4-5","洪水":"◎","がけ崩れ、土石流及び地滑り":"","高潮":"","地震":"◎","津波":"","大規模な火事":"","内水氾濫":"","火山現象":"","指定避難所との重複":"◎","備考":""}},
{"type":"Feature","geometry":{"type":"Point","coordinates":[136.9992700000,36.7567579200]},"properties":{"Name":"高岡第一学園附属第一幼稚園","Jusho":"富山県高岡市本郷2-1-35","洪水":"◎","がけ崩れ、土石流及び地滑り":"","高潮":"","地震":"","津波":"","大規模な火事":"","内水氾濫":"","火山現象":"","指定避難所との重複":"◎","備考":""}},
{"type":"Feature","geometry":{"type":"Point","coordinates":[136.9997313000,36.7579312400]},"properties":{"Name":"高岡第一学園高岡第一高等学校","Jusho":"富山県高岡市本郷2-1-1","洪水":"◎","がけ崩れ、土石流及び地滑り":"","高潮":"","地震":"◎","津波":"","大規模な火事":"","内水氾濫":"","火山現象":"","指定避難所との重複":"◎","備考":""}},
{"type":"Feature","geometry":{"type":"Point","coordinates":[136.9988798000,36.7556125600]},"properties":{"Name":"富山トヨペット株式会社Ｇスクエア高岡中央店","Jusho":"富山県高岡市美幸町1-1-72","洪水":"◎","がけ崩れ、土石流及び地滑り":"","高潮":"","地震":"◎","津波":"","大規模な火事":"","内水氾濫":"","火山現象":"","指定避難所との重複":"◎","備考":""}},
{"type":"Feature","geometry":{"type":"Point","coordinates":[137.0099232000,36.7506629200]},"properties":{"Name":"高岡市立川原小学校","Jusho":"富山県高岡市川原町13-10","洪水":"◎","がけ崩れ、土石流及び地滑り":"","高潮":"","地震":"◎","津波":"","大規模な火事":"","内水氾濫":"","火山現象":"","指定避難所との重複":"◎","備考":""}},
{"type":"Feature","geometry":{"type":"Point","coordinates":[137.0110122000,36.7508692300]},"properties":{"Name":"高岡市立川原公民館","Jusho":"富山県高岡市大町11-4","洪水":"◎","がけ崩れ、土石流及び地滑り":"","高潮":"","地震":"◎","津波":"","大規模な火事":"","内水氾濫":"","火山現象":"","指定避難所との重複":"◎","備考":""}},
{"type":"Feature","geometry":{"type":"Point","coordinates":[137.0154173000,36.7547737400]},"properties":{"Name":"高岡市立成美小学校","Jusho":"富山県高岡市京町1-1","洪水":"◎","がけ崩れ、土石流及び地滑り":"","高潮":"","地震":"◎","津波":"","大規模な火事":"","内水氾濫":"","火山現象":"","指定避難所との重複":"◎","備考":""}},
{"type":"Feature","geometry":{"type":"Point","coordinates":[137.0243467000,36.7549557400]},"properties":{"Name":"高岡市立志貴野中学校","Jusho":"富山県高岡市広小路7-1","洪水":"◎","がけ崩れ、土石流及び地滑り":"","高潮":"","地震":"◎","津波":"","大規模な火事":"","内水氾濫":"","火山現象":"","指定避難所との重複":"◎","備考":""}},
{"type":"Feature","geometry":{"type":"Point","coordinates":[137.0298545000,36.7565387100]},"properties":{"Name":"高岡市立こまどり支援学校","Jusho":"富山県高岡市江尻1289","洪水":"","がけ崩れ、土石流及び地滑り":"","高潮":"","地震":"◎","津波":"","大規模な火事":"","内水氾濫":"","火山現象":"","指定避難所との重複":"◎","備考":""}},
{"type":"Feature","geometry":{"type":"Point","coordinates":[137.0296369000,36.7559556200]},"properties":{"Name":"高岡市青年の家","Jusho":"富山県高岡市江尻1321-1","洪水":"◎","がけ崩れ、土石流及び地滑り":"","高潮":"","地震":"◎","津波":"","大規模な火事":"","内水氾濫":"","火山現象":"","指定避難所との重複":"◎","備考":""}},
{"type":"Feature","geometry":{"type":"Point","coordinates":[137.0190353000,36.7597186900]},"properties":{"Name":"高岡市立成美公民館","Jusho":"富山県高岡市大坪町3-7-56","洪水":"◎","がけ崩れ、土石流及び地滑り":"","高潮":"","地震":"◎","津波":"","大規模な火事":"","内水氾濫":"","火山現象":"","指定避難所との重複":"◎","備考":""}},
{"type":"Feature","geometry":{"type":"Point","coordinates":[137.0071114000,36.7756664700]},"properties":{"Name":"高岡市立万葉小学校","Jusho":"富山県高岡市二上町1100","洪水":"◎","がけ崩れ、土石流及び地滑り":"◎","高潮":"","地震":"◎","津波":"","大規模な火事":"","内水氾濫":"","火山現象":"","指定避難所との重複":"◎","備考":""}},