var wakayama={"type":"FeatureCollection","name":"wakayama","features":[
{"type":"Feature","geometry":{"type":"Point","coordinates":[135.1710306000,34.2348909000]},"properties":{"Name":"伏虎義務教育学校（津波時は3階以上）","Jusho":"和歌山県和歌山市鷺ノ森南ノ丁１","洪水":"◎","がけ崩れ、土石流及び地滑り":"◎","高潮":"","地震":"◎","津波":"◎","大規模な火事":"◎","内水氾濫":"◎","火山現象":"","指定避難所との重複":"◎","備考":""}},
{"type":"Feature","geometry":{"type":"Point","coordinates":[135.1711890000,34.2263760000]},"properties":{"Name":"和歌山公園（和歌山城）","Jusho":"和歌山県和歌山市一番丁３","洪水":"","がけ崩れ、土石流及び地滑り":"","高潮":"","地震":"◎","津波":"◎","大規模な火事":"◎","内水氾濫":"","火山現象":"","指定避難所との重複":"","備考":""}},
{"type":"Feature","geometry":{"type":"Point","coordinates":[135.1682661000,34.2301410000]},"properties":{"Name":"汀公園","Jusho":"和歌山県和歌山市西汀丁２７","洪水":"","がけ崩れ、土石流及び地滑り":"","高潮":"","地震":"◎","津波":"◎","大規模な火事":"◎","内水氾濫":"","火山現象":"","指定避難所との重複":"","備考":""}},
{"type":"Feature","geometry":{"type":"Point","coordinates":[135.1793582000,34.2255825000]},"properties":{"Name":"広瀬小学校","Jusho":"和歌山県和歌山市広瀬中ノ丁１-５","洪水":"◎","がけ崩れ、土石流及び地滑り":"◎","高潮":"","地震":"◎","津波":"◎","大規模な火事":"◎","内水氾濫":"◎","火山現象":"","指定避難所との重複":"◎","備考":""}},
{"type":"Feature","geometry":{"type":"Point","coordinates":[135.1800062000,34.2252208000]},"properties":{"Name":"岡東公園","Jusho":"和歌山県和歌山広瀬中ノ丁１-１６","洪水":"","がけ崩れ、土石流及び地滑り":"","高潮":"","地震":"◎","津波":"◎","大規模な火事":"◎","内水氾濫":"","火山現象":"","指定避難所との重複":"","備考":""}},
{"type":"Feature","geometry":{"type":"Point","coordinates":[135.1756176000,34.2258496000]},"properties":{"Name":"岡公園","Jusho":"和歌山県和歌山市岡山丁３","洪水":"","がけ崩れ、土石流及び地滑り":"","高潮":"","地震":"◎","津波":"◎","大規模な火事":"◎","内水氾濫":"","火山現象":"","指定避難所との重複":"","備考":"津波時は公園内高台"}},
{"type":"Feature","geometry":{"type":"Point","coordinates":[135.1808486000,34.2229554000]},"properties":{"Name":"南片原公園","Jusho":"和歌山県和歌山市雄松町１-１２","洪水":"","がけ崩れ、土石流及び地滑り":"","高潮":"","地震":"◎","津波":"◎","大規模な火事":"◎","内水氾濫":"","火山現象":"","指定避難所との重複":"","備考":""}},
{"type":"Feature","geometry":{"type":"Point","coordinates":[135.1666962000,34.2279898000]},"properties":{"Name":"雄湊グラウンド","Jusho":"和歌山県和歌山市東坂ノ上丁３","洪水":"","がけ崩れ、土石流及び地滑り":"","高潮":"","地震":"◎","津波":"◎","大規模な火事":"◎","内水氾濫":"","火山現象":"","指定避難所との重複":"","備考":""}},
{"type":"Feature","geometry":{"type":"Point","coordinates":[135.1644322000,34.2344011000]},"properties":{"Name":"市民会館（津波時は3階以上）","Jusho":"和歌山県和歌山市伝法橋南ノ丁７","洪水":"◎","がけ崩れ、土石流及び地滑り":"◎","高潮":"","地震":"◎","津波":"◎","大規模な火事":"◎","内水氾濫":"◎","火山現象":"","指定避難所との重複":"◎","備考":"津波時は3階以上"}},
{"type":"Feature","geometry":{"type":"Point","coordinates":[135.1676961000,34.2305989000]},"properties":{"Name":"あいあいセンター","Jusho":"和歌山県和歌山市小人町２９","洪水":"◎","がけ崩れ、土石流及び地滑り":"◎","高潮":"","地震":"◎","津波":"◎","大規模な火事":"◎","内水氾濫":"◎","火山現象":"","指定避難所との重複":"◎","備考":""}},
{"type":"Feature","geometry":{"type":"Point","coordinates":[135.1662944000,34.2271223000]},"properties":{"Name":"雄湊公園","Jusho":"和歌山県和歌山市有田屋町５","洪水":"","がけ崩れ、土石流及び地滑り":"","高潮":"","地震":"◎","津波":"◎","大規模な火事":"◎","内水氾濫":"","火山現象":"","指定避難所との重複":"","備考":""}},
{"type":"Feature","geometry":{"type":"Point","coordinates":[135.1613268000,34.2266182000]},"properties":{"Name":"牛町公園","Jusho":"和歌山県和歌山市南牛町４８","洪水":"","がけ崩れ、土石流及び地滑り":"","高潮":"","地震":"◎","津波":"","大規模な火事":"◎","内水氾濫":"","火山現象":"","指定避難所との重複":"","備考":""}},
{"type":"Feature","geometry":{"type":"Point","coordinates":[135.1629055000,34.2312057000]},"properties":{"Name":"河岸公園","Jusho":"和歌山県和歌山市久保丁４-７０","洪水":"","がけ崩れ、土石流及び地滑り":"","高潮":"","地震":"◎","津波":"◎","大規模な火事":"◎","内水氾濫":"","火山現象":"","指定避難所との重複":"","備考":""}},
{"type":"Feature","geometry":{"type":"Point","coordinates":[135.1656994000,34.2342337000]},"properties":{"Name":"湊北公園","Jusho":"和歌山県和歌山市伝法橋南ノ丁１８","洪水":"","がけ崩れ、土石流及び地滑り":"","高潮":"","地震":"◎","津波":"◎","大規模な火事":"◎","内水氾濫":"","火山現象":"","指定避難所との重複":"","備考":""}},
{"type":"Feature","geometry":{"type":"Point","coordinates":[135.1608441000,34.2237537000]},"properties":{"Name":"土佐町公園","Jusho":"和歌山県和歌山市土佐町１-４３","洪水":"","がけ崩れ、土石流及び地滑り":"","高潮":"","地震":"◎","津波":"","大規模な火事":"◎","内水氾濫":"","火山現象":"","指定避難所との重複":"","備考":""}},
{"type":"Feature","geometry":{"type":"Point","coordinates":[135.1649140000,34.2293610000]},"properties":{"Name":"県営住宅雄湊団地（３階以上共用部分）","Jusho":"和歌山県和歌山市男野芝丁３","洪水":"","がけ崩れ、土石流及び地滑り":"","高潮":"","地震":"","津波":"◎","大規模な火事":"","内水氾濫":"","火山現象":"","指定避難所との重複":"","備考":""}},
{"type":"Feature","geometry":{"type":"Point","coordinates":[135.1679530000,34.2248040000]},"properties":{"Name":"和歌山県民文化会館(大ホール入口前広場)","Jusho":"和歌山県和歌山市小松原通１-１","洪水":"","がけ崩れ、土石流及び地滑り":"","高潮":"","地震":"","津波":"◎","大規模な火事":"","内水氾濫":"","火山現象":"","指定避難所との重複":"","備考":""}},
{"type":"Feature","geometry":{"type":"Point","coordinates":[135.1814638000,34.2330390000]},"properties":{"Name":"大新小学校","Jusho":"和歌山県和歌山市新大工町２３","洪水":"◎","がけ崩れ、土石流及び地滑り":"◎","高潮":"","地震":"◎","津波":"◎","大規模な火事":"◎","内水氾濫":"◎","火山現象":"","指定避難所との重複":"◎","備考":""}},
{"type":"Feature","geometry":{"type":"Point","coordinates":[135.1821424000,34.2324393000]},"properties":{"Name":"大新公園","Jusho":"和歌山県和歌山市坊主丁１２","洪水":"","がけ崩れ、土石流及び地滑り":"","高潮":"","地震":"◎","津波":"◎","大規模な火事":"◎","内水氾濫":"","火山現象":"","指定避難所との重複":"","備考":""}},
{"type":"Feature","geometry":{"type":"Point","coordinates":[135.1890831000,34.2269248000]},"properties":{"Name":"新南小学校（津波時は3階以上）","Jusho":"和歌山県和歌山市木広町４-２３","洪水":"◎","がけ崩れ、土石流及び地滑り":"◎","高潮":"","地震":"◎","津波":"◎","大規模な火事":"◎","内水氾濫":"◎","火山現象":"","指定避難所との重複":"◎","備考":"津波時は3階以上"}},
{"type":"Feature","geometry":{"type":"Point","coordinates":[135.1857455000,34.2300877000]},"properties":{"Name":"城東中学校","Jusho":"和歌山県和歌山市美園町２-６３","洪水":"◎","がけ崩れ、土石流及び地滑り":"◎","高潮":"","地震":"◎","津波":"◎","大規模な火事":"◎","内水氾濫":"◎","火山現象":"","指定避難所との重複":"◎","備考":""}},
{"type":"Feature","geometry":{"type":"Point","coordinates":[135.1902782000,34.2269681000]},"properties":{"Name":"ふれ愛センター（津波時は3階以上）","Jusho":"和歌山県和歌山市木広町５-１-９","洪水":"◎","がけ崩れ、土石流及び地滑り":"◎","高潮":"","地震":"◎","津波":"◎","大規模な火事":"◎","内水氾濫":"◎","火山現象":"","指定避難所との重複":"◎","備考":"津波時は3階以上"}},
{"type":"Feature","geometry":{"type":"Point","coordinates":[135.1880923000,34.2268583000]},"properties":{"Name":"新南公園","Jusho":"和歌山県和歌山市木広町３-１１","洪水":"","がけ崩れ、土石流及び地滑り":"","高潮":"","地震":"◎","津波":"◎","大規模な火事":"◎","内水氾濫":"","火山現象":"","指定避難所との重複":"","備考":""}},
{"type":"Feature","geometry":{"type":"Point","coordinates":[135.1866560000,34.2301798000]},"properties":{"Name":"美園公園","Jusho":"和歌山県和歌山市美園町２-９５","洪水":"","がけ崩れ、土石流及び地滑り":"","高潮":"","地震":"◎","津波":"◎","大規模な火事":"◎","内水氾濫":"","火山現象":"","指定避難所との重複":"","備考":""}},
{"type":"Feature","geometry":{"type":"Point","coordinates":[135.1874690000,34.2216150000]},"properties":{"Name":"イズミヤ和歌山店（３階以上の駐車場）","Jusho":"和歌山県和歌山市新生町７-２０","洪水":"","がけ崩れ、土石流及び地滑り":"","高潮":"","地震":"","津波":"◎","大規模な火事":"","内水氾濫":"","火山現象":"","指定避難所との重複":"","備考":""}},
{"type":"Feature","geometry":{"type":"Point","coordinates":[135.1703370000,34.2163350000]},"properties":{"Name":"吹上小学校","Jusho":"和歌山県和歌山市吹上４-１-１５","洪水":"◎","がけ崩れ、土石流及び地滑り":"◎","高潮":"","地震":"◎","津波":"◎","大規模な火事":"◎","内水氾濫":"◎","火山現象":"","指定避難所との重複":"◎","備考":""}},
{"type":"Feature","geometry":{"type":"Point","coordinates":[135.1742040000,34.2181590000]},"properties":{"Name":"桐蔭中学校・高等学校","Jusho":"和歌山県和歌山市吹上５-６-１８","洪水":"◎","がけ崩れ、土石流及び地滑り":"◎","高潮":"","地震":"◎","津波":"◎","大規模な火事":"◎","内水氾濫":"◎","火山現象":"","指定避難所との重複":"◎","備考":""}},
{"type":"Feature","geometry":{"type":"Point","coordinates":[135.1749244000,34.2174971000]},"properties":{"Name":"きのくに青雲高等学校","Jusho":"和歌山県和歌山市吹上５-６-１８","洪水":"◎","がけ崩れ、土石流及び地滑り":"◎","高潮":"","地震":"◎","津波":"◎","大規模な火事":"◎","内水氾濫":"◎","火山現象":"","指定避難所との重複":"◎","備考":""}},
{"type":"Feature","geometry":{"type":"Point","coordinates":[135.1755691000,34.2165093000]},"properties":{"Name":"吹上公園","Jusho":"和歌山県和歌山市堀止東２-１０","洪水":"","がけ崩れ、土石流及び地滑り":"","高潮":"","地震":"◎","津波":"◎","大規模な火事":"◎","内水氾濫":"","火山現象":"","指定避難所との重複":"","備考":""}},
{"type":"Feature","geometry":{"type":"Point","coordinates":[135.1732121000,34.2149416000]},"properties":{"Name":"堀止公園","Jusho":"和歌山県和歌山市堀止東１-４-２３","洪水":"","がけ崩れ、土石流及び地滑り":"","高潮":"","地震":"◎","津波":"◎","大規模な火事":"◎","内水氾濫":"","火山現象":"","指定避難所との重複":"","備考":""}},
{"type":"Feature","geometry":{"type":"Point","coordinates":[135.1719360000,34.2235260000]},"properties":{"Name":"和歌山大学附属小・中学校(体育館、グラウンド)","Jusho":"和歌山県和歌山市吹上１-４-１","洪水":"","がけ崩れ、土石流及び地滑り":"","高潮":"","地震":"","津波":"◎","大規模な火事":"","内水氾濫":"","火山現象":"","指定避難所との重複":"","備考":""}},
{"type":"Feature","geometry":{"type":"Point","coordinates":[135.1626731000,34.2183027000]},"properties":{"Name":"砂山小学校（津波時は3階以上）","Jusho":"和歌山県和歌山市砂山南２-１-５２","洪水":"◎","がけ崩れ、土石流及び地滑り":"◎","高潮":"","地震":"◎","津波":"◎","大規模な火事":"◎","内水氾濫":"◎","火山現象":"","指定避難所との重複":"◎","備考":"津波時は3階以上"}},
{"type":"Feature","geometry":{"type":"Point","coordinates":[135.1640062000,34.2151996000]},"properties":{"Name":"西和中学校","Jusho":"和歌山県和歌山市砂山南３-３-９","洪水":"◎","がけ崩れ、土石流及び地滑り":"◎","高潮":"","地震":"◎","津波":"◎","大規模な火事":"◎","内水氾濫":"◎","火山現象":"","指定避難所との重複":"◎","備考":""}},
{"type":"Feature","geometry":{"type":"Point","coordinates":[135.1616881000,34.2157624000]},"properties":{"Name":"県立和歌山商業高等学校（津波時は3階以上）","Jusho":"和歌山県和歌山市砂山南３-３-９４","洪水":"◎","がけ崩れ、土石流及び地滑り":"◎","高潮":"","地震":"◎","津波":"◎","大規模な火事":"◎","内水氾濫":"◎","火山現象":"","指定避難所との重複":"◎","備考":"津波時は3階以上"}},
{"type":"Feature","geometry":{"type":"Point","coordinates":[135.1630611000,34.2217803000]},"properties":{"Name":"砂山公園","Jusho":"和歌山県和歌山市出口中ノ丁７","洪水":"","がけ崩れ、土石流及び地滑り":"","高潮":"","地震":"◎","津波":"◎","大規模な火事":"◎","内水氾濫":"","火山現象":"","指定避難所との重複":"","備考":""}},
{"type":"Feature","geometry":{"type":"Point","coordinates":[135.1670955000,34.2211420000]},"properties":{"Name":"長町公園","Jusho":"和歌山県和歌山市東長町９-８","洪水":"","がけ崩れ、土石流及び地滑り":"","高潮":"","地震":"◎","津波":"◎","大規模な火事":"◎","内水氾濫":"","火山現象":"","指定避難所との重複":"","備考":""}},
{"type":"Feature","geometry":{"type":"Point","coordinates":[135.1535637000,34.2206585000]},"properties":{"Name":"港公園","Jusho":"和歌山県和歌山市築港４-１４","洪水":"","がけ崩れ、土石流及び地滑り":"","高潮":"","地震":"◎","津波":"","大規模な火事":"◎","内水氾濫":"","火山現象":"","指定避難所との重複":"","備考":""}},
{"type":"Feature","geometry":{"type":"Point","coordinates":[135.1585823000,34.2174802000]},"properties":{"Name":"湊御殿公園","Jusho":"和歌山県和歌山市湊御殿３-７","洪水":"","がけ崩れ、土石流及び地滑り":"","高潮":"","地震":"◎","津波":"","大規模な火事":"◎","内水氾濫":"","火山現象":"","指定避難所との重複":"","備考":""}},
{"type":"Feature","geometry":{"type":"Point","coordinates":[135.1615348000,34.2204303000]},"properties":{"Name":"端ノ丁公園","Jusho":"和歌山県和歌山市土佐町３-６","洪水":"","がけ崩れ、土石流及び地滑り":"","高潮":"","地震":"◎","津波":"","大規模な火事":"◎","内水氾濫":"","火山現象":"","指定避難所との重複":"","備考":""}},
{"type":"Feature","geometry":{"type":"Point","coordinates":[135.1585090000,34.2128850000]},"properties":{"Name":"オークワ大浦街道店（屋上駐車場）","Jusho":"和歌山県和歌山市湊西ノ坪４５-１","洪水":"","がけ崩れ、土石流及び地滑り":"","高潮":"","地震":"","津波":"◎","大規模な火事":"","内水氾濫":"","火山現象":"","指定避難所との重複":"","備考":""}},
{"type":"Feature","geometry":{"type":"Point","coordinates":[135.1491520000,34.2180210000]},"properties":{"Name":"市営湊薬種畑団地（２階以上の共用部分）","Jusho":"和歌山県和歌山市湊１４１４-８","洪水":"","がけ崩れ、土石流及び地滑り":"","高潮":"","地震":"","津波":"◎","大規模な火事":"","内水氾濫":"","火山現象":"","指定避難所との重複":"","備考":""}},
{"type":"Feature","geometry":{"type":"Point","coordinates":[135.1434100000,34.2224370000]},"properties":{"Name":"青岸エネルギーセンター（センター内）","Jusho":"和歌山県和歌山市湊１３４２-３","洪水":"","がけ崩れ、土石流及び地滑り":"","高潮":"","地震":"","津波":"◎","大規模な火事":"","内水氾濫":"","火山現象":"","指定避難所との重複":"","備考":""}},
{"type":"Feature","geometry":{"type":"Point","coordinates":[135.1409070000,34.2215590000]},"properties":{"Name":"青岸クリーンセンター（センター内）","Jusho":"和歌山県和歌山市湊１３４２-３９","洪水":"","がけ崩れ、土石流及び地滑り":"","高潮":"","地震":"","津波":"◎","大規模な火事":"","内水氾濫":"","火山現象":"","指定避難所との重複":"","備考":""}},
{"type":"Feature","geometry":{"type":"Point","coordinates":[135.1577400000,34.2177900000]},"properties":{"Name":"湊御殿第2団地（２階以上の共用部分）","Jusho":"和歌山県和歌山市湊御殿３-８-２","洪水":"","がけ崩れ、土石流及び地滑り":"","高潮":"","地震":"","津波":"◎","大規模な火事":"","内水氾濫":"","火山現象":"","指定避難所との重複":"","備考":""}},
{"type":"Feature","geometry":{"type":"Point","coordinates":[135.1669610000,34.2227150000]},"properties":{"Name":"市営東長町団地（５階以上の共用部分）","Jusho":"和歌山県和歌山市東長町７-３５","洪水":"","がけ崩れ、土石流及び地滑り":"","高潮":"","地震":"","津波":"◎","大規模な火事":"","内水氾濫":"","火山現象":"","指定避難所との重複":"","備考":""}},
{"type":"Feature","geometry":{"type":"Point","coordinates":[135.1582400000,34.2121130000]},"properties":{"Name":"湊パーソナルヴィラ（４階以上の共用部分）","Jusho":"和歌山県和歌山市湊１８","洪水":"","がけ崩れ、土石流及び地滑り":"","高潮":"","地震":"","津波":"◎","大規模な火事":"","内水氾濫":"","火山現象":"","指定避難所との重複":"","備考":""}},
{"type":"Feature","geometry":{"type":"Point","coordinates":[135.1607560000,34.2166900000]},"properties":{"Name":"近畿財務局和歌山合同宿舎１～３号棟（５階以上の共用部分）","Jusho":"和歌山県和歌山市砂山南３-１-６５","洪水":"","がけ崩れ、土石流及び地滑り":"","高潮":"","地震":"","津波":"◎","大規模な火事":"","内水氾濫":"","火山現象":"","指定避難所との重複":"","備考":""}},
{"type":"Feature","geometry":{"type":"Point","coordinates":[135.1636348000,34.2087299000]},"properties":{"Name":"今福小学校","Jusho":"和歌山県和歌山市今福３-７-４６","洪水":"◎","がけ崩れ、土石流及び地滑り":"◎","高潮":"","地震":"◎","津波":"◎","大規模な火事":"◎","内水氾濫":"◎","火山現象":"","指定避難所との重複":"◎","備考":""}},
{"type":"Feature","geometry":{"type":"Point","coordinates":[135.1665029000,34.2116615000]},"properties":{"Name":"今福公園","Jusho":"和歌山県和歌山市今福２-２１１-３","洪水":"","がけ崩れ、土石流及び地滑り":"","高潮":"","地震":"◎","津波":"◎","大規模な火事":"◎","内水氾濫":"","火山現象":"","指定避難所との重複":"","備考":""}},
{"type":"Feature","geometry":{"type":"Point","coordinates":[135.1650546000,34.2110987100]},"properties":{"Name":"県営今福第一団地（４階以上の共用部分）","Jusho":"和歌山県和歌山市今福２-３-４５","洪水":"","がけ崩れ、土石流及び地滑り":"","高潮":"","地震":"","津波":"◎","大規模な火事":"","内水氾濫":"","火山現象":"","指定避難所との重複":"","備考":""}},
{"type":"Feature","geometry":{"type":"Point","coordinates":[135.1639605000,34.2098033500]},"properties":{"Name":"県営今福第二団地１号棟（５階以上の共用部分）","Jusho":"和歌山県和歌山市今福３-６","洪水":"","がけ崩れ、土石流及び地滑り":"","高潮":"","地震":"","津波":"◎","大規模な火事":"","内水氾濫":"","火山現象":"","指定避難所との重複":"","備考":""}},
{"type":"Feature","geometry":{"type":"Point","coordinates":[135.1732151000,34.2083352000]},"properties":{"Name":"高松小学校（津波時は3階以上）","Jusho":"和歌山県和歌山市東高松２-４-４５","洪水":"◎","がけ崩れ、土石流及び地滑り":"◎","高潮":"","地震":"◎","津波":"◎","大規模な火事":"◎","内水氾濫":"◎","火山現象":"","指定避難所との重複":"◎","備考":"津波時は3階以上"}},
{"type":"Feature","geometry":{"type":"Point","coordinates":[135.1690119000,34.2074867000]},"properties":{"Name":"きのくに志学館(駐車場含む)","Jusho":"和歌山県和歌山市西高松１-７-３８","洪水":"◎","がけ崩れ、土石流及び地滑り":"◎","高潮":"","地震":"◎","津波":"◎","大規模な火事":"◎","内水氾濫":"◎","火山現象":"","指定避難所との重複":"◎","備考":""}},
{"type":"Feature","geometry":{"type":"Point","coordinates":[135.1768060000,34.2098213000]},"properties":{"Name":"宇須児童遊園","Jusho":"和歌山県和歌山市宇須３-１３６-１０","洪水":"","がけ崩れ、土石流及び地滑り":"","高潮":"","地震":"◎","津波":"◎","大規模な火事":"◎","内水氾濫":"","火山現象":"","指定避難所との重複":"","備考":""}},
{"type":"Feature","geometry":{"type":"Point","coordinates":[135.1767026000,34.2145633000]},"properties":{"Name":"新堀児童遊園","Jusho":"和歌山県和歌山市新堀東２-３１０-９６","洪水":"","がけ崩れ、土石流及び地滑り":"","高潮":"","地震":"◎","津波":"◎","大規模な火事":"◎","内水氾濫":"","火山現象":"","指定避難所との重複":"","備考":""}},
{"type":"Feature","geometry":{"type":"Point","coordinates":[135.1715170000,34.2064140000]},"properties":{"Name":"インペリアル高松（５階以上の共用部分）","Jusho":"和歌山県和歌山市東高松３-１-２８","洪水":"","がけ崩れ、土石流及び地滑り":"","高潮":"","地震":"","津波":"◎","大規模な火事":"","内水氾濫":"","火山現象":"","指定避難所との重複":"","備考":""}},
{"type":"Feature","geometry":{"type":"Point","coordinates":[135.2061372000,34.2252673000]},"properties":{"Name":"宮小学校","Jusho":"和歌山県和歌山市秋月４７５","洪水":"◎","がけ崩れ、土石流及び地滑り":"◎","高潮":"","地震":"◎","津波":"◎","大規模な火事":"◎","内水氾濫":"◎","火山現象":"","指定避難所との重複":"◎","備考":""}},
{"type":"Feature","geometry":{"type":"Point","coordinates":[135.1988301000,34.2341451000]},"properties":{"Name":"太田小学校","Jusho":"和歌山県和歌山市太田６３６","洪水":"◎","がけ崩れ、土石流及び地滑り":"◎","高潮":"","地震":"◎","津波":"◎","大規模な火事":"◎","内水氾濫":"◎","火山現象":"","指定避難所との重複":"◎","備考":""}},
{"type":"Feature","geometry":{"type":"Point","coordinates":[135.2034652000,34.2283011000]},"properties":{"Name":"日進中学校","Jusho":"和歌山県和歌山市秋月３６５-３","洪水":"◎","がけ崩れ、土石流及び地滑り":"◎","高潮":"","地震":"◎","津波":"◎","大規模な火事":"◎","内水氾濫":"◎","火山現象":"","指定避難所との重複":"◎","備考":""}},
{"type":"Feature","geometry":{"type":"Point","coordinates":[135.1997047000,34.2275597000]},"properties":{"Name":"向陽中学校・高等学校","Jusho":"和歌山県和歌山市太田１２７","洪水":"◎","がけ崩れ、土石流及び地滑り":"◎","高潮":"","地震":"◎","津波":"◎","大規模な火事":"◎","内水氾濫":"◎","火山現象":"","指定避難所との重複":"◎","備考":""}},
{"type":"Feature","geometry":{"type":"Point","coordinates":[135.1978376000,34.2194941000]},"properties":{"Name":"和歌山東公園(体育館含む)","Jusho":"和歌山県和歌山市北出島１３３","洪水":"◎","がけ崩れ、土石流及び地滑り":"◎","高潮":"","地震":"◎","津波":"◎","大規模な火事":"◎","内水氾濫":"◎","火山現象":"","指定避難所との重複":"◎","備考":""}},
{"type":"Feature","geometry":{"type":"Point","coordinates":[135.1980309000,34.2304347000]},"properties":{"Name":"太田第一公園","Jusho":"和歌山県和歌山市太田３-２","洪水":"","がけ崩れ、土石流及び地滑り":"","高潮":"","地震":"◎","津波":"◎","大規模な火事":"◎","内水氾濫":"","火山現象":"","指定避難所との重複":"","備考":""}},
{"type":"Feature","geometry":{"type":"Point","coordinates":[135.1950301000,34.2314981000]},"properties":{"Name":"太田第二公園","Jusho":"和歌山県和歌山市太田２-１２","洪水":"","がけ崩れ、土石流及び地滑り":"","高潮":"","地震":"◎","津波":"◎","大規模な火事":"◎","内水氾濫":"","火山現象":"","指定避難所との重複":"","備考":""}},
{"type":"Feature","geometry":{"type":"Point","coordinates":[135.2090697000,34.2327418000]},"properties":{"Name":"鳴神公園","Jusho":"和歌山県和歌山市鳴神９５１","洪水":"","がけ崩れ、土石流及び地滑り":"","高潮":"","地震":"◎","津波":"◎","大規模な火事":"◎","内水氾濫":"","火山現象":"","指定避難所との重複":"","備考":""}},
{"type":"Feature","geometry":{"type":"Point","coordinates":[135.1925757000,34.2303939000]},"properties":{"Name":"太田第四公園","Jusho":"和歌山県和歌山市太田１-８","洪水":"","がけ崩れ、土石流及び地滑り":"","高潮":"","地震":"◎","津波":"◎","大規模な火事":"◎","内水氾濫":"","火山現象":"","指定避難所との重複":"","備考":""}},
{"type":"Feature","geometry":{"type":"Point","coordinates":[135.2042259000,34.2344245000]},"properties":{"Name":"出水公園","Jusho":"和歌山県和歌山市秋月７５-１","洪水":"","がけ崩れ、土石流及び地滑り":"","高潮":"","地震":"◎","津波":"◎","大規模な火事":"◎","内水氾濫":"","火山現象":"","指定避難所との重複":"","備考":""}},
{"type":"Feature","geometry":{"type":"Point","coordinates":[135.1967124000,34.2284924000]},"properties":{"Name":"南太田公園","Jusho":"和歌山県和歌山市太田４-８","洪水":"","がけ崩れ、土石流及び地滑り":"","高潮":"","地震":"◎","津波":"◎","大規模な火事":"◎","内水氾濫":"","火山現象":"","指定避難所との重複":"","備考":""}},
{"type":"Feature","geometry":{"type":"Point","coordinates":[135.1920300000,34.2380539000]},"properties":{"Name":"宮北小学校","Jusho":"和歌山県和歌山市納定２１","洪水":"◎","がけ崩れ、土石流及び地滑り":"◎","高潮":"","地震":"◎","津波":"◎","大規模な火事":"◎","内水氾濫":"◎","火山現象":"","指定避難所との重複":"◎","備考":""}},
{"type":"Feature","geometry":{"type":"Point","coordinates":[135.1863372000,34.2329559000]},"properties":{"Name":"城東公園","Jusho":"和歌山県和歌山市友田町３-２９-１","洪水":"","がけ崩れ、土石流及び地滑り":"","高潮":"","地震":"◎","津波":"◎","大規模な火事":"◎","内水氾濫":"","火山現象":"","指定避難所との重複":"","備考":""}},
{"type":"Feature","geometry":{"type":"Point","coordinates":[135.1963935000,34.2337505000]},"properties":{"Name":"黒田公園","Jusho":"和歌山県和歌山市黒田２-４","洪水":"","がけ崩れ、土石流及び地滑り":"","高潮":"","地震":"◎","津波":"◎","大規模な火事":"◎","内水氾濫":"","火山現象":"","指定避難所との重複":"","備考":""}},
{"type":"Feature","geometry":{"type":"Point","coordinates":[135.1949688000,34.2387980000]},"properties":{"Name":"宮北公園","Jusho":"和歌山県和歌山市黒田３５９-１","洪水":"","がけ崩れ、土石流及び地滑り":"","高潮":"","地震":"◎","津波":"◎","大規模な火事":"◎","内水氾濫":"","火山現象":"","指定避難所との重複":"","備考":""}},
{"type":"Feature","geometry":{"type":"Point","coordinates":[135.2007109000,34.2464501000]},"properties":{"Name":"四箇郷小学校","Jusho":"和歌山県和歌山市有本１８３","洪水":"◎","がけ崩れ、土石流及び地滑り":"◎","高潮":"","地震":"◎","津波":"◎","大規模な火事":"◎","内水氾濫":"◎","火山現象":"","指定避難所との重複":"◎","備考":""}},
{"type":"Feature","geometry":{"type":"Point","coordinates":[135.2002508000,34.2503419000]},"properties":{"Name":"四箇郷北小学校","Jusho":"和歌山県和歌山市有本３２１","洪水":"◎","がけ崩れ、土石流及び地滑り":"◎","高潮":"","地震":"◎","津波":"◎","大規模な火事":"◎","内水氾濫":"◎","火山現象":"","指定避難所との重複":"◎","備考":""}},
{"type":"Feature","geometry":{"type":"Point","coordinates":[135.1899213000,34.2462935000]},"properties":{"Name":"紀之川中学校","Jusho":"和歌山県和歌山市有本６６８-１","洪水":"◎","がけ崩れ、土石流及び地滑り":"◎","高潮":"","地震":"◎","津波":"◎","大規模な火事":"◎","内水氾濫":"◎","火山現象":"","指定避難所との重複":"◎","備考":""}},
{"type":"Feature","geometry":{"type":"Point","coordinates":[135.2085871000,34.2424438000]},"properties":{"Name":"松島公園","Jusho":"和歌山県和歌山市松島２６２-３５","洪水":"","がけ崩れ、土石流及び地滑り":"","高潮":"","地震":"◎","津波":"◎","大規模な火事":"◎","内水氾濫":"","火山現象":"","指定避難所との重複":"","備考":""}},
{"type":"Feature","geometry":{"type":"Point","coordinates":[135.1857785000,34.2396308000]},"properties":{"Name":"中之島小学校","Jusho":"和歌山県和歌山市中之島１４９１","洪水":"◎","がけ崩れ、土石流及び地滑り":"◎","高潮":"","地震":"◎","津波":"◎","大規模な火事":"◎","内水氾濫":"◎","火山現象":"","指定避難所との重複":"◎","備考":""}},
{"type":"Feature","geometry":{"type":"Point","coordinates":[135.1868293000,34.2373710000]},"properties":{"Name":"県立体育館(駐車場含む)","Jusho":"和歌山県和歌山市中之島２２３８","洪水":"◎","がけ崩れ、土石流及び地滑り":"◎","高潮":"","地震":"◎","津波":"◎","大規模な火事":"◎","内水氾濫":"◎","火山現象":"","指定避難所との重複":"◎","備考":""}},
{"type":"Feature","geometry":{"type":"Point","coordinates":[135.1870651000,34.2395434000]},"properties":{"Name":"中之島公園","Jusho":"和歌山県和歌山市中之島１４９５","洪水":"","がけ崩れ、土石流及び地滑り":"","高潮":"","地震":"◎","津波":"◎","大規模な火事":"◎","内水氾濫":"","火山現象":"","指定避難所との重複":"","備考":""}},
{"type":"Feature","geometry":{"type":"Point","coordinates":[135.1863213000,34.2365681000]},"properties":{"Name":"向之芝公園","Jusho":"和歌山県和歌山市中之島２２５１","洪水":"","がけ崩れ、土石流及び地滑り":"","高潮":"","地震":"◎","津波":"◎","大規模な火事":"◎","内水氾濫":"","火山現象":"","指定避難所との重複":"","備考":""}},
{"type":"Feature","geometry":{"type":"Point","coordinates":[135.1890870000,34.2420390000]},"properties":{"Name":"西日本旅客鉄道株式会社和歌山寮（３階以上の共用部分）","Jusho":"和歌山県和歌山市中之島４０２-１","洪水":"","がけ崩れ、土石流及び地滑り":"","高潮":"","地震":"","津波":"◎","大規模な火事":"","内水氾濫":"","火山現象":"","指定避難所との重複":"","備考":""}},
{"type":"Feature","geometry":{"type":"Point","coordinates":[135.1821886000,34.2422348800]},"properties":{"Name":"紀和駅前公園","Jusho":"和歌山市中之島８０３-２０","洪水":"","がけ崩れ、土石流及び地滑り":"","高潮":"","地震":"◎","津波":"◎","大規模な火事":"◎","内水氾濫":"","火山現象":"","指定避難所との重複":"","備考":""}},
{"type":"Feature","geometry":{"type":"Point","coordinates":[135.1821562000,34.2196463000]},"properties":{"Name":"芦原小学校（津波時は3階以上）","Jusho":"和歌山県和歌山市雄松町４-２５","洪水":"◎","がけ崩れ、土石流及び地滑り":"◎","高潮":"","地震":"◎","津波":"◎","大規模な火事":"◎","内水氾濫":"◎","火山現象":"","指定避難所との重複":"◎","備考":"津波時は3階以上"}},
{"type":"Feature","geometry":{"type":"Point","coordinates":[135.1835823000,34.2232994000]},"properties":{"Name":"中央コミュニティセンター（津波時は3階以上）","Jusho":"和歌山県和歌山市三沢町１-２","洪水":"◎","がけ崩れ、土石流及び地滑り":"◎","高潮":"","地震":"◎","津波":"◎","大規模な火事":"◎","内水氾濫":"◎","火山現象":"","指定避難所との重複":"◎","備考":"津波時は3階以上"}},
{"type":"Feature","geometry":{"type":"Point","coordinates":[135.1864091000,34.2130033000]},"properties":{"Name":"宮前小学校（津波時は3階以上）","Jusho":"和歌山県和歌山市北中島１-７-４","洪水":"◎","がけ崩れ、土石流及び地滑り":"◎","高潮":"","地震":"◎","津波":"◎","大規模な火事":"◎","内水氾濫":"◎","火山現象":"","指定避難所との重複":"◎","備考":"津波時は3階以上"}},
{"type":"Feature","geometry":{"type":"Point","coordinates":[135.1908498000,34.2123205000]},"properties":{"Name":"東和中学校（津波時は3階以上）","Jusho":"和歌山県和歌山市杭ノ瀬１１６","洪水":"◎","がけ崩れ、土石流及び地滑り":"◎","高潮":"","地震":"◎","津波":"◎","大規模な火事":"◎","内水氾濫":"◎","火山現象":"","指定避難所との重複":"◎","備考":"津波時は3階以上"}},
{"type":"Feature","geometry":{"type":"Point","coordinates":[135.1959635000,34.2139233000]},"properties":{"Name":"杭ノ瀬北公園","Jusho":"和歌山県和歌山市杭ノ瀬６２-１","洪水":"","がけ崩れ、土石流及び地滑り":"","高潮":"","地震":"◎","津波":"◎","大規模な火事":"◎","内水氾濫":"","火山現象":"","指定避難所との重複":"","備考":""}},
{"type":"Feature","geometry":{"type":"Point","coordinates":[135.1915678000,34.2172253000]},"properties":{"Name":"南出島公園","Jusho":"和歌山県和歌山市南出島２９-１６","洪水":"","がけ崩れ、土石流及び地滑り":"","高潮":"","地震":"◎","津波":"◎","大規模な火事":"◎","内水氾濫":"","火山現象":"","指定避難所との重複":"","備考":""}},
{"type":"Feature","geometry":{"type":"Point","coordinates":[135.1891240000,34.2177560000]},"properties":{"Name":"手平第二公園","Jusho":"和歌山県和歌山市手平２-２２３-１","洪水":"","がけ崩れ、土石流及び地滑り":"","高潮":"","地震":"◎","津波":"◎","大規模な火事":"◎","内水氾濫":"","火山現象":"","指定避難所との重複":"","備考":""}},
{"type":"Feature","geometry":{"type":"Point","coordinates":[135.1995940000,34.2135598000]},"properties":{"Name":"杭ノ瀬公園","Jusho":"和歌山県和歌山市杭ノ瀬８-１","洪水":"","がけ崩れ、土石流及び地滑り":"","高潮":"","地震":"◎","津波":"◎","大規模な火事":"◎","内水氾濫":"","火山現象":"","指定避難所との重複":"","備考":""}},
{"type":"Feature","geometry":{"type":"Point","coordinates":[135.1848940000,34.2101420000]},"properties":{"Name":"Nビル　パレスNAKASHIMA（５階以上の共用部分）","Jusho":"和歌山県和歌山市小雑賀３-６-９","洪水":"","がけ崩れ、土石流及び地滑り":"","高潮":"","地震":"","津波":"◎","大規模な火事":"","内水氾濫":"","火山現象":"","指定避難所との重複":"","備考":""}},
{"type":"Feature","geometry":{"type":"Point","coordinates":[135.1845970000,34.2031840000]},"properties":{"Name":"グリーンフル小雑賀（５階以上の共用部分）","Jusho":"和歌山県和歌山市小雑賀５８３-１","洪水":"","がけ崩れ、土石流及び地滑り":"","高潮":"","地震":"","津波":"◎","大規模な火事":"","内水氾濫":"","火山現象":"","指定避難所との重複":"","備考":""}},
{"type":"Feature","geometry":{"type":"Point","coordinates":[135.1862490000,34.2088780000]},"properties":{"Name":"オークワ教育研修センター（４階大ホール","Jusho":"和歌山県和歌山市中島１８５-３","洪水":"","がけ崩れ、土石流及び地滑り":"","高潮":"","地震":"","津波":"◎","大規模な火事":"","内水氾濫":"","火山現象":"","指定避難所との重複":"","備考":""}},
{"type":"Feature","geometry":{"type":"Point","coordinates":[135.1900436000,34.2186329300]},"properties":{"Name":"和歌山ビッグ愛（５階以上の共用部分）","Jusho":"和歌山県和歌山市手平２-１-２","洪水":"","がけ崩れ、土石流及び地滑り":"","高潮":"","地震":"","津波":"◎","大規模な火事":"","内水氾濫":"","火山現象":"","指定避難所との重複":"","備考":"津波時は3階以上"}},
{"type":"Feature","geometry":{"type":"Point","coordinates":[135.1899992000,34.2178056600]},"properties":{"Name":"和歌山ビッグ愛（敷地部分）","Jusho":"和歌山県和歌山市手平２-１-２","洪水":"","がけ崩れ、土石流及び地滑り":"","高潮":"","地震":"◎","津波":"◎","大規模な火事":"◎","内水氾濫":"","火山現象":"","指定避難所との重複":"","備考":""}},
{"type":"Feature","geometry":{"type":"Point","coordinates":[135.1908460000,34.2212660000]},"properties":{"Name":"和歌山ビッグホエール","Jusho":"和歌山県和歌山市和歌山市手平２-１-１","洪水":"","がけ崩れ、土石流及び地滑り":"","高潮":"","地震":"◎","津波":"◎","大規模な火事":"◎","内水氾濫":"","火山現象":"","指定避難所との重複":"","備考":""}},
{"type":"Feature","geometry":{"type":"Point","coordinates":[135.1833180000,34.1953570000]},"properties":{"Name":"オークワセントラルシティ和歌山店（屋上駐車場）","Jusho":"和歌山県和歌山市小雑賀８０５-１","洪水":"","がけ崩れ、土石流及び地滑り":"","高潮":"","地震":"","津波":"◎","大規模な火事":"","内水氾濫":"","火山現象":"","指定避難所との重複":"","備考":""}},
{"type":"Feature","geometry":{"type":"Point","coordinates":[135.1858094000,34.1968615800]},"properties":{"Name":"１２３＋Ｎ和歌山本店（立体駐車場棟の２～５階・屋上部分）","Jusho":"和歌山県和歌山市小雑賀７６２-１","洪水":"","がけ崩れ、土石流及び地滑り":"","高潮":"","地震":"","津波":"◎","大規模な火事":"","内水氾濫":"","火山現象":"","指定避難所との重複":"","備考":""}},
{"type":"Feature","geometry":{"type":"Point","coordinates":[135.1444862000,34.2331933300]},"properties":{"Name":"湊小学校（津波時は3階以上）","Jusho":"和歌山県和歌山市湊２丁目１７-４０","洪水":"◎","がけ崩れ、土石流及び地滑り":"◎","高潮":"","地震":"◎","津波":"◎","大規模な火事":"◎","内水氾濫":"◎","火山現象":"","指定避難所との重複":"◎","備考":"津波時は3階以上"}},
{"type":"Feature","geometry":{"type":"Point","coordinates":[135.1472478000,34.2332471000]},"properties":{"Name":"湊公園","Jusho":"和歌山県和歌山市湊３-３０１","洪水":"","がけ崩れ、土石流及び地滑り":"","高潮":"","地震":"◎","津波":"◎","大規模な火事":"◎","内水氾濫":"","火山現象":"","指定避難所との重複":"","備考":""}},
{"type":"Feature","geometry":{"type":"Point","coordinates":[135.1588088000,34.2437832000]},"properties":{"Name":"野崎小学校（津波時は3階以上）","Jusho":"和歌山県和歌山市野崎１３０-１","洪水":"◎","がけ崩れ、土石流及び地滑り":"◎","高潮":"","地震":"◎","津波":"◎","大規模な火事":"◎","内水氾濫":"◎","火山現象":"","指定避難所との重複":"◎","備考":"津波時は3階以上"}},
{"type":"Feature","geometry":{"type":"Point","coordinates":[135.1638648000,34.2513568000]},"properties":{"Name":"福島小学校（津波時は3階以上）","Jusho":"和歌山県和歌山市福島１３５-４","洪水":"◎","がけ崩れ、土石流及び地滑り":"◎","高潮":"","地震":"◎","津波":"◎","大規模な火事":"◎","内水氾濫":"◎","火山現象":"","指定避難所との重複":"◎","備考":"津波時は3階以上"}},
{"type":"Feature","geometry":{"type":"Point","coordinates":[135.1516415000,34.2511718000]},"properties":{"Name":"野崎西小学校（津波時は3階以上）","Jusho":"和歌山県和歌山市梶取３０１-３","洪水":"◎","がけ崩れ、土石流及び地滑り":"◎","高潮":"","地震":"◎","津波":"◎","大規模な火事":"◎","内水氾濫":"◎","火山現象":"","指定避難所との重複":"◎","備考":"津波時は3階以上"}},
{"type":"Feature","geometry":{"type":"Point","coordinates":[135.1527169000,34.2410674000]},"properties":{"Name":"河北中学校（津波時は3階以上）","Jusho":"和歌山県和歌山市北島３７０-１","洪水":"◎","がけ崩れ、土石流及び地滑り":"◎","高潮":"","地震":"◎","津波":"◎","大規模な火事":"◎","内水氾濫":"◎","火山現象":"","指定避難所との重複":"◎","備考":"津波時は3階以上"}},
{"type":"Feature","geometry":{"type":"Point","coordinates":[135.1462355000,34.2447818000]},"properties":{"Name":"島橋公園","Jusho":"和歌山県和歌山市島橋西ノ丁1","洪水":"","がけ崩れ、土石流及び地滑り":"","高潮":"","地震":"◎","津波":"","大規模な火事":"◎","内水氾濫":"","火山現象":"","指定避難所との重複":"","備考":""}},
{"type":"Feature","geometry":{"type":"Point","coordinates":[135.1640947000,34.2518604000]},"properties":{"Name":"福島公園","Jusho":"和歌山県和歌山市福島１２０-１","洪水":"","がけ崩れ、土石流及び地滑り":"","高潮":"","地震":"◎","津波":"◎","大規模な火事":"◎","内水氾濫":"","火山現象":"","指定避難所との重複":"","備考":""}},
{"type":"Feature","geometry":{"type":"Point","coordinates":[135.1581486000,34.2466715000]},"properties":{"Name":"野崎公園","Jusho":"和歌山県和歌山市１９１-１他","洪水":"","がけ崩れ、土石流及び地滑り":"","高潮":"","地震":"◎","津波":"◎","大規模な火事":"◎","内水氾濫":"","火山現象":"","指定避難所との重複":"","備考":""}},
{"type":"Feature","geometry":{"type":"Point","coordinates":[135.1578450000,34.2387820000]},"properties":{"Name":"市営北島団地（５階以上の共用部分）","Jusho":"和歌山県和歌山市北島４３３-１","洪水":"","がけ崩れ、土石流及び地滑り":"","高潮":"","地震":"","津波":"◎","大規模な火事":"","内水氾濫":"","火山現象":"","指定避難所との重複":"","備考":""}},
{"type":"Feature","geometry":{"type":"Point","coordinates":[135.1494290000,34.2498590000]},"properties":{"Name":"クローバーメゾン狐島（３階以上の共用部分）","Jusho":"和歌山県和歌山市狐島６２２-１","洪水":"","がけ崩れ、土石流及び地滑り":"","高潮":"","地震":"","津波":"◎","大規模な火事":"","内水氾濫":"","火山現象":"","指定避難所との重複":"","備考":""}},
{"type":"Feature","geometry":{"type":"Point","coordinates":[135.2049079000,34.1989928000]},"properties":{"Name":"三田小学校（津波時は3階以上）","Jusho":"和歌山県和歌山市和田４１９-１","洪水":"◎","がけ崩れ、土石流及び地滑り":"◎","高潮":"","地震":"◎","津波":"◎","大規模な火事":"◎","内水氾濫":"◎","火山現象":"","指定避難所との重複":"◎","備考":"津波時は３階以上"}},
{"type":"Feature","geometry":{"type":"Point","coordinates":[135.1990329000,34.2103885600]},"properties":{"Name":"あけぼの団地","Jusho":"和歌山県和歌山市田尻１７８-５","洪水":"","がけ崩れ、土石流及び地滑り":"","高潮":"","地震":"","津波":"","大規模な火事":"","内水氾濫":"","火山現象":"","指定避難所との重複":"","備考":""}},
{"type":"Feature","geometry":{"type":"Point","coordinates":[135.1348537000,34.2520163000]},"properties":{"Name":"松江小学校（津波時は3階以上）","Jusho":"和歌山県和歌山市松江北４-１-１","洪水":"◎","がけ崩れ、土石流及び地滑り":"◎","高潮":"","地震":"◎","津波":"◎","大規模な火事":"◎","内水氾濫":"◎","火山現象":"","指定避難所との重複":"◎","備考":"津波時は3階以上"}},
{"type":"Feature","geometry":{"type":"Point","coordinates":[135.1310505000,34.2510502000]},"properties":{"Name":"河西中学校（津波時は3階以上）","Jusho":"和歌山県和歌山市松江北５-１９-１","洪水":"◎","がけ崩れ、土石流及び地滑り":"◎","高潮":"","地震":"◎","津波":"◎","大規模な火事":"◎","内水氾濫":"◎","火山現象":"","指定避難所との重複":"◎","備考":"津波時は3階以上"}},
{"type":"Feature","geometry":{"type":"Point","coordinates":[135.1343740000,34.2493338000]},"properties":{"Name":"河西コミュニティセンター（津波時は3階以上）","Jusho":"和歌山県和歌山市松江北２-２０-７","洪水":"◎","がけ崩れ、土石流及び地滑り":"◎","高潮":"","地震":"◎","津波":"◎","大規模な火事":"◎","内水氾濫":"◎","火山現象":"","指定避難所との重複":"◎","備考":"津波時は3階以上"}},
{"type":"Feature","geometry":{"type":"Point","coordinates":[135.1383360000,34.2486610000]},"properties":{"Name":"市営ラブリー松江（５階以上の共用部分）","Jusho":"和歌山県和歌山市松江北2丁目２-５","洪水":"","がけ崩れ、土石流及び地滑り":"","高潮":"","地震":"","津波":"◎","大規模な火事":"","内水氾濫":"","火山現象":"","指定避難所との重複":"","備考":""}},
{"type":"Feature","geometry":{"type":"Point","coordinates":[135.1393280000,34.2473640000]},"properties":{"Name":"県営東松江住宅（５階以上の共用部分）","Jusho":"和歌山県和歌山市松江東4丁目６-２８","洪水":"","がけ崩れ、土石流及び地滑り":"","高潮":"","地震":"","津波":"◎","大規模な火事":"","内水氾濫":"","火山現象":"","指定避難所との重複":"","備考":""}},
{"type":"Feature","geometry":{"type":"Point","coordinates":[135.1268020000,34.2573866000]},"properties":{"Name":"木本小学校（津波時は3階以上）","Jusho":"和歌山県和歌山市榎原２５５","洪水":"◎","がけ崩れ、土石流及び地滑り":"◎","高潮":"","地震":"◎","津波":"◎","大規模な火事":"◎","内水氾濫":"◎","火山現象":"","指定避難所との重複":"◎","備考":""}},
{"type":"Feature","geometry":{"type":"Point","coordinates":[135.1327066000,34.2633400000]},"properties":{"Name":"木本公園","Jusho":"和歌山県和歌山市木ノ本７６１-２","洪水":"","がけ崩れ、土石流及び地滑り":"","高潮":"","地震":"◎","津波":"◎","大規模な火事":"◎","内水氾濫":"","火山現象":"","指定避難所との重複":"","備考":""}},
{"type":"Feature","geometry":{"type":"Point","coordinates":[135.1268310000,34.2655140000]},"properties":{"Name":"木本聖地霊園（敷地内）","Jusho":"和歌山県和歌山市木ノ本１５６０-１","洪水":"","がけ崩れ、土石流及び地滑り":"","高潮":"","地震":"","津波":"◎","大規模な火事":"","内水氾濫":"","火山現象":"","指定避難所との重複":"","備考":""}},
{"type":"Feature","geometry":{"type":"Point","coordinates":[135.1502235000,34.2599671000]},"properties":{"Name":"貴志小学校","Jusho":"和歌山県和歌山市栄谷８９５-２","洪水":"◎","がけ崩れ、土石流及び地滑り":"◎","高潮":"","地震":"◎","津波":"◎","大規模な火事":"◎","内水氾濫":"◎","火山現象":"","指定避難所との重複":"◎","備考":""}},
{"type":"Feature","geometry":{"type":"Point","coordinates":[135.1400455000,34.2569583000]},"properties":{"Name":"貴志南小学校（津波時は3階以上）","Jusho":"和歌山県和歌山市中野１１-１","洪水":"◎","がけ崩れ、土石流及び地滑り":"◎","高潮":"","地震":"◎","津波":"◎","大規模な火事":"◎","内水氾濫":"◎","火山現象":"","指定避難所との重複":"◎","備考":"津波時は3階以上"}},
{"type":"Feature","geometry":{"type":"Point","coordinates":[135.1548084000,34.2696229800]},"properties":{"Name":"藤戸台小学校","Jusho":"和歌山県和歌山市栄谷９７５-２４５","洪水":"◎","がけ崩れ、土石流及び地滑り":"◎","高潮":"","地震":"◎","津波":"◎","大規模な火事":"◎","内水氾濫":"◎","火山現象":"","指定避難所との重複":"◎","備考":""}},
{"type":"Feature","geometry":{"type":"Point","coordinates":[135.1434851000,34.2677535000]},"properties":{"Name":"貴志中学校","Jusho":"和歌山県和歌山市梅原５７９-２","洪水":"◎","がけ崩れ、土石流及び地滑り":"◎","高潮":"","地震":"◎","津波":"◎","大規模な火事":"◎","内水氾濫":"◎","火山現象":"","指定避難所との重複":"◎","備考":""}},
{"type":"Feature","geometry":{"type":"Point","coordinates":[135.1393051000,34.2530625000]},"properties":{"Name":"市民体育館","Jusho":"和歌山県和歌山市土入３１８-１","洪水":"◎","がけ崩れ、土石流及び地滑り":"◎","高潮":"","地震":"◎","津波":"◎","大規模な火事":"◎","内水氾濫":"◎","火山現象":"","指定避難所との重複":"◎","備考":""}},
{"type":"Feature","geometry":{"type":"Point","coordinates":[135.1514410000,34.2649915000]},"properties":{"Name":"和歌山大学(体育館)","Jusho":"和歌山県和歌山市栄谷９３０","洪水":"◎","がけ崩れ、土石流及び地滑り":"◎","高潮":"","地震":"◎","津波":"◎","大規模な火事":"◎","内水氾濫":"◎","火山現象":"","指定避難所との重複":"◎","備考":""}},
{"type":"Feature","geometry":{"type":"Point","coordinates":[135.1636319000,34.2614944000]},"properties":{"Name":"栄谷公園","Jusho":"和歌山県和歌山市栄谷４９６、４９７","洪水":"","がけ崩れ、土石流及び地滑り":"","高潮":"","地震":"◎","津波":"◎","大規模な火事":"◎","内水氾濫":"","火山現象":"","指定避難所との重複":"","備考":""}},
{"type":"Feature","geometry":{"type":"Point","coordinates":[135.1555727000,34.2553964000]},"properties":{"Name":"栄谷団地公園","Jusho":"和歌山県和歌山市栄谷１５３-２","洪水":"","がけ崩れ、土石流及び地滑り":"","高潮":"","地震":"◎","津波":"◎","大規模な火事":"◎","内水氾濫":"","火山現象":"","指定避難所との重複":"","備考":""}},
{"type":"Feature","geometry":{"type":"Point","coordinates":[135.1582498000,34.2561170000]},"properties":{"Name":"栄谷南公園","Jusho":"和歌山県和歌山市栄谷８３-１","洪水":"","がけ崩れ、土石流及び地滑り":"","高潮":"","地震":"◎","津波":"◎","大規模な火事":"◎","内水氾濫":"","火山現象":"","指定避難所との重複":"","備考":""}},
{"type":"Feature","geometry":{"type":"Point","coordinates":[135.1397226000,34.2510949000]},"properties":{"Name":"二葉団地児童遊園","Jusho":"和歌山県和歌山市土入２９１-８８","洪水":"","がけ崩れ、土石流及び地滑り":"","高潮":"","地震":"◎","津波":"◎","大規模な火事":"◎","内水氾濫":"","火山現象":"","指定避難所との重複":"","備考":""}},
{"type":"Feature","geometry":{"type":"Point","coordinates":[135.1467980000,34.2504490000]},"properties":{"Name":"マスターズエル延時（５階以上の共用部分）","Jusho":"和歌山県和歌山市延時１４０-１","洪水":"","がけ崩れ、土石流及び地滑り":"","高潮":"","地震":"","津波":"◎","大規模な火事":"","内水氾濫":"","火山現象":"","指定避難所との重複":"","備考":""}},
{"type":"Feature","geometry":{"type":"Point","coordinates":[135.1363980000,34.2701300000]},"properties":{"Name":"和歌山カントリー倶楽部","Jusho":"和歌山県和歌山市梅原５８５","洪水":"","がけ崩れ、土石流及び地滑り":"","高潮":"","地震":"","津波":"◎","大規模な火事":"","内水氾濫":"","火山現象":"","指定避難所との重複":"","備考":""}},
{"type":"Feature","geometry":{"type":"Point","coordinates":[135.1759572000,34.2590430000]},"properties":{"Name":"楠見小学校","Jusho":"和歌山県和歌山市大谷３４９-２","洪水":"◎","がけ崩れ、土石流及び地滑り":"◎","高潮":"","地震":"◎","津波":"◎","大規模な火事":"◎","内水氾濫":"◎","火山現象":"","指定避難所との重複":"◎","備考":""}},
{"type":"Feature","geometry":{"type":"Point","coordinates":[135.1677049000,34.2576402000]},"properties":{"Name":"楠見西小学校（津波時は3階以上）","Jusho":"和歌山県和歌山市市小路３１","洪水":"◎","がけ崩れ、土石流及び地滑り":"◎","高潮":"","地震":"◎","津波":"◎","大規模な火事":"◎","内水氾濫":"◎","火山現象":"","指定避難所との重複":"◎","備考":""}},
{"type":"Feature","geometry":{"type":"Point","coordinates":[135.1814187000,34.2572732000]},"properties":{"Name":"楠見東小学校","Jusho":"和歌山県和歌山市善明寺１５０-１","洪水":"◎","がけ崩れ、土石流及び地滑り":"◎","高潮":"","地震":"◎","津波":"◎","大規模な火事":"◎","内水氾濫":"◎","火山現象":"","指定避難所との重複":"◎","備考":""}},
{"type":"Feature","geometry":{"type":"Point","coordinates":[135.1801613000,34.2663996000]},"properties":{"Name":"楠見中学校","Jusho":"和歌山県和歌山市善明寺７０６","洪水":"◎","がけ崩れ、土石流及び地滑り":"◎","高潮":"","地震":"◎","津波":"◎","大規模な火事":"◎","内水氾濫":"◎","火山現象":"","指定避難所との重複":"◎","備考":""}},
{"type":"Feature","geometry":{"type":"Point","coordinates":[135.1700077000,34.2548965000]},"properties":{"Name":"和歌山北高等学校（津波時は3階以上）","Jusho":"和歌山県和歌山市市小路３８８","洪水":"◎","がけ崩れ、土石流及び地滑り":"◎","高潮":"","地震":"◎","津波":"◎","大規模な火事":"◎","内水氾濫":"◎","火山現象":"","指定避難所との重複":"◎","備考":""}},
{"type":"Feature","geometry":{"type":"Point","coordinates":[135.1634717000,34.2543550000]},"properties":{"Name":"河北コミュニティセンター","Jusho":"和歌山県和歌山市市小路１９２-３","洪水":"◎","がけ崩れ、土石流及び地滑り":"◎","高潮":"","地震":"◎","津波":"◎","大規模な火事":"◎","内水氾濫":"◎","火山現象":"","指定避難所との重複":"◎","備考":""}},
{"type":"Feature","geometry":{"type":"Point","coordinates":[135.1853234000,34.2608872000]},"properties":{"Name":"善明寺公園","Jusho":"和歌山県和歌山市善明寺３６３-２","洪水":"","がけ崩れ、土石流及び地滑り":"","高潮":"","地震":"◎","津波":"◎","大規模な火事":"◎","内水氾濫":"","火山現象":"","指定避難所との重複":"","備考":""}},
{"type":"Feature","geometry":{"type":"Point","coordinates":[135.1627240000,34.2584246000]},"properties":{"Name":"平井公園","Jusho":"和歌山県和歌山市市小路２５３-１","洪水":"","がけ崩れ、土石流及び地滑り":"","高潮":"","地震":"◎","津波":"◎","大規模な火事":"◎","内水氾濫":"","火山現象":"","指定避難所との重複":"","備考":""}},
{"type":"Feature","geometry":{"type":"Point","coordinates":[135.1662476000,34.2633961000]},"properties":{"Name":"平井中央公園","Jusho":"和歌山県和歌山市平井４７０-１","洪水":"","がけ崩れ、土石流及び地滑り":"","高潮":"","地震":"◎","津波":"◎","大規模な火事":"◎","内水氾濫":"","火山現象":"","指定避難所との重複":"","備考":""}},
{"type":"Feature","geometry":{"type":"Point","coordinates":[135.1672688000,34.2572050000]},"properties":{"Name":"市小路公園","Jusho":"和歌山県和歌山市市小路４４-１","洪水":"","がけ崩れ、土石流及び地滑り":"","高潮":"","地震":"◎","津波":"◎","大規模な火事":"◎","内水氾濫":"","火山現象":"","指定避難所との重複":"","備考":""}},
{"type":"Feature","geometry":{"type":"Point","coordinates":[135.1810104000,34.2654075000]},"properties":{"Name":"善明寺北公園","Jusho":"和歌山県和歌山市善明寺７０６-１２３","洪水":"","がけ崩れ、土石流及び地滑り":"","高潮":"","地震":"◎","津波":"◎","大規模な火事":"◎","内水氾濫":"","火山現象":"","指定避難所との重複":"","備考":""}},
{"type":"Feature","geometry":{"type":"Point","coordinates":[135.1838523000,34.2587000000]},"properties":{"Name":"善明寺中央公園","Jusho":"和歌山県和歌山市善明寺１１３-４","洪水":"","がけ崩れ、土石流及び地滑り":"","高潮":"","地震":"◎","津波":"◎","大規模な火事":"◎","内水氾濫":"","火山現象":"","指定避難所との重複":"","備考":""}},
{"type":"Feature","geometry":{"type":"Point","coordinates":[135.2270591000,34.2387666000]},"properties":{"Name":"西和佐小学校","Jusho":"和歌山県和歌山市栗栖８４-１","洪水":"◎","がけ崩れ、土石流及び地滑り":"◎","高潮":"","地震":"◎","津波":"◎","大規模な火事":"◎","内水氾濫":"◎","火山現象":"","指定避難所との重複":"◎","備考":""}},
{"type":"Feature","geometry":{"type":"Point","coordinates":[135.2248424000,34.2311362400]},"properties":{"Name":"岩橋公園","Jusho":"和歌山県和歌山市岩橋１５６０-１","洪水":"","がけ崩れ、土石流及び地滑り":"","高潮":"","地震":"◎","津波":"◎","大規模な火事":"◎","内水氾濫":"","火山現象":"","指定避難所との重複":"","備考":""}},
{"type":"Feature","geometry":{"type":"Point","coordinates":[135.2200774000,34.2147905000]},"properties":{"Name":"岡崎小学校","Jusho":"和歌山県和歌山市寺内４２６","洪水":"◎","がけ崩れ、土石流及び地滑り":"◎","高潮":"","地震":"◎","津波":"◎","大規模な火事":"◎","内水氾濫":"◎","火山現象":"","指定避難所との重複":"◎","備考":""}},
{"type":"Feature","geometry":{"type":"Point","coordinates":[135.2260147000,34.2075754000]},"properties":{"Name":"和歌山東高等学校","Jusho":"和歌山県和歌山市森小手穂１３６","洪水":"◎","がけ崩れ、土石流及び地滑り":"◎","高潮":"","地震":"◎","津波":"◎","大規模な火事":"◎","内水氾濫":"◎","火山現象":"","指定避難所との重複":"◎","備考":""}},
{"type":"Feature","geometry":{"type":"Point","coordinates":[135.2268305000,34.2060435000]},"properties":{"Name":"東部コミュニティセンター","Jusho":"和歌山県和歌山市寺内６６５","洪水":"◎","がけ崩れ、土石流及び地滑り":"◎","高潮":"","地震":"◎","津波":"◎","大規模な火事":"◎","内水氾濫":"◎","火山現象":"","指定避難所との重複":"◎","備考":""}},
{"type":"Feature","geometry":{"type":"Point","coordinates":[135.2110086000,34.2170045000]},"properties":{"Name":"岡崎中央児童遊園","Jusho":"和歌山県和歌山市井辺１４４-１０７","洪水":"","がけ崩れ、土石流及び地滑り":"","高潮":"","地震":"◎","津波":"◎","大規模な火事":"◎","内水氾濫":"","火山現象":"","指定避難所との重複":"","備考":""}},
{"type":"Feature","geometry":{"type":"Point","coordinates":[135.2030992000,34.2156627200]},"properties":{"Name":"セラヴィ神前（３階以上の共用部分）","Jusho":"和歌山県和歌山市神前１８２-１","洪水":"","がけ崩れ、土石流及び地滑り":"","高潮":"","地震":"","津波":"◎","大規模な火事":"","内水氾濫":"","火山現象":"","指定避難所との重複":"","備考":""}},
{"type":"Feature","geometry":{"type":"Point","coordinates":[135.1042657000,34.2582652000]},"properties":{"Name":"西脇小学校","Jusho":"和歌山県和歌山市西庄１０１２","洪水":"◎","がけ崩れ、土石流及び地滑り":"◎","高潮":"","地震":"◎","津波":"◎","大規模な火事":"◎","内水氾濫":"◎","火山現象":"","指定避難所との重複":"◎","備考":""}},
{"type":"Feature","geometry":{"type":"Point","coordinates":[135.1165190000,34.2652086000]},"properties":{"Name":"八幡台小学校","Jusho":"和歌山県和歌山市西庄１１１０","洪水":"◎","がけ崩れ、土石流及び地滑り":"◎","高潮":"","地震":"◎","津波":"◎","大規模な火事":"◎","内水氾濫":"◎","火山現象":"","指定避難所との重複":"◎","備考":""}},
{"type":"Feature","geometry":{"type":"Point","coordinates":[135.1163307000,34.2645642000]},"properties":{"Name":"西脇中学校","Jusho":"和歌山県和歌山市西庄１１１０-５","洪水":"◎","がけ崩れ、土石流及び地滑り":"◎","高潮":"","地震":"◎","津波":"◎","大規模な火事":"◎","内水氾濫":"◎","火山現象":"","指定避難所との重複":"◎","備考":""}},
{"type":"Feature","geometry":{"type":"Point","coordinates":[135.1097476000,34.2658508000]},"properties":{"Name":"和歌山北高等学校西校舎","Jusho":"和歌山県和歌山市西庄１１４８-１","洪水":"◎","がけ崩れ、土石流及び地滑り":"◎","高潮":"","地震":"◎","津波":"◎","大規模な火事":"◎","内水氾濫":"◎","火山現象":"","指定避難所との重複":"◎","備考":""}},
{"type":"Feature","geometry":{"type":"Point","coordinates":[135.1023750000,34.2689473000]},"properties":{"Name":"つつじが丘テニスコート","Jusho":"和歌山県和歌山市つつじが丘４-４","洪水":"◎","がけ崩れ、土石流及び地滑り":"◎","高潮":"","地震":"◎","津波":"◎","大規模な火事":"◎","内水氾濫":"◎","火山現象":"","指定避難所との重複":"◎","備考":""}},
{"type":"Feature","geometry":{"type":"Point","coordinates":[135.1163881000,34.2599469000]},"properties":{"Name":"西庄公園","Jusho":"和歌山県和歌山市西庄２１５","洪水":"","がけ崩れ、土石流及び地滑り":"","高潮":"","地震":"◎","津波":"◎","大規模な火事":"◎","内水氾濫":"","火山現象":"","指定避難所との重複":"","備考":""}},
{"type":"Feature","geometry":{"type":"Point","coordinates":[135.1107749000,34.2534556000]},"properties":{"Name":"元西脇中学校跡","Jusho":"和歌山県和歌山市西庄１０３７","洪水":"","がけ崩れ、土石流及び地滑り":"","高潮":"","地震":"◎","津波":"◎","大規模な火事":"◎","内水氾濫":"","火山現象":"","指定避難所との重複":"","備考":""}},
{"type":"Feature","geometry":{"type":"Point","coordinates":[135.0959202000,34.2622517600]},"properties":{"Name":"磯ノ浦東部避難場所（磯の浦）","Jusho":"和歌山県和歌山市磯の浦","洪水":"","がけ崩れ、土石流及び地滑り":"","高潮":"","地震":"","津波":"◎","大規模な火事":"","内水氾濫":"","火山現象":"","指定避難所との重複":"","備考":""}},
{"type":"Feature","geometry":{"type":"Point","coordinates":[135.2498714000,34.2357527000]},"properties":{"Name":"和佐小学校","Jusho":"和歌山県和歌山市禰宜９４９-２","洪水":"◎","がけ崩れ、土石流及び地滑り":"◎","高潮":"","地震":"◎","津波":"◎","大規模な火事":"◎","内水氾濫":"◎","火山現象":"","指定避難所との重複":"◎","備考":""}},
{"type":"Feature","geometry":{"type":"Point","coordinates":[135.2627770000,34.2408483000]},"properties":{"Name":"高積中学校","Jusho":"和歌山県和歌山市布施屋１１２-２","洪水":"◎","がけ崩れ、土石流及び地滑り":"◎","高潮":"","地震":"◎","津波":"◎","大規模な火事":"◎","内水氾濫":"◎","火山現象":"","指定避難所との重複":"◎","備考":""}},
{"type":"Feature","geometry":{"type":"Point","coordinates":[135.2600812000,34.2416109000]},"properties":{"Name":"河南コミュニティセンター","Jusho":"和歌山県和歌山市布施屋４１","洪水":"◎","がけ崩れ、土石流及び地滑り":"◎","高潮":"","地震":"◎","津波":"◎","大規模な火事":"◎","内水氾濫":"◎","火山現象":"","指定避難所との重複":"◎","備考":""}},
{"type":"Feature","geometry":{"type":"Point","coordinates":[135.2386827000,34.2362182000]},"properties":{"Name":"河南総合体育館","Jusho":"和歌山県和歌山市和佐中１６５-１","洪水":"◎","がけ崩れ、土石流及び地滑り":"◎","高潮":"","地震":"◎","津波":"◎","大規模な火事":"◎","内水氾濫":"◎","火山現象":"","指定避難所との重複":"◎","備考":""}},
{"type":"Feature","geometry":{"type":"Point","coordinates":[135.2429655000,34.2404187000]},"properties":{"Name":"松下公園","Jusho":"和歌山県和歌山市祢宜１２６４","洪水":"","がけ崩れ、土石流及び地滑り":"","高潮":"","地震":"◎","津波":"◎","大規模な火事":"◎","内水氾濫":"","火山現象":"","指定避難所との重複":"","備考":""}},
{"type":"Feature","geometry":{"type":"Point","coordinates":[135.2434850000,34.2413926000]},"properties":{"Name":"和佐児童遊園","Jusho":"和歌山県和歌山市祢宜１２２４-１","洪水":"","がけ崩れ、土石流及び地滑り":"","高潮":"","地震":"◎","津波":"◎","大規模な火事":"◎","内水氾濫":"","火山現象":"","指定避難所との重複":"","備考":""}},
{"type":"Feature","geometry":{"type":"Point","coordinates":[135.2248450000,34.1921563000]},"properties":{"Name":"安原小学校","Jusho":"和歌山県和歌山市江南２３９","洪水":"◎","がけ崩れ、土石流及び地滑り":"◎","高潮":"","地震":"◎","津波":"◎","大規模な火事":"◎","内水氾濫":"◎","火山現象":"","指定避難所との重複":"◎","備考":""}},
{"type":"Feature","geometry":{"type":"Point","coordinates":[135.2244994000,34.2007779000]},"properties":{"Name":"東中学校(津波時は3階以上)","Jusho":"和歌山県和歌山市松原３３７","洪水":"◎","がけ崩れ、土石流及び地滑り":"◎","高潮":"","地震":"◎","津波":"◎","大規模な火事":"◎","内水氾濫":"◎","火山現象":"","指定避難所との重複":"◎","備考":"津波時は3階以上"}},
{"type":"Feature","geometry":{"type":"Point","coordinates":[135.2169885000,34.1769563000]},"properties":{"Name":"本渡公園","Jusho":"和歌山県和歌山市本渡３６９","洪水":"","がけ崩れ、土石流及び地滑り":"","高潮":"","地震":"◎","津波":"◎","大規模な火事":"◎","内水氾濫":"","火山現象":"","指定避難所との重複":"","備考":""}},
{"type":"Feature","geometry":{"type":"Point","coordinates":[135.2156256000,34.1909771000]},"properties":{"Name":"赤津広場","Jusho":"和歌山県和歌山市冬野１６５-１","洪水":"","がけ崩れ、土石流及び地滑り":"","高潮":"","地震":"◎","津波":"◎","大規模な火事":"◎","内水氾濫":"","火山現象":"","指定避難所との重複":"","備考":""}},
{"type":"Feature","geometry":{"type":"Point","coordinates":[135.2118530000,34.1743160000]},"properties":{"Name":"智辯学園和歌山小学・中学・高等学校（グラウンド）","Jusho":"和歌山県和歌山市冬野２０６６-１","洪水":"","がけ崩れ、土石流及び地滑り":"","高潮":"","地震":"","津波":"◎","大規模な火事":"","内水氾濫":"","火山現象":"","指定避難所との重複":"","備考":""}},
{"type":"Feature","geometry":{"type":"Point","coordinates":[135.2415488000,34.2014786000]},"properties":{"Name":"山東小学校","Jusho":"和歌山県和歌山市吉礼３２６","洪水":"◎","がけ崩れ、土石流及び地滑り":"◎","高潮":"","地震":"◎","津波":"◎","大規模な火事":"◎","内水氾濫":"◎","火山現象":"","指定避難所との重複":"◎","備考":""}},
{"type":"Feature","geometry":{"type":"Point","coordinates":[135.2473178000,34.2049237000]},"properties":{"Name":"口須佐公園","Jusho":"和歌山県和歌山市口須佐５１-４","洪水":"","がけ崩れ、土石流及び地滑り":"","高潮":"","地震":"◎","津波":"◎","大規模な火事":"◎","内水氾濫":"","火山現象":"","指定避難所との重複":"","備考":""}},
{"type":"Feature","geometry":{"type":"Point","coordinates":[135.2595235000,34.2032519000]},"properties":{"Name":"東山東小学校","Jusho":"和歌山県和歌山市山東中５２-１","洪水":"◎","がけ崩れ、土石流及び地滑り":"◎","高潮":"","地震":"◎","津波":"◎","大規模な火事":"◎","内水氾濫":"◎","火山現象":"","指定避難所との重複":"◎","備考":""}},
{"type":"Feature","geometry":{"type":"Point","coordinates":[135.1966582000,34.2639316000]},"properties":{"Name":"有功小学校","Jusho":"和歌山県和歌山市園部１４５３","洪水":"◎","がけ崩れ、土石流及び地滑り":"◎","高潮":"","地震":"◎","津波":"◎","大規模な火事":"◎","内水氾濫":"◎","火山現象":"","指定避難所との重複":"◎","備考":""}},
{"type":"Feature","geometry":{"type":"Point","coordinates":[135.1869001000,34.2657920000]},"properties":{"Name":"鳴滝小学校","Jusho":"和歌山県和歌山市善明寺６１５-３","洪水":"◎","がけ崩れ、土石流及び地滑り":"◎","高潮":"","地震":"◎","津波":"◎","大規模な火事":"◎","内水氾濫":"◎","火山現象":"","指定避難所との重複":"◎","備考":""}},
{"type":"Feature","geometry":{"type":"Point","coordinates":[135.2045141000,34.2681088000]},"properties":{"Name":"有功東小学校","Jusho":"和歌山県和歌山市六十谷８９５","洪水":"◎","がけ崩れ、土石流及び地滑り":"◎","高潮":"","地震":"◎","津波":"◎","大規模な火事":"◎","内水氾濫":"◎","火山現象":"","指定避難所との重複":"◎","備考":""}},
{"type":"Feature","geometry":{"type":"Point","coordinates":[135.2037781000,34.2717718000]},"properties":{"Name":"有功中学校","Jusho":"和歌山県和歌山市六十谷１２３８","洪水":"◎","がけ崩れ、土石流及び地滑り":"◎","高潮":"","地震":"◎","津波":"◎","大規模な火事":"◎","内水氾濫":"◎","火山現象":"","指定避難所との重複":"◎","備考":""}},
{"type":"Feature","geometry":{"type":"Point","coordinates":[135.1980820000,34.2609301000]},"properties":{"Name":"市立和歌山高等学校","Jusho":"和歌山県和歌山市六十谷４５","洪水":"◎","がけ崩れ、土石流及び地滑り":"◎","高潮":"","地震":"◎","津波":"◎","大規模な火事":"◎","内水氾濫":"◎","火山現象":"","指定避難所との重複":"◎","備考":""}},
{"type":"Feature","geometry":{"type":"Point","coordinates":[135.1947635000,34.2655454000]},"properties":{"Name":"園部公園","Jusho":"和歌山県和歌山市園部２１２-１","洪水":"","がけ崩れ、土石流及び地滑り":"","高潮":"","地震":"◎","津波":"◎","大規模な火事":"◎","内水氾濫":"","火山現象":"","指定避難所との重複":"","備考":""}},
{"type":"Feature","geometry":{"type":"Point","coordinates":[135.2156770000,34.2639465000]},"properties":{"Name":"直川小学校","Jusho":"和歌山県和歌山市直川１２５３","洪水":"◎","がけ崩れ、土石流及び地滑り":"◎","高潮":"","地震":"◎","津波":"◎","大規模な火事":"◎","内水氾濫":"◎","火山現象":"","指定避難所との重複":"◎","備考":""}},
{"type":"Feature","geometry":{"type":"Point","coordinates":[135.2199340000,34.2596740000]},"properties":{"Name":"北コミュニティセンター","Jusho":"和歌山県和歌山市直川３２６-７","洪水":"◎","がけ崩れ、土石流及び地滑り":"◎","高潮":"","地震":"◎","津波":"◎","大規模な火事":"◎","内水氾濫":"◎","火山現象":"","指定避難所との重複":"◎","備考":""}},
{"type":"Feature","geometry":{"type":"Point","coordinates":[135.2560058000,34.2568664000]},"properties":{"Name":"川永小学校","Jusho":"和歌山県和歌山市楠本２８５","洪水":"◎","がけ崩れ、土石流及び地滑り":"◎","高潮":"","地震":"◎","津波":"◎","大規模な火事":"◎","内水氾濫":"◎","火山現象":"","指定避難所との重複":"◎","備考":""}},
{"type":"Feature","geometry":{"type":"Point","coordinates":[135.2538810000,34.2615677000]},"properties":{"Name":"川永団地公園","Jusho":"和歌山県和歌山市島２６-１０","洪水":"","がけ崩れ、土石流及び地滑り":"","高潮":"","地震":"◎","津波":"◎","大規模な火事":"◎","内水氾濫":"","火山現象":"","指定避難所との重複":"","備考":""}},
{"type":"Feature","geometry":{"type":"Point","coordinates":[135.2874994000,34.2435955000]},"properties":{"Name":"小倉小学校","Jusho":"和歌山県和歌山市新庄３４８","洪水":"◎","がけ崩れ、土石流及び地滑り":"◎","高潮":"","地震":"◎","津波":"◎","大規模な火事":"◎","内水氾濫":"◎","火山現象":"","指定避難所との重複":"◎","備考":""}},
{"type":"Feature","geometry":{"type":"Point","coordinates":[135.2896603000,34.2373091000]},"properties":{"Name":"県立和歌山高等学校","Jusho":"和歌山県和歌山市新庄１８８","洪水":"◎","がけ崩れ、土石流及び地滑り":"◎","高潮":"","地震":"◎","津波":"◎","大規模な火事":"◎","内水氾濫":"◎","火山現象":"","指定避難所との重複":"◎","備考":""}},
{"type":"Feature","geometry":{"type":"Point","coordinates":[135.2760053000,34.2432749000]},"properties":{"Name":"大垣内公園","Jusho":"和歌山県和歌山市大垣内７２０-１","洪水":"","がけ崩れ、土石流及び地滑り":"","高潮":"","地震":"◎","津波":"◎","大規模な火事":"◎","内水氾濫":"","火山現象":"","指定避難所との重複":"","備考":""}},
{"type":"Feature","geometry":{"type":"Point","coordinates":[135.2864642000,34.2373470000]},"properties":{"Name":"東田中公園","Jusho":"和歌山県和歌山市東田中１６０","洪水":"","がけ崩れ、土石流及び地滑り":"","高潮":"","地震":"◎","津波":"◎","大規模な火事":"◎","内水氾濫":"","火山現象":"","指定避難所との重複":"","備考":""}},
{"type":"Feature","geometry":{"type":"Point","coordinates":[135.0762646000,34.2748363000]},"properties":{"Name":"加太小学校（津波時は3階以上）","Jusho":"和歌山県和歌山市加太１２１０","洪水":"◎","がけ崩れ、土石流及び地滑り":"◎","高潮":"◎","地震":"◎","津波":"◎","大規模な火事":"◎","内水氾濫":"◎","火山現象":"","指定避難所との重複":"◎","備考":"津波時は3階以上"}},
{"type":"Feature","geometry":{"type":"Point","coordinates":[135.0773638000,34.2750821000]},"properties":{"Name":"加太中学校（津波時は3階以上）","Jusho":"和歌山県和歌山市加太２６９２-１","洪水":"◎","がけ崩れ、土石流及び地滑り":"◎","高潮":"◎","地震":"◎","津波":"◎","大規模な火事":"◎","内水氾濫":"◎","火山現象":"","指定避難所との重複":"◎","備考":"津波時は3階以上"}},
{"type":"Feature","geometry":{"type":"Point","coordinates":[135.0724703000,34.2928015000]},"properties":{"Name":"休暇村紀州加太","Jusho":"和歌山県和歌山市深山４８３","洪水":"◎","がけ崩れ、土石流及び地滑り":"◎","高潮":"","地震":"◎","津波":"◎","大規模な火事":"◎","内水氾濫":"◎","火山現象":"","指定避難所との重複":"◎","備考":""}},
{"type":"Feature","geometry":{"type":"Point","coordinates":[135.0767338000,34.2925376000]},"properties":{"Name":"休暇村紀州加太芝生園地","Jusho":"和歌山県和歌山市深山１８８-１","洪水":"","がけ崩れ、土石流及び地滑り":"","高潮":"","地震":"◎","津波":"◎","大規模な火事":"◎","内水氾濫":"","火山現象":"","指定避難所との重複":"","備考":""}},
{"type":"Feature","geometry":{"type":"Point","coordinates":[135.2685698000,34.2671359000]},"properties":{"Name":"山口小学校","Jusho":"和歌山県和歌山市里１４６","洪水":"◎","がけ崩れ、土石流及び地滑り":"◎","高潮":"","地震":"◎","津波":"◎","大規模な火事":"◎","内水氾濫":"◎","火山現象":"","指定避難所との重複":"◎","備考":""}},
{"type":"Feature","geometry":{"type":"Point","coordinates":[135.2623165000,34.2646648000]},"properties":{"Name":"山口西公園","Jusho":"和歌山県和歌山市山口西１００-２","洪水":"","がけ崩れ、土石流及び地滑り":"","高潮":"","地震":"◎","津波":"◎","大規模な火事":"◎","内水氾濫":"","火山現象":"","指定避難所との重複":"","備考":""}},
{"type":"Feature","geometry":{"type":"Point","coordinates":[135.2379056000,34.2668364000]},"properties":{"Name":"紀伊小学校","Jusho":"和歌山県和歌山市弘西３２１","洪水":"◎","がけ崩れ、土石流及び地滑り":"◎","高潮":"","地震":"◎","津波":"◎","大規模な火事":"◎","内水氾濫":"◎","火山現象":"","指定避難所との重複":"◎","備考":""}},
{"type":"Feature","geometry":{"type":"Point","coordinates":[135.2441437000,34.2712263000]},"properties":{"Name":"紀伊中学校","Jusho":"和歌山県和歌山市北野５４４-１","洪水":"◎","がけ崩れ、土石流及び地滑り":"◎","高潮":"","地震":"◎","津波":"◎","大規模な火事":"◎","内水氾濫":"◎","火山現象":"","指定避難所との重複":"◎","備考":""}},
{"type":"Feature","geometry":{"type":"Point","coordinates":[135.2423421000,34.2651562000]},"properties":{"Name":"弘西公園","Jusho":"和歌山県和歌山市弘西９２０-２","洪水":"","がけ崩れ、土石流及び地滑り":"","高潮":"","地震":"◎","津波":"◎","大規模な火事":"◎","内水氾濫":"","火山現象":"","指定避難所との重複":"","備考":""}},
{"type":"Feature","geometry":{"type":"Point","coordinates":[135.2515198000,34.2653675000]},"properties":{"Name":"上野公園","Jusho":"和歌山県和歌山市上野８７-３、８８-１","洪水":"","がけ崩れ、土石流及び地滑り":"","高潮":"","地震":"◎","津波":"◎","大規模な火事":"◎","内水氾濫":"","火山現象":"","指定避難所との重複":"","備考":""}},
{"type":"Feature","geometry":{"type":"Point","coordinates":[135.2427705000,34.2599569000]},"properties":{"Name":"鴨居川団地公園","Jusho":"和歌山県和歌山市北１０１-１７","洪水":"","がけ崩れ、土石流及び地滑り":"","高潮":"","地震":"◎","津波":"◎","大規模な火事":"◎","内水氾濫":"","火山現象":"","指定避難所との重複":"","備考":""}},
{"type":"Feature","geometry":{"type":"Point","coordinates":[135.1652794000,34.1993291000]},"properties":{"Name":"雑賀小学校（津波時は3階以上）","Jusho":"和歌山県和歌山市西浜１-４-４８","洪水":"◎","がけ崩れ、土石流及び地滑り":"◎","高潮":"","地震":"◎","津波":"◎","大規模な火事":"◎","内水氾濫":"◎","火山現象":"","指定避難所との重複":"◎","備考":"津波時は3階以上"}},
{"type":"Feature","geometry":{"type":"Point","coordinates":[135.1622911000,34.2045119000]},"properties":{"Name":"西浜中学校（津波時は3階以上）","Jusho":"和歌山県和歌山市西小二里１-６-１","洪水":"◎","がけ崩れ、土石流及び地滑り":"◎","高潮":"","地震":"◎","津波":"◎","大規模な火事":"◎","内水氾濫":"◎","火山現象":"","指定避難所との重複":"◎","備考":"津波時は3階以上"}},
{"type":"Feature","geometry":{"type":"Point","coordinates":[135.1638779000,34.1984133000]},"properties":{"Name":"星林高等学校（津波時は3階以上）","Jusho":"和歌山県和歌山市西浜２-９-９","洪水":"◎","がけ崩れ、土石流及び地滑り":"◎","高潮":"","地震":"◎","津波":"◎","大規模な火事":"◎","内水氾濫":"◎","火山現象":"","指定避難所との重複":"◎","備考":"津波時は3階以上"}},
{"type":"Feature","geometry":{"type":"Point","coordinates":[135.1606507000,34.2016725000]},"properties":{"Name":"和歌山工業高等学校","Jusho":"和歌山県和歌山市西浜３-６-１","洪水":"◎","がけ崩れ、土石流及び地滑り":"◎","高潮":"","地震":"◎","津波":"◎","大規模な火事":"◎","内水氾濫":"◎","火山現象":"","指定避難所との重複":"◎","備考":""}},
{"type":"Feature","geometry":{"type":"Point","coordinates":[135.1584111000,34.1950847000]},"properties":{"Name":"松下体育館","Jusho":"和歌山県和歌山市西浜１０３７","洪水":"◎","がけ崩れ、土石流及び地滑り":"◎","高潮":"◎","地震":"◎","津波":"","大規模な火事":"◎","内水氾濫":"◎","火山現象":"","指定避難所との重複":"◎","備考":""}},
{"type":"Feature","geometry":{"type":"Point","coordinates":[135.1725193000,34.1993303000]},"properties":{"Name":"秋葉山公園","Jusho":"和歌山県和歌山市秋葉町１４","洪水":"","がけ崩れ、土石流及び地滑り":"","高潮":"","地震":"◎","津波":"◎","大規模な火事":"◎","内水氾濫":"","火山現象":"","指定避難所との重複":"","備考":""}},
{"type":"Feature","geometry":{"type":"Point","coordinates":[135.1649019000,34.1981962000]},"properties":{"Name":"高津公園","Jusho":"和歌山県和歌山市関戸３-７７５-１","洪水":"","がけ崩れ、土石流及び地滑り":"","高潮":"","地震":"◎","津波":"◎","大規模な火事":"◎","内水氾濫":"","火山現象":"","指定避難所との重複":"","備考":""}},
{"type":"Feature","geometry":{"type":"Point","coordinates":[135.1800991000,34.1978619000]},"properties":{"Name":"和歌川終末処理場(屋外)","Jusho":"和歌山県和歌山市塩屋５-３-４１","洪水":"","がけ崩れ、土石流及び地滑り":"","高潮":"","地震":"◎","津波":"","大規模な火事":"◎","内水氾濫":"","火山現象":"","指定避難所との重複":"","備考":""}},
{"type":"Feature","geometry":{"type":"Point","coordinates":[135.1795920000,34.2015620000]},"properties":{"Name":"ライオンズマンション和歌山塩屋（２階以上エレベーター前廊下部分）","Jusho":"和歌山県和歌山市塩屋５-２-３３","洪水":"","がけ崩れ、土石流及び地滑り":"","高潮":"","地震":"","津波":"◎","大規模な火事":"","内水氾濫":"","火山現象":"","指定避難所との重複":"","備考":""}},
{"type":"Feature","geometry":{"type":"Point","coordinates":[135.1658450000,34.2019060000]},"properties":{"Name":"県営住宅西浜団地（４階以上の共用部分）","Jusho":"和歌山県和歌山市和歌山市西浜１-６-４０","洪水":"","がけ崩れ、土石流及び地滑り":"","高潮":"","地震":"","津波":"◎","大規模な火事":"","内水氾濫":"","火山現象":"","指定避難所との重複":"","備考":""}},
{"type":"Feature","geometry":{"type":"Point","coordinates":[135.1486740000,34.2094110000]},"properties":{"Name":"中央卸売市場（共用部分）","Jusho":"和歌山県和歌山市西浜１６６０-４０１","洪水":"","がけ崩れ、土石流及び地滑り":"","高潮":"","地震":"","津波":"◎","大規模な火事":"","内水氾濫":"","火山現象":"","指定避難所との重複":"","備考":""}},
{"type":"Feature","geometry":{"type":"Point","coordinates":[135.1715510000,34.1982811400]},"properties":{"Name":"秋葉山公園県民水泳場","Jusho":"和歌山県和歌山市秋葉町４番１１号","洪水":"◎","がけ崩れ、土石流及び地滑り":"◎","高潮":"","地震":"◎","津波":"◎","大規模な火事":"◎","内水氾濫":"◎","火山現象":"","指定避難所との重複":"◎","備考":""}},
{"type":"Feature","geometry":{"type":"Point","coordinates":[135.1668662000,34.1913250000]},"properties":{"Name":"和歌浦小学校（津波時は3階以上）","Jusho":"和歌山県和歌山市和歌浦西２-１-１８","洪水":"◎","がけ崩れ、土石流及び地滑り":"◎","高潮":"◎","地震":"◎","津波":"◎","大規模な火事":"◎","内水氾濫":"◎","火山現象":"","指定避難所との重複":"◎","備考":"津波時は3階以上"}},
{"type":"Feature","geometry":{"type":"Point","coordinates":[135.1778110000,34.1953270000]},"properties":{"Name":"和歌川苑（３階ホール及び共用部分）","Jusho":"和歌山県和歌山市和歌川町５-４４","洪水":"","がけ崩れ、土石流及び地滑り":"","高潮":"","地震":"","津波":"◎","大規模な火事":"","内水氾濫":"","火山現象":"","指定避難所との重複":"","備考":""}},
{"type":"Feature","geometry":{"type":"Point","coordinates":[135.1751470000,34.1906860000]},"properties":{"Name":"インペリアル和歌浦（２階以上の共用部分）","Jusho":"和歌山県和歌山市和歌浦東二丁目８-１５","洪水":"","がけ崩れ、土石流及び地滑り":"","高潮":"","地震":"","津波":"◎","大規模な火事":"","内水氾濫":"","火山現象":"","指定避難所との重複":"","備考":""}},
{"type":"Feature","geometry":{"type":"Point","coordinates":[135.1723127000,34.1971275400]},"properties":{"Name":"秋葉山配水池（敷地内）","Jusho":"和歌山県和歌山市和歌浦東1丁目３９３-９","洪水":"","がけ崩れ、土石流及び地滑り":"","高潮":"","地震":"","津波":"◎","大規模な火事":"","内水氾濫":"","火山現象":"","指定避難所との重複":"","備考":""}},
{"type":"Feature","geometry":{"type":"Point","coordinates":[135.1672230000,34.1933240000]},"properties":{"Name":"和歌公園（権現山）（敷地内）","Jusho":"和歌山県和歌山市和歌浦","洪水":"","がけ崩れ、土石流及び地滑り":"","高潮":"","地震":"","津波":"◎","大規模な火事":"","内水氾濫":"","火山現象":"","指定避難所との重複":"","備考":""}},
{"type":"Feature","geometry":{"type":"Point","coordinates":[135.1712500000,34.1907200000]},"properties":{"Name":"和歌公園（津屋公園、城跡山地区）（敷地内）","Jusho":"和歌山県和歌山市和歌浦","洪水":"","がけ崩れ、土石流及び地滑り":"","高潮":"","地震":"","津波":"◎","大規模な火事":"","内水氾濫":"","火山現象":"","指定避難所との重複":"","備考":""}},
{"type":"Feature","geometry":{"type":"Point","coordinates":[135.1716840000,34.1878400000]},"properties":{"Name":"和歌公園（奠供山地区）（敷地内）","Jusho":"和歌山県和歌山市和歌浦","洪水":"","がけ崩れ、土石流及び地滑り":"","高潮":"","地震":"","津波":"◎","大規模な火事":"","内水氾濫":"","火山現象":"","指定避難所との重複":"","備考":""}},
{"type":"Feature","geometry":{"type":"Point","coordinates":[135.1729870000,34.1873160000]},"properties":{"Name":"和歌公園（鏡山地区）（敷地内）","Jusho":"和歌山県和歌山市和歌浦","洪水":"","がけ崩れ、土石流及び地滑り":"","高潮":"","地震":"","津波":"◎","大規模な火事":"","内水氾濫":"","火山現象":"","指定避難所との重複":"","備考":""}},
{"type":"Feature","geometry":{"type":"Point","coordinates":[135.1565460000,34.1849710000]},"properties":{"Name":"和歌の浦温泉　萬波　（駐車場）","Jusho":"和歌山県和歌山市新和歌浦２-１０","洪水":"","がけ崩れ、土石流及び地滑り":"","高潮":"","地震":"","津波":"◎","大規模な火事":"","内水氾濫":"","火山現象":"","指定避難所との重複":"","備考":""}},
{"type":"Feature","geometry":{"type":"Point","coordinates":[135.1907148000,34.1787953000]},"properties":{"Name":"名草小学校（津波時は3階以上","Jusho":"和歌山県和歌山市紀三井寺２４０","洪水":"◎","がけ崩れ、土石流及び地滑り":"◎","高潮":"","地震":"◎","津波":"◎","大規模な火事":"◎","内水氾濫":"◎","火山現象":"","指定避難所との重複":"◎","備考":"津波時は3階以上"}},
{"type":"Feature","geometry":{"type":"Point","coordinates":[135.1962093000,34.1706047000]},"properties":{"Name":"浜宮小学校（津波時は3階以上","Jusho":"和歌山県和歌山市内原７７８-１６","洪水":"◎","がけ崩れ、土石流及び地滑り":"◎","高潮":"","地震":"◎","津波":"◎","大規模な火事":"◎","内水氾濫":"◎","火山現象":"","指定避難所との重複":"◎","備考":"津波時は3階以上"}},
{"type":"Feature","geometry":{"type":"Point","coordinates":[135.1803216000,34.1854788000]},"properties":{"Name":"明和中学校","Jusho":"和歌山県和歌山市紀三井寺８３２-１","洪水":"◎","がけ崩れ、土石流及び地滑り":"◎","高潮":"","地震":"◎","津波":"","大規模な火事":"◎","内水氾濫":"◎","火山現象":"","指定避難所との重複":"◎","備考":""}},
{"type":"Feature","geometry":{"type":"Point","coordinates":[135.1903897000,34.1948376500]},"properties":{"Name":"県立医科大学保健看護学部体育館","Jusho":"和歌山県和歌山市三葛５８０","洪水":"◎","がけ崩れ、土石流及び地滑り":"◎","高潮":"","地震":"◎","津波":"","大規模な火事":"◎","内水氾濫":"◎","火山現象":"","指定避難所との重複":"◎","備考":""}},
{"type":"Feature","geometry":{"type":"Point","coordinates":[135.1989821000,34.1698877300]},"properties":{"Name":"紀三井寺児童遊園東","Jusho":"和歌山県和歌山市紀三井寺１-５６","洪水":"","がけ崩れ、土石流及び地滑り":"","高潮":"","地震":"◎","津波":"","大規模な火事":"◎","内水氾濫":"","火山現象":"","指定避難所との重複":"","備考":""}},
{"type":"Feature","geometry":{"type":"Point","coordinates":[135.1956669000,34.1680413400]},"properties":{"Name":"紀三井寺児童遊園西","Jusho":"和歌山県和歌山市紀三井寺１-２０４","洪水":"","がけ崩れ、土石流及び地滑り":"","高潮":"","地震":"◎","津波":"","大規模な火事":"◎","内水氾濫":"","火山現象":"","指定避難所との重複":"","備考":""}},
{"type":"Feature","geometry":{"type":"Point","coordinates":[135.1907360000,34.1666730000]},"properties":{"Name":"紀三井寺公園","Jusho":"和歌山県和歌山市毛見２００","洪水":"","がけ崩れ、土石流及び地滑り":"","高潮":"","地震":"◎","津波":"◎","大規模な火事":"◎","内水氾濫":"","火山現象":"","指定避難所との重複":"","備考":""}},
{"type":"Feature","geometry":{"type":"Point","coordinates":[135.1858720000,34.1575620000]},"properties":{"Name":"和歌山県子ども・女性・障害者相談センター（３階多目的ホール）","Jusho":"和歌山県和歌山市１４３７-２１８","洪水":"","がけ崩れ、土石流及び地滑り":"","高潮":"","地震":"","津波":"◎","大規模な火事":"","内水氾濫":"","火山現象":"","指定避難所との重複":"","備考":""}},
{"type":"Feature","geometry":{"type":"Point","coordinates":[135.1851280000,34.1579870000]},"properties":{"Name":"琴の浦リハビリテーションセンター（３階以上）","Jusho":"和歌山県和歌山市毛見１４５１","洪水":"","がけ崩れ、土石流及び地滑り":"","高潮":"","地震":"","津波":"◎","大規模な火事":"","内水氾濫":"","火山現象":"","指定避難所との重複":"","備考":""}},
{"type":"Feature","geometry":{"type":"Point","coordinates":[135.1909460000,34.1667500000]},"properties":{"Name":"紀三井寺陸上競技場（陸上競技場スタンド内）","Jusho":"和歌山県和歌山市紀三井寺１２０１","洪水":"","がけ崩れ、土石流及び地滑り":"","高潮":"","地震":"","津波":"◎","大規模な火事":"","内水氾濫":"","火山現象":"","指定避難所との重複":"","備考":"陸上競技場スタンド"}},
{"type":"Feature","geometry":{"type":"Point","coordinates":[135.1880800000,34.1958800000]},"properties":{"Name":"中央終末処理場（屋上サッカー場）","Jusho":"和歌山県和歌山市三葛５１０-１","洪水":"","がけ崩れ、土石流及び地滑り":"","高潮":"","地震":"","津波":"◎","大規模な火事":"","内水氾濫":"","火山現象":"","指定避難所との重複":"","備考":"屋上"}},
{"type":"Feature","geometry":{"type":"Point","coordinates":[135.1847240000,34.1813400000]},"properties":{"Name":"紀三井寺苑（２階以上の共用部分）","Jusho":"和歌山県和歌山市紀三井寺５６０-２","洪水":"","がけ崩れ、土石流及び地滑り":"","高潮":"","地震":"","津波":"◎","大規模な火事":"","内水氾濫":"","火山現象":"","指定避難所との重複":"","備考":""}},
{"type":"Feature","geometry":{"type":"Point","coordinates":[135.1843910000,34.1761100000]},"properties":{"Name":"紀州技研工業株式会社（Ｈ棟屋上）","Jusho":"和歌山県和歌山市布引４６６","洪水":"","がけ崩れ、土石流及び地滑り":"","高潮":"","地震":"","津波":"◎","大規模な火事":"","内水氾濫":"","火山現象":"","指定避難所との重複":"","備考":""}},
{"type":"Feature","geometry":{"type":"Point","coordinates":[135.1865800000,34.1638200000]},"properties":{"Name":"ファシナシオン毛見（２階以上の共用部分）","Jusho":"和歌山県和歌山市毛見１０-２","洪水":"","がけ崩れ、土石流及び地滑り":"","高潮":"","地震":"","津波":"◎","大規模な火事":"","内水氾濫":"","火山現象":"","指定避難所との重複":"","備考":""}},
{"type":"Feature","geometry":{"type":"Point","coordinates":[135.1860190000,34.1640720000]},"properties":{"Name":"ファシナシオン毛見Ⅱ（２階以上の共用部分）","Jusho":"和歌山県和歌山市毛見８-１","洪水":"","がけ崩れ、土石流及び地滑り":"","高潮":"","地震":"","津波":"◎","大規模な火事":"","内水氾濫":"","火山現象":"","指定避難所との重複":"","備考":""}},
{"type":"Feature","geometry":{"type":"Point","coordinates":[135.1795860000,34.1556680000]},"properties":{"Name":"ロイヤルパインズホテル（２階宴会場）","Jusho":"和歌山県和歌山市毛見１５１７","洪水":"","がけ崩れ、土石流及び地滑り":"","高潮":"","地震":"","津波":"◎","大規模な火事":"","内水氾濫":"","火山現象":"","指定避難所との重複":"","備考":""}},
{"type":"Feature","geometry":{"type":"Point","coordinates":[135.1860350000,34.1850590000]},"properties":{"Name":"紀三井寺ガーデンホテルはやし（５階以上）","Jusho":"和歌山県和歌山市和歌山市紀三井寺７５６","洪水":"","がけ崩れ、土石流及び地滑り":"","高潮":"","地震":"","津波":"◎","大規模な火事":"","内水氾濫":"","火山現象":"","指定避難所との重複":"","備考":""}},
{"type":"Feature","geometry":{"type":"Point","coordinates":[135.1859330000,34.1916240000]},"properties":{"Name":"ローパス三葛（５階の共用部分）","Jusho":"和歌山県和歌山市三葛２４７-１","洪水":"","がけ崩れ、土石流及び地滑り":"","高潮":"","地震":"","津波":"◎","大規模な火事":"","内水氾濫":"","火山現象":"","指定避難所との重複":"","備考":""}},
{"type":"Feature","geometry":{"type":"Point","coordinates":[135.1999671000,34.1707772300]},"properties":{"Name":"雇用促進住宅（５階の共用部分）","Jusho":"和歌山県和歌山市紀三井寺１-２８、紀三井寺３４２","洪水":"","がけ崩れ、土石流及び地滑り":"","高潮":"","地震":"","津波":"◎","大規模な火事":"","内水氾濫":"","火山現象":"","指定避難所との重複":"","備考":""}},
{"type":"Feature","geometry":{"type":"Point","coordinates":[135.1871590000,34.1900670000]},"properties":{"Name":"メトロヒルズ（屋上駐車場、立体駐車場）","Jusho":"和歌山県和歌山市三葛１３７-１","洪水":"","がけ崩れ、土石流及び地滑り":"","高潮":"","地震":"","津波":"◎","大規模な火事":"","内水氾濫":"","火山現象":"","指定避難所との重複":"","備考":"屋上駐車場"}},
{"type":"Feature","geometry":{"type":"Point","coordinates":[135.2027780000,34.1695060000]},"properties":{"Name":"本久寺（山門前及び駐車場）","Jusho":"和歌山県和歌山市毛見４２３-１","洪水":"","がけ崩れ、土石流及び地滑り":"","高潮":"","地震":"","津波":"◎","大規模な火事":"","内水氾濫":"","火山現象":"","指定避難所との重複":"","備考":""}},
{"type":"Feature","geometry":{"type":"Point","coordinates":[135.1900270000,34.1851670000]},"properties":{"Name":"紀三井寺　護国院（境内一円）","Jusho":"和歌山県和歌山市和歌山市紀三井寺１２０１","洪水":"","がけ崩れ、土石流及び地滑り":"","高潮":"","地震":"","津波":"◎","大規模な火事":"","内水氾濫":"","火山現象":"","指定避難所との重複":"","備考":""}},
{"type":"Feature","geometry":{"type":"Point","coordinates":[135.1897580000,34.1824760000]},"properties":{"Name":"名草山霊園（敷地内）","Jusho":"和歌山県和歌山市紀三井寺１３０１-１","洪水":"","がけ崩れ、土石流及び地滑り":"","高潮":"","地震":"","津波":"◎","大規模な火事":"","内水氾濫":"","火山現象":"","指定避難所との重複":"","備考":""}},
{"type":"Feature","geometry":{"type":"Point","coordinates":[135.1506617000,34.1925148000]},"properties":{"Name":"雑賀崎小学校","Jusho":"和歌山県和歌山市西浜１１４８","洪水":"◎","がけ崩れ、土石流及び地滑り":"◎","高潮":"◎","地震":"◎","津波":"","大規模な火事":"◎","内水氾濫":"◎","火山現象":"","指定避難所との重複":"◎","備考":""}},
{"type":"Feature","geometry":{"type":"Point","coordinates":[135.1482910000,34.1925820000]},"properties":{"Name":"創価学会南和歌山文化会館（敷地内）","Jusho":"和歌山県和歌山市雑賀崎６-４","洪水":"","がけ崩れ、土石流及び地滑り":"","高潮":"","地震":"","津波":"◎","大規模な火事":"","内水氾濫":"","火山現象":"","指定避難所との重複":"","備考":""}},
{"type":"Feature","geometry":{"type":"Point","coordinates":[135.1502130000,34.1856600000]},"properties":{"Name":"わかうら園（指定敷地内）","Jusho":"和歌山県和歌山市田野１７５","洪水":"","がけ崩れ、土石流及び地滑り":"","高潮":"","地震":"","津波":"◎","大規模な火事":"","内水氾濫":"","火山現象":"","指定避難所との重複":"","備考":""}},
{"type":"Feature","geometry":{"type":"Point","coordinates":[135.1498130000,34.1873960000]},"properties":{"Name":"漁火の宿　シーサイド観潮（駐車場）","Jusho":"和歌山県和歌山市田野８２","洪水":"","がけ崩れ、土石流及び地滑り":"","高潮":"","地震":"","津波":"◎","大規模な火事":"","内水氾濫":"","火山現象":"","指定避難所との重複":"","備考":""}},
{"type":"Feature","geometry":{"type":"Point","coordinates":[135.1453390000,34.1916345000]},"properties":{"Name":"沖見の里（旧雑賀崎小学校跡地）","Jusho":"和歌山県和歌山市雑賀崎１６１２番初め１１筆 （1612、1712-2、 1714、 1715、 1716、 1717、 1723、 1724、 1725、 1726、 1727）","洪水":"","がけ崩れ、土石流及び地滑り":"","高潮":"","地震":"","津波":"◎","大規模な火事":"","内水氾濫":"","火山現象":"","指定避難所との重複":"","備考":""}},
{"type":"Feature","geometry":{"type":"Point","coordinates":[135.2063880000,34.1724550000]},"properties":{"Name":"室山古墳登山道周辺","Jusho":"和歌山県海南市黒江47付近","洪水":"","がけ崩れ、土石流及び地滑り":"","高潮":"","地震":"","津波":"◎","大規模な火事":"","内水氾濫":"","火山現象":"","指定避難所との重複":"","備考":""}},
{"type":"Feature","geometry":{"type":"Point","coordinates":[135.2055480000,34.1691550000]},"properties":{"Name":"室山地区高台","Jusho":"和歌山県海南市黒江127付近","洪水":"","がけ崩れ、土石流及び地滑り":"","高潮":"","地震":"","津波":"◎","大規模な火事":"","内水氾濫":"","火山現象":"","指定避難所との重複":"","備考":""}},
{"type":"Feature","geometry":{"type":"Point","coordinates":[135.2074294000,34.1686702000]},"properties":{"Name":"室山保育所","Jusho":"和歌山県海南市黒江222","洪水":"◎","がけ崩れ、土石流及び地滑り":"◎","高潮":"","地震":"◎","津波":"◎","大規模な火事":"","内水氾濫":"","火山現象":"","指定避難所との重複":"◎","備考":""}},
{"type":"Feature","geometry":{"type":"Point","coordinates":[135.2076538000,34.1664730500]},"properties":{"Name":"室山配水池周辺","Jusho":"和歌山県海南市黒江265","洪水":"","がけ崩れ、土石流及び地滑り":"","高潮":"","地震":"","津波":"◎","大規模な火事":"","内水氾濫":"","火山現象":"","指定避難所との重複":"","備考":""}},
{"type":"Feature","geometry":{"type":"Point","coordinates":[135.2059340000,34.1642930000]},"properties":{"Name":"中言神社周辺","Jusho":"和歌山県海南市黒江931","洪水":"","がけ崩れ、土石流及び地滑り":"","高潮":"","地震":"","津波":"◎","大規模な火事":"","内水氾濫":"","火山現象":"","指定避難所との重複":"","備考":""}},
{"type":"Feature","geometry":{"type":"Point","coordinates":[135.2043260000,34.1634860000]},"properties":{"Name":"浄國寺周辺","Jusho":"和歌山県海南市黒江976","洪水":"","がけ崩れ、土石流及び地滑り":"","高潮":"","地震":"","津波":"◎","大規模な火事":"","内水氾濫":"","火山現象":"","指定避難所との重複":"","備考":""}},
{"type":"Feature","geometry":{"type":"Point","coordinates":[135.2080042000,34.1684033200]},"properties":{"Name":"室山保育所周辺","Jusho":"和歌山県海南市黒江1204","洪水":"","がけ崩れ、土石流及び地滑り":"","高潮":"","地震":"","津波":"◎","大規模な火事":"","内水氾濫":"","火山現象":"","指定避難所との重複":"","備考":""}},
{"type":"Feature","geometry":{"type":"Point","coordinates":[135.2053590000,34.1603120000]},"properties":{"Name":"池崎山西側周辺","Jusho":"和歌山県海南市黒江1237付近","洪水":"","がけ崩れ、土石流及び地滑り":"","高潮":"","地震":"","津波":"◎","大規模な火事":"","内水氾濫":"","火山現象":"","指定避難所との重複":"","備考":""}},
{"type":"Feature","geometry":{"type":"Point","coordinates":[135.2031070000,34.1625600000]},"properties":{"Name":"招魂山ちびっ子広場周辺","Jusho":"和歌山県海南市船尾19-3","洪水":"","がけ崩れ、土石流及び地滑り":"","高潮":"","地震":"","津波":"◎","大規模な火事":"","内水氾濫":"","火山現象":"","指定避難所との重複":"","備考":""}},
{"type":"Feature","geometry":{"type":"Point","coordinates":[135.2002950000,34.1558680000]},"properties":{"Name":"新日鐵住金避難マウンド","Jusho":"和歌山県海南市船尾260-100","洪水":"","がけ崩れ、土石流及び地滑り":"","高潮":"","地震":"","津波":"◎","大規模な火事":"","内水氾濫":"","火山現象":"","指定避難所との重複":"","備考":""}},
{"type":"Feature","geometry":{"type":"Point","coordinates":[135.1995600000,34.1622670000]},"properties":{"Name":"とんだ池周辺","Jusho":"和歌山県海南市船尾297付近","洪水":"","がけ崩れ、土石流及び地滑り":"","高潮":"","地震":"","津波":"◎","大規模な火事":"","内水氾濫":"","火山現象":"","指定避難所との重複":"","備考":""}},
{"type":"Feature","geometry":{"type":"Point","coordinates":[135.1980360000,34.1610030000]},"properties":{"Name":"㈱キンタロー駐車場周辺","Jusho":"和歌山県海南市船尾317-2","洪水":"","がけ崩れ、土石流及び地滑り":"","高潮":"","地震":"","津波":"◎","大規模な火事":"","内水氾濫":"","火山現象":"","指定避難所との重複":"","備考":""}},
{"type":"Feature","geometry":{"type":"Point","coordinates":[135.1959580000,34.1618900000]},"properties":{"Name":"船尾山ハイキングコース周辺","Jusho":"和歌山県海南市船尾342-7付近","洪水":"","がけ崩れ、土石流及び地滑り":"","高潮":"","地震":"","津波":"◎","大規模な火事":"","内水氾濫":"","火山現象":"","指定避難所との重複":"","備考":""}},
{"type":"Feature","geometry":{"type":"Point","coordinates":[135.1937290000,34.1605400000]},"properties":{"Name":"ホテル裏側周辺","Jusho":"和歌山県海南市船尾398-1","洪水":"","がけ崩れ、土石流及び地滑り":"","高潮":"","地震":"","津波":"◎","大規模な火事":"","内水氾濫":"","火山現象":"","指定避難所との重複":"","備考":""}},
{"type":"Feature","geometry":{"type":"Point","coordinates":[135.2012050000,34.1628370000]},"properties":{"Name":"妙覚寺周辺","Jusho":"和歌山県海南市船尾622","洪水":"","がけ崩れ、土石流及び地滑り":"","高潮":"","地震":"","津波":"◎","大規模な火事":"","内水氾濫":"","火山現象":"","指定避難所との重複":"","備考":""}},
{"type":"Feature","geometry":{"type":"Point","coordinates":[135.2048312000,34.1576902300]},"properties":{"Name":"城山地区集会所周辺","Jusho":"和歌山県海南市日方149-1","洪水":"","がけ崩れ、土石流及び地滑り":"","高潮":"","地震":"","津波":"◎","大規模な火事":"","内水氾濫":"","火山現象":"","指定避難所との重複":"","備考":""}},
{"type":"Feature","geometry":{"type":"Point","coordinates":[135.2134030000,34.1599710000]},"properties":{"Name":"柿本神社","Jusho":"和歌山県海南市日方600","洪水":"","がけ崩れ、土石流及び地滑り":"","高潮":"","地震":"","津波":"◎","大規模な火事":"","内水氾濫":"","火山現象":"","指定避難所との重複":"","備考":""}},
{"type":"Feature","geometry":{"type":"Point","coordinates":[135.2178083000,34.1618361100]},"properties":{"Name":"元火葬場周辺","Jusho":"和歌山県海南市日方788付近","洪水":"","がけ崩れ、土石流及び地滑り":"","高潮":"","地震":"","津波":"◎","大規模な火事":"","内水氾濫":"","火山現象":"","指定避難所との重複":"","備考":""}},
{"type":"Feature","geometry":{"type":"Point","coordinates":[135.2180450000,34.1602090000]},"properties":{"Name":"神田地蔵寺","Jusho":"和歌山県海南市日方828付近","洪水":"","がけ崩れ、土石流及び地滑り":"","高潮":"","地震":"","津波":"◎","大規模な火事":"","内水氾濫":"","火山現象":"","指定避難所との重複":"","備考":""}},
{"type":"Feature","geometry":{"type":"Point","coordinates":[135.2109942000,34.1595314400]},"properties":{"Name":"公園地山","Jusho":"和歌山県海南市日方1307","洪水":"","がけ崩れ、土石流及び地滑り":"","高潮":"","地震":"","津波":"◎","大規模な火事":"","内水氾濫":"","火山現象":"","指定避難所との重複":"","備考":""}},
{"type":"Feature","geometry":{"type":"Point","coordinates":[135.2199680000,34.1601940000]},"properties":{"Name":"上神田地区高台周辺","Jusho":"和歌山県海南市日方1397付近","洪水":"","がけ崩れ、土石流及び地滑り":"","高潮":"","地震":"","津波":"◎","大規模な火事":"","内水氾濫":"","火山現象":"","指定避難所との重複":"","備考":""}},
{"type":"Feature","geometry":{"type":"Point","coordinates":[135.2216000000,34.1608760000]},"properties":{"Name":"日方集会所奥高台","Jusho":"和歌山県海南市日方1401付近","洪水":"","がけ崩れ、土石流及び地滑り":"","高潮":"","地震":"","津波":"◎","大規模な火事":"","内水氾濫":"","火山現象":"","指定避難所との重複":"","備考":""}},
{"type":"Feature","geometry":{"type":"Point","coordinates":[135.2159780000,34.1482600000]},"properties":{"Name":"日限地蔵周辺","Jusho":"和歌山県海南市鳥居284","洪水":"","がけ崩れ、土石流及び地滑り":"","高潮":"","地震":"","津波":"◎","大規模な火事":"","内水氾濫":"","火山現象":"","指定避難所との重複":"","備考":""}},
{"type":"Feature","geometry":{"type":"Point","coordinates":[135.2187100000,34.1466340000]},"properties":{"Name":"寶性院周辺","Jusho":"和歌山県海南市鳥居420-3","洪水":"","がけ崩れ、土石流及び地滑り":"","高潮":"","地震":"","津波":"◎","大規模な火事":"","内水氾濫":"","火山現象":"","指定避難所との重複":"","備考":""}},
{"type":"Feature","geometry":{"type":"Point","coordinates":[135.2211780000,34.1492510000]},"properties":{"Name":"小中地蔵周辺","Jusho":"和歌山県海南市鳥居518付近","洪水":"","がけ崩れ、土石流及び地滑り":"","高潮":"","地震":"","津波":"◎","大規模な火事":"","内水氾濫":"","火山現象":"","指定避難所との重複":"","備考":""}},
{"type":"Feature","geometry":{"type":"Point","coordinates":[135.2093950000,34.1443250000]},"properties":{"Name":"藤白神社周辺","Jusho":"和歌山県海南市藤白466","洪水":"","がけ崩れ、土石流及び地滑り":"","高潮":"","地震":"","津波":"◎","大規模な火事":"","内水氾濫":"","火山現象":"","指定避難所との重複":"","備考":""}},
{"type":"Feature","geometry":{"type":"Point","coordinates":[135.1934340000,34.1412020000]},"properties":{"Name":"国道４２号冷水駅前バス停周辺","Jusho":"和歌山県海南市冷水308付近","洪水":"","がけ崩れ、土石流及び地滑り":"","高潮":"","地震":"","津波":"◎","大規模な火事":"","内水氾濫":"","火山現象":"","指定避難所との重複":"","備考":""}},
{"type":"Feature","geometry":{"type":"Point","coordinates":[135.1916400000,34.1412350000]},"properties":{"Name":"国道４２号冷水中バス停周辺","Jusho":"和歌山県海南市冷水379付近","洪水":"","がけ崩れ、土石流及び地滑り":"","高潮":"","地震":"","津波":"◎","大規模な火事":"","内水氾濫":"","火山現象":"","指定避難所との重複":"","備考":""}},
{"type":"Feature","geometry":{"type":"Point","coordinates":[135.1893530000,34.1412530000]},"properties":{"Name":"国道４２号冷水バス停周辺","Jusho":"和歌山県海南市冷水598付近","洪水":"","がけ崩れ、土石流及び地滑り":"","高潮":"","地震":"","津波":"◎","大規模な火事":"","内水氾濫":"","火山現象":"","指定避難所との重複":"","備考":""}},
{"type":"Feature","geometry":{"type":"Point","coordinates":[135.2221380000,34.1571170000]},"properties":{"Name":"井田地蔵寺","Jusho":"和歌山県海南市井田102付近","洪水":"","がけ崩れ、土石流及び地滑り":"","高潮":"","地震":"","津波":"◎","大規模な火事":"","内水氾濫":"","火山現象":"","指定避難所との重複":"","備考":""}},
{"type":"Feature","geometry":{"type":"Point","coordinates":[135.2267920000,34.1563540000]},"properties":{"Name":"春日神社周辺","Jusho":"和歌山県海南市大野中340","洪水":"","がけ崩れ、土石流及び地滑り":"","高潮":"","地震":"","津波":"◎","大規模な火事":"","内水氾濫":"","火山現象":"","指定避難所との重複":"","備考":""}},
{"type":"Feature","geometry":{"type":"Point","coordinates":[135.2327780000,34.1580030000]},"properties":{"Name":"わんぱく公園周辺","Jusho":"和歌山県海南市大野中995-2付近","洪水":"","がけ崩れ、土石流及び地滑り":"","高潮":"","地震":"","津波":"◎","大規模な火事":"","内水氾濫":"","火山現象":"","指定避難所との重複":"","備考":""}},
{"type":"Feature","geometry":{"type":"Point","coordinates":[135.2257920000,34.1565780000]},"properties":{"Name":"春日ふれあい広場","Jusho":"和歌山県海南市大野中1056付近","洪水":"","がけ崩れ、土石流及び地滑り":"","高潮":"","地震":"","津波":"◎","大規模な火事":"","内水氾濫":"","火山現象":"","指定避難所との重複":"","備考":""}},
{"type":"Feature","geometry":{"type":"Point","coordinates":[135.2236450000,34.1550440000]},"properties":{"Name":"井田児童会館周辺","Jusho":"和歌山県海南市大野中1056-6","洪水":"","がけ崩れ、土石流及び地滑り":"","高潮":"","地震":"","津波":"◎","大規模な火事":"","内水氾濫":"","火山現象":"","指定避難所との重複":"","備考":""}},
{"type":"Feature","geometry":{"type":"Point","coordinates":[135.2305660000,34.1564445700]},"properties":{"Name":"総合体育館周辺","Jusho":"和歌山県海南市大野中1106","洪水":"","がけ崩れ、土石流及び地滑り":"","高潮":"","地震":"","津波":"◎","大規模な火事":"","内水氾濫":"","火山現象":"","指定避難所との重複":"","備考":""}},
{"type":"Feature","geometry":{"type":"Point","coordinates":[135.2280930000,34.1493370000]},"properties":{"Name":"大野小学校","Jusho":"和歌山県海南市山田91-1","洪水":"◎","がけ崩れ、土石流及び地滑り":"◎","高潮":"","地震":"◎","津波":"◎","大規模な火事":"","内水氾濫":"","火山現象":"","指定避難所との重複":"◎","備考":""}},
{"type":"Feature","geometry":{"type":"Point","coordinates":[135.2408930000,34.1711600000]},"properties":{"Name":"且来八幡神社東参道","Jusho":"和歌山県海南市且来625付近","洪水":"","がけ崩れ、土石流及び地滑り":"","高潮":"","地震":"","津波":"◎","大規模な火事":"","内水氾濫":"","火山現象":"","指定避難所との重複":"","備考":""}},
{"type":"Feature","geometry":{"type":"Point","coordinates":[135.2298010000,34.1711010000]},"properties":{"Name":"且来招魂山周辺","Jusho":"和歌山県海南市且来840付近","洪水":"","がけ崩れ、土石流及び地滑り":"","高潮":"","地震":"","津波":"◎","大規模な火事":"","内水氾濫":"","火山現象":"","指定避難所との重複":"","備考":""}},
{"type":"Feature","geometry":{"type":"Point","coordinates":[135.2127634000,34.1657646100]},"properties":{"Name":"永楽寺","Jusho":"和歌山県海南市且来866","洪水":"","がけ崩れ、土石流及び地滑り":"","高潮":"","地震":"","津波":"◎","大規模な火事":"","内水氾濫":"","火山現象":"","指定避難所との重複":"","備考":""}},
{"type":"Feature","geometry":{"type":"Point","coordinates":[135.2269070000,34.1688710000]},"properties":{"Name":"二つ池周辺高台","Jusho":"和歌山県海南市且来922付近","洪水":"","がけ崩れ、土石流及び地滑り":"","高潮":"","地震":"","津波":"◎","大規模な火事":"","内水氾濫":"","火山現象":"","指定避難所との重複":"","備考":""}},
{"type":"Feature","geometry":{"type":"Point","coordinates":[135.2369680000,34.1659840000]},"properties":{"Name":"大明神池周辺","Jusho":"和歌山県海南市且来1028付近","洪水":"","がけ崩れ、土石流及び地滑り":"","高潮":"","地震":"","津波":"◎","大規模な火事":"","内水氾濫":"","火山現象":"","指定避難所との重複":"","備考":""}},
{"type":"Feature","geometry":{"type":"Point","coordinates":[135.2365210000,34.1672490000]},"properties":{"Name":"大明神池東","Jusho":"和歌山県海南市且来1065付近","洪水":"","がけ崩れ、土石流及び地滑り":"","高潮":"","地震":"","津波":"◎","大規模な火事":"","内水氾濫":"","火山現象":"","指定避難所との重複":"","備考":""}},
{"type":"Feature","geometry":{"type":"Point","coordinates":[135.2357920000,34.1664550000]},"properties":{"Name":"大明神池西","Jusho":"和歌山県海南市且来1069-5付近","洪水":"","がけ崩れ、土石流及び地滑り":"","高潮":"","地震":"","津波":"◎","大規模な火事":"","内水氾濫":"","火山現象":"","指定避難所との重複":"","備考":""}},
{"type":"Feature","geometry":{"type":"Point","coordinates":[135.2376490000,34.1744320000]},"properties":{"Name":"松尾寺周辺","Jusho":"和歌山県海南市且来1221","洪水":"","がけ崩れ、土石流及び地滑り":"","高潮":"","地震":"","津波":"◎","大規模な火事":"","内水氾濫":"","火山現象":"","指定避難所との重複":"","備考":""}},
{"type":"Feature","geometry":{"type":"Point","coordinates":[135.2387960000,34.1700120000]},"properties":{"Name":"且来八幡神社西参道","Jusho":"和歌山県海南市且来1316付近","洪水":"","がけ崩れ、土石流及び地滑り":"","高潮":"","地震":"","津波":"◎","大規模な火事":"","内水氾濫":"","火山現象":"","指定避難所との重複":"","備考":""}},
{"type":"Feature","geometry":{"type":"Point","coordinates":[135.2278380000,34.1639040000]},"properties":{"Name":"温水プール周辺","Jusho":"和歌山県海南市且来1387-3付近","洪水":"","がけ崩れ、土石流及び地滑り":"","高潮":"","地震":"","津波":"◎","大規模な火事":"","内水氾濫":"","火山現象":"","指定避難所との重複":"","備考":""}},
{"type":"Feature","geometry":{"type":"Point","coordinates":[135.2331380000,34.1739532700]},"properties":{"Name":"弁財天山周辺","Jusho":"和歌山県海南市且来1472付近","洪水":"","がけ崩れ、土石流及び地滑り":"","高潮":"","地震":"","津波":"◎","大規模な火事":"","内水氾濫":"","火山現象":"","指定避難所との重複":"","備考":""}},
{"type":"Feature","geometry":{"type":"Point","coordinates":[135.2097390000,34.1688080000]},"properties":{"Name":"元プライスカット駐車場周辺","Jusho":"和歌山県海南市岡田611-1","洪水":"","がけ崩れ、土石流及び地滑り":"","高潮":"","地震":"","津波":"◎","大規模な火事":"","内水氾濫":"","火山現象":"","指定避難所との重複":"","備考":""}},
{"type":"Feature","geometry":{"type":"Point","coordinates":[135.2136460000,34.1685360000]},"properties":{"Name":"教法寺","Jusho":"和歌山県海南市岡田698","洪水":"","がけ崩れ、土石流及び地滑り":"","高潮":"","地震":"","津波":"◎","大規模な火事":"","内水氾濫":"","火山現象":"","指定避難所との重複":"","備考":""}},
{"type":"Feature","geometry":{"type":"Point","coordinates":[135.2194030000,34.1689050000]},"properties":{"Name":"弘誓寺","Jusho":"和歌山県海南市岡田780","洪水":"","がけ崩れ、土石流及び地滑り":"","高潮":"","地震":"","津波":"◎","大規模な火事":"","内水氾濫":"","火山現象":"","指定避難所との重複":"","備考":""}},
{"type":"Feature","geometry":{"type":"Point","coordinates":[135.2151120000,34.1731660000]},"properties":{"Name":"専応寺","Jusho":"和歌山県海南市岡田975-1","洪水":"","がけ崩れ、土石流及び地滑り":"","高潮":"","地震":"","津波":"◎","大規模な火事":"","内水氾濫":"","火山現象":"","指定避難所との重複":"","備考":""}},
{"type":"Feature","geometry":{"type":"Point","coordinates":[135.2105511000,34.1913360300]},"properties":{"Name":"地福寺","Jusho":"和歌山県海南市岡田992","洪水":"","がけ崩れ、土石流及び地滑り":"","高潮":"","地震":"","津波":"◎","大規模な火事":"","内水氾濫":"","火山現象":"","指定避難所との重複":"","備考":""}},
{"type":"Feature","geometry":{"type":"Point","coordinates":[135.2278674000,34.1888621600]},"properties":{"Name":"岡田八幡宮周辺","Jusho":"和歌山県海南市岡田1181","洪水":"","がけ崩れ、土石流及び地滑り":"","高潮":"","地震":"","津波":"◎","大規模な火事":"","内水氾濫":"","火山現象":"","指定避難所との重複":"","備考":""}},
{"type":"Feature","geometry":{"type":"Point","coordinates":[135.2103640000,34.1725270000]},"properties":{"Name":"山崎団地","Jusho":"和歌山県海南市岡田1233-5付近","洪水":"","がけ崩れ、土石流及び地滑り":"","高潮":"","地震":"","津波":"◎","大規模な火事":"","内水氾濫":"","火山現象":"","指定避難所との重複":"","備考":""}},
{"type":"Feature","geometry":{"type":"Point","coordinates":[135.2404950000,34.1778537800]},"properties":{"Name":"国主神社周辺","Jusho":"和歌山県海南市多田714","洪水":"","がけ崩れ、土石流及び地滑り":"","高潮":"","地震":"","津波":"◎","大規模な火事":"","内水氾濫":"","火山現象":"","指定避難所との重複":"","備考":""}},
{"type":"Feature","geometry":{"type":"Point","coordinates":[135.2364410000,34.1758440000]},"properties":{"Name":"猪ノ子山周辺","Jusho":"和歌山県海南市多田1404","洪水":"","がけ崩れ、土石流及び地滑り":"","高潮":"","地震":"","津波":"◎","大規模な火事":"","内水氾濫":"","火山現象":"","指定避難所との重複":"","備考":""}},
{"type":"Feature","geometry":{"type":"Point","coordinates":[135.2139636000,34.1741410200]},"properties":{"Name":"智辯学園（体育館、グラウンド）","Jusho":"和歌山県和歌山市冬野2066‐1","洪水":"","がけ崩れ、土石流及び地滑り":"","高潮":"","地震":"","津波":"◎","大規模な火事":"","内水氾濫":"","火山現象":"","指定避難所との重複":"","備考":""}},
{"type":"Feature","geometry":{"type":"Point","coordinates":[135.1528400000,34.1146450000]},"properties":{"Name":"方集会所周辺高台","Jusho":"和歌山県海南市下津町上48-7付近","洪水":"","がけ崩れ、土石流及び地滑り":"","高潮":"","地震":"","津波":"◎","大規模な火事":"","内水氾濫":"","火山現象":"","指定避難所との重複":"","備考":""}},
{"type":"Feature","geometry":{"type":"Point","coordinates":[135.1656490000,34.1080180000]},"properties":{"Name":"長保寺周辺","Jusho":"和歌山県海南市下津町上688付近","洪水":"","がけ崩れ、土石流及び地滑り":"","高潮":"","地震":"","津波":"◎","大規模な火事":"","内水氾濫":"","火山現象":"","指定避難所との重複":"","備考":""}},
{"type":"Feature","geometry":{"type":"Point","coordinates":[135.1512667000,34.1069583300]},"properties":{"Name":"拝待団地周辺","Jusho":"和歌山県海南市下津町小原1495付近","洪水":"","がけ崩れ、土石流及び地滑り":"","高潮":"","地震":"","津波":"◎","大規模な火事":"","内水氾濫":"","火山現象":"","指定避難所との重複":"","備考":""}},
{"type":"Feature","geometry":{"type":"Point","coordinates":[135.1458140000,34.1144850000]},"properties":{"Name":"港ふれあい公園","Jusho":"和歌山県海南市下津町下津27-3","洪水":"","がけ崩れ、土石流及び地滑り":"","高潮":"","地震":"◎","津波":"◎","大規模な火事":"◎","内水氾濫":"","火山現象":"","指定避難所との重複":"","備考":""}},
{"type":"Feature","geometry":{"type":"Point","coordinates":[135.1472430000,34.1130170000]},"properties":{"Name":"楠戸山中腹周辺","Jusho":"和歌山県海南市下津町下津119付近","洪水":"","がけ崩れ、土石流及び地滑り":"","高潮":"","地震":"","津波":"◎","大規模な火事":"","内水氾濫":"","火山現象":"","指定避難所との重複":"","備考":""}},
{"type":"Feature","geometry":{"type":"Point","coordinates":[135.1490180000,34.1107520000]},"properties":{"Name":"市道赤松楠戸線周辺","Jusho":"和歌山県海南市下津町下津341付近","洪水":"","がけ崩れ、土石流及び地滑り":"","高潮":"","地震":"","津波":"◎","大規模な火事":"","内水氾濫":"","火山現象":"","指定避難所との重複":"","備考":""}},
{"type":"Feature","geometry":{"type":"Point","coordinates":[135.1458160000,34.1084740000]},"properties":{"Name":"紀文レストラン駐車場","Jusho":"和歌山県海南市下津町下津705付近","洪水":"","がけ崩れ、土石流及び地滑り":"","高潮":"","地震":"","津波":"◎","大規模な火事":"","内水氾濫":"","火山現象":"","指定避難所との重複":"","備考":""}},
{"type":"Feature","geometry":{"type":"Point","coordinates":[135.1425420000,34.1070840000]},"properties":{"Name":"阿弥陀寺上の道路","Jusho":"和歌山県海南市下津町下津1331付近","洪水":"","がけ崩れ、土石流及び地滑り":"","高潮":"","地震":"","津波":"◎","大規模な火事":"","内水氾濫":"","火山現象":"","指定避難所との重複":"","備考":""}},
{"type":"Feature","geometry":{"type":"Point","coordinates":[135.1401190000,34.1087820000]},"properties":{"Name":"外瀬山周辺","Jusho":"和歌山県海南市下津町下津1514付近","洪水":"","がけ崩れ、土石流及び地滑り":"","高潮":"","地震":"","津波":"◎","大規模な火事":"","内水氾濫":"","火山現象":"","指定避難所との重複":"","備考":""}},
{"type":"Feature","geometry":{"type":"Point","coordinates":[135.1375220000,34.1066610000]},"properties":{"Name":"大正池周辺","Jusho":"和歌山県海南市下津町下津1831付近","洪水":"","がけ崩れ、土石流及び地滑り":"","高潮":"","地震":"","津波":"◎","大規模な火事":"","内水氾濫":"","火山現象":"","指定避難所との重複":"","備考":""}},
{"type":"Feature","geometry":{"type":"Point","coordinates":[135.1352690000,34.1086990000]},"properties":{"Name":"西方寺周辺","Jusho":"和歌山県海南市下津町下津2464付近","洪水":"","がけ崩れ、土石流及び地滑り":"","高潮":"","地震":"","津波":"◎","大規模な火事":"","内水氾濫":"","火山現象":"","指定避難所との重複":"","備考":""}},
{"type":"Feature","geometry":{"type":"Point","coordinates":[135.1282570000,34.1135570000]},"properties":{"Name":"下津最終処分場周辺","Jusho":"和歌山県海南市下津町下津3103付近","洪水":"","がけ崩れ、土石流及び地滑り":"","高潮":"","地震":"","津波":"◎","大規模な火事":"","内水氾濫":"","火山現象":"","指定避難所との重複":"","備考":""}},
{"type":"Feature","geometry":{"type":"Point","coordinates":[135.1523520000,34.1255340000]},"properties":{"Name":"大東小学校周辺農道","Jusho":"和歌山県海南市下津町丸田384付近","洪水":"","がけ崩れ、土石流及び地滑り":"","高潮":"","地震":"","津波":"◎","大規模な火事":"","内水氾濫":"","火山現象":"","指定避難所との重複":"","備考":""}},
{"type":"Feature","geometry":{"type":"Point","coordinates":[135.1573380000,34.1338270000]},"properties":{"Name":"かぐのみ苑周辺","Jusho":"和歌山県海南市下津町丸田1111-1付近","洪水":"","がけ崩れ、土石流及び地滑り":"","高潮":"","地震":"","津波":"◎","大規模な火事":"","内水氾濫":"","火山現象":"","指定避難所との重複":"","備考":""}},
{"type":"Feature","geometry":{"type":"Point","coordinates":[135.1565280000,34.1355360000]},"properties":{"Name":"戸坂峠","Jusho":"和歌山県海南市下津町丸田1158付近","洪水":"","がけ崩れ、土石流及び地滑り":"","高潮":"","地震":"","津波":"◎","大規模な火事":"","内水氾濫":"","火山現象":"","指定避難所との重複":"","備考":""}},
{"type":"Feature","geometry":{"type":"Point","coordinates":[135.1595430000,34.1224460000]},"properties":{"Name":"黒田地区高台","Jusho":"和歌山県海南市下津町黒田186付近","洪水":"","がけ崩れ、土石流及び地滑り":"","高潮":"","地震":"","津波":"◎","大規模な火事":"","内水氾濫":"","火山現象":"","指定避難所との重複":"","備考":""}},
{"type":"Feature","geometry":{"type":"Point","coordinates":[135.1564560000,34.1229780000]},"properties":{"Name":"三郷八幡神社参道","Jusho":"和歌山県海南市下津町丁160付近","洪水":"","がけ崩れ、土石流及び地滑り":"","高潮":"","地震":"","津波":"◎","大規模な火事":"","内水氾濫":"","火山現象":"","指定避難所との重複":"","備考":""}},
{"type":"Feature","geometry":{"type":"Point","coordinates":[135.1605800000,34.1213270000]},"properties":{"Name":"三郷八幡神社","Jusho":"和歌山県海南市下津町丁238","洪水":"","がけ崩れ、土石流及び地滑り":"","高潮":"","地震":"","津波":"◎","大規模な火事":"","内水氾濫":"","火山現象":"","指定避難所との重複":"","備考":""}},
{"type":"Feature","geometry":{"type":"Point","coordinates":[135.1580260000,34.1183870000]},"properties":{"Name":"丁区パイロット農道周辺","Jusho":"和歌山県海南市下津町丁500付近","洪水":"","がけ崩れ、土石流及び地滑り":"","高潮":"","地震":"","津波":"◎","大規模な火事":"","内水氾濫":"","火山現象":"","指定避難所との重複":"","備考":""}},
{"type":"Feature","geometry":{"type":"Point","coordinates":[135.1484350000,34.1260760000]},"properties":{"Name":"方北地区高台③","Jusho":"和歌山県海南市下津町方731付近","洪水":"","がけ崩れ、土石流及び地滑り":"","高潮":"","地震":"","津波":"◎","大規模な火事":"","内水氾濫":"","火山現象":"","指定避難所との重複":"","備考":""}},
{"type":"Feature","geometry":{"type":"Point","coordinates":[135.1497730000,34.1248090000]},"properties":{"Name":"方北地区高台②","Jusho":"和歌山県海南市下津町方793付近","洪水":"","がけ崩れ、土石流及び地滑り":"","高潮":"","地震":"","津波":"◎","大規模な火事":"","内水氾濫":"","火山現象":"","指定避難所との重複":"","備考":""}},
{"type":"Feature","geometry":{"type":"Point","coordinates":[135.1504790000,34.1239490000]},"properties":{"Name":"方北地区高台①","Jusho":"和歌山県海南市下津町方840付近","洪水":"","がけ崩れ、土石流及び地滑り":"","高潮":"","地震":"","津波":"◎","大規模な火事":"","内水氾濫":"","火山現象":"","指定避難所との重複":"","備考":""}},
{"type":"Feature","geometry":{"type":"Point","coordinates":[135.1436240000,34.1274530000]},"properties":{"Name":"横山農道周辺","Jusho":"和歌山県海南市下津町方1665-4付近","洪水":"","がけ崩れ、土石流及び地滑り":"","高潮":"","地震":"","津波":"◎","大規模な火事":"","内水氾濫":"","火山現象":"","指定避難所との重複":"","備考":""}},
{"type":"Feature","geometry":{"type":"Point","coordinates":[135.1544760000,34.1191970000]},"properties":{"Name":"旧街道","Jusho":"和歌山県海南市下津町方867付近","洪水":"","がけ崩れ、土石流及び地滑り":"","高潮":"","地震":"","津波":"◎","大規模な火事":"","内水氾濫":"","火山現象":"","指定避難所との重複":"","備考":""}},
{"type":"Feature","geometry":{"type":"Point","coordinates":[135.1517980000,34.1156890000]},"properties":{"Name":"小島谷農道周辺","Jusho":"和歌山県海南市下津町方976付近","洪水":"","がけ崩れ、土石流及び地滑り":"","高潮":"","地震":"","津波":"◎","大規模な火事":"","内水氾濫":"","火山現象":"","指定避難所との重複":"","備考":""}},
{"type":"Feature","geometry":{"type":"Point","coordinates":[135.1499890000,34.1180180000]},"properties":{"Name":"宮ノ谷地区裏山周辺","Jusho":"和歌山県海南市下津町方1092付近","洪水":"","がけ崩れ、土石流及び地滑り":"","高潮":"","地震":"","津波":"◎","大規模な火事":"","内水氾濫":"","火山現象":"","指定避難所との重複":"","備考":""}},
{"type":"Feature","geometry":{"type":"Point","coordinates":[135.1473180000,34.1204610000]},"properties":{"Name":"禅定寺","Jusho":"和歌山県海南市下津町方1157","洪水":"","がけ崩れ、土石流及び地滑り":"","高潮":"","地震":"","津波":"◎","大規模な火事":"","内水氾濫":"","火山現象":"","指定避難所との重複":"","備考":""}},
{"type":"Feature","geometry":{"type":"Point","coordinates":[135.1445710000,34.1187680000]},"properties":{"Name":"市道硯楠戸線周辺","Jusho":"和歌山県海南市下津町方1334付近","洪水":"","がけ崩れ、土石流及び地滑り":"","高潮":"","地震":"","津波":"◎","大規模な火事":"","内水氾濫":"","火山現象":"","指定避難所との重複":"","備考":""}},
{"type":"Feature","geometry":{"type":"Point","coordinates":[135.1459070000,34.1226230000]},"properties":{"Name":"硯地区裏山周辺","Jusho":"和歌山県海南市下津町方1430付近","洪水":"","がけ崩れ、土石流及び地滑り":"","高潮":"","地震":"","津波":"◎","大規模な火事":"","内水氾濫":"","火山現象":"","指定避難所との重複":"","備考":""}},
{"type":"Feature","geometry":{"type":"Point","coordinates":[135.1344970000,34.1277300000]},"properties":{"Name":"万葉歌碑周辺","Jusho":"和歌山県海南市下津町大崎2付近","洪水":"","がけ崩れ、土石流及び地滑り":"","高潮":"","地震":"","津波":"◎","大規模な火事":"","内水氾濫":"","火山現象":"","指定避難所との重複":"","備考":""}},
{"type":"Feature","geometry":{"type":"Point","coordinates":[135.1335315209,34.1336197690]},"properties":{"Name":"（旧）大崎小学校","Jusho":"和歌山県海南市下津町大崎383","洪水":"◎","がけ崩れ、土石流及び地滑り":"◎","高潮":"","地震":"◎","津波":"◎","大規模な火事":"","内水氾濫":"","火山現象":"","指定避難所との重複":"◎","備考":""}},
{"type":"Feature","geometry":{"type":"Point","coordinates":[135.1328060000,34.1329210000]},"properties":{"Name":"常行寺周辺","Jusho":"和歌山県海南市下津町大崎357","洪水":"","がけ崩れ、土石流及び地滑り":"","高潮":"","地震":"","津波":"◎","大規模な火事":"","内水氾濫":"","火山現象":"","指定避難所との重複":"","備考":""}},
{"type":"Feature","geometry":{"type":"Point","coordinates":[135.1339240000,34.1322130000]},"properties":{"Name":"願称寺周辺","Jusho":"和歌山県海南市下津町大崎398","洪水":"","がけ崩れ、土石流及び地滑り":"","高潮":"","地震":"","津波":"◎","大規模な火事":"","内水氾濫":"","火山現象":"","指定避難所との重複":"","備考":""}},
{"type":"Feature","geometry":{"type":"Point","coordinates":[135.1312080000,34.1358956000]},"properties":{"Name":"大崎グラウンド","Jusho":"和歌山県海南市下津町大崎884付近","洪水":"","がけ崩れ、土石流及び地滑り":"","高潮":"","地震":"","津波":"◎","大規模な火事":"","内水氾濫":"","火山現象":"","指定避難所との重複":"","備考":""}},
{"type":"Feature","geometry":{"type":"Point","coordinates":[135.1487940000,34.1329370000]},"properties":{"Name":"女良農道周辺","Jusho":"和歌山県海南市下津町大崎1336付近","洪水":"","がけ崩れ、土石流及び地滑り":"","高潮":"","地震":"","津波":"◎","大規模な火事":"","内水氾濫":"","火山現象":"","指定避難所との重複":"","備考":""}},
{"type":"Feature","geometry":{"type":"Point","coordinates":[135.1462508000,34.1307749400]},"properties":{"Name":"女良古墳周辺","Jusho":"和歌山県海南市下津町大崎1373-2付近","洪水":"","がけ崩れ、土石流及び地滑り":"","高潮":"","地震":"","津波":"◎","大規模な火事":"","内水氾濫":"","火山現象":"","指定避難所との重複":"","備考":""}},
{"type":"Feature","geometry":{"type":"Point","coordinates":[135.1653600000,34.1348150000]},"properties":{"Name":"教徳寺周辺","Jusho":"和歌山県海南市下津町塩津82","洪水":"","がけ崩れ、土石流及び地滑り":"","高潮":"","地震":"","津波":"◎","大規模な火事":"","内水氾濫":"","火山現象":"","指定避難所との重複":"","備考":""}},
{"type":"Feature","geometry":{"type":"Point","coordinates":[135.1659540000,34.1326150000]},"properties":{"Name":"極楽寺周辺","Jusho":"和歌山県海南市下津町塩津881","洪水":"","がけ崩れ、土石流及び地滑り":"","高潮":"","地震":"","津波":"◎","大規模な火事":"","内水氾濫":"","火山現象":"","指定避難所との重複":"","備考":""}},
{"type":"Feature","geometry":{"type":"Point","coordinates":[135.1654140000,34.1319780000]},"properties":{"Name":"塩津小学校","Jusho":"和歌山県海南市下津町塩津908","洪水":"◎","がけ崩れ、土石流及び地滑り":"◎","高潮":"","地震":"◎","津波":"◎","大規模な火事":"","内水氾濫":"","火山現象":"","指定避難所との重複":"◎","備考":""}},
{"type":"Feature","geometry":{"type":"Point","coordinates":[135.1687240000,34.1309470000]},"properties":{"Name":"加茂神社","Jusho":"和歌山県海南市下津町下567付近","洪水":"","がけ崩れ、土石流及び地滑り":"","高潮":"","地震":"","津波":"◎","大規模な火事":"","内水氾濫":"","火山現象":"","指定避難所との重複":"","備考":""}},
{"type":"Feature","geometry":{"type":"Point","coordinates":[135.2037522000,34.1606021300]},"properties":{"Name":"黒江防災コミュニティセンター（屋上）","Jusho":"和歌山県海南市船尾222-21","洪水":"","がけ崩れ、土石流及び地滑り":"","高潮":"","地震":"","津波":"◎","大規模な火事":"","内水氾濫":"","火山現象":"","指定避難所との重複":"◎","備考":""}},
{"type":"Feature","geometry":{"type":"Point","coordinates":[135.2000048000,34.1592668500]},"properties":{"Name":"黒江小学校（屋上）","Jusho":"和歌山県海南市船尾236-4","洪水":"","がけ崩れ、土石流及び地滑り":"","高潮":"","地震":"","津波":"◎","大規模な火事":"","内水氾濫":"","火山現象":"","指定避難所との重複":"◎","備考":""}},
{"type":"Feature","geometry":{"type":"Point","coordinates":[135.1987910000,34.1582685600]},"properties":{"Name":"海南スポーツセンター（屋上）","Jusho":"和歌山県海南市船尾260-3","洪水":"","がけ崩れ、土石流及び地滑り":"","高潮":"","地震":"","津波":"◎","大規模な火事":"","内水氾濫":"","火山現象":"","指定避難所との重複":"◎","備考":""}},
{"type":"Feature","geometry":{"type":"Point","coordinates":[135.1992740000,34.1590930000]},"properties":{"Name":"恵友病院（6階）","Jusho":"和歌山県海南市船尾264-2","洪水":"","がけ崩れ、土石流及び地滑り":"","高潮":"","地震":"","津波":"◎","大規模な火事":"","内水氾濫":"","火山現象":"","指定避難所との重複":"","備考":""}},
{"type":"Feature","geometry":{"type":"Point","coordinates":[135.1954330000,34.1592600000]},"properties":{"Name":"石本病院（屋上）","Jusho":"和歌山県海南市船尾365","洪水":"","がけ崩れ、土石流及び地滑り":"","高潮":"","地震":"","津波":"◎","大規模な火事":"","内水氾濫":"","火山現象":"","指定避難所との重複":"","備考":""}},
{"type":"Feature","geometry":{"type":"Point","coordinates":[135.2209693000,34.1590626300]},"properties":{"Name":"和歌山大学海南宿舎１号棟（屋上）","Jusho":"和歌山県海南市日方930","洪水":"","がけ崩れ、土石流及び地滑り":"","高潮":"","地震":"","津波":"◎","大規模な火事":"","内水氾濫":"","火山現象":"","指定避難所との重複":"","備考":""}},
{"type":"Feature","geometry":{"type":"Point","coordinates":[135.2202236000,34.1588318000]},"properties":{"Name":"和歌山大学海南宿舎２号棟（屋上）","Jusho":"和歌山県海南市日方930","洪水":"","がけ崩れ、土石流及び地滑り":"","高潮":"","地震":"","津波":"◎","大規模な火事":"","内水氾濫":"","火山現象":"","指定避難所との重複":"","備考":""}},
{"type":"Feature","geometry":{"type":"Point","coordinates":[135.2213233000,34.1586054100]},"properties":{"Name":"海南中学校（屋上）","Jusho":"和歌山県海南市日方962-2","洪水":"","がけ崩れ、土石流及び地滑り":"","高潮":"","地震":"","津波":"◎","大規模な火事":"","内水氾濫":"","火山現象":"","指定避難所との重複":"◎","備考":""}},
{"type":"Feature","geometry":{"type":"Point","coordinates":[135.2104157000,34.1573443900]},"properties":{"Name":"日方小学校（屋上）","Jusho":"和歌山県海南市日方1257","洪水":"","がけ崩れ、土石流及び地滑り":"","高潮":"","地震":"","津波":"◎","大規模な火事":"","内水氾濫":"","火山現象":"","指定避難所との重複":"◎","備考":""}},
{"type":"Feature","geometry":{"type":"Point","coordinates":[135.2091130000,34.1558990000]},"properties":{"Name":"クレンツ海南（屋上）","Jusho":"和歌山県海南市日方1271‐99","洪水":"","がけ崩れ、土石流及び地滑り":"","高潮":"","地震":"","津波":"◎","大規模な火事":"","内水氾濫":"","火山現象":"","指定避難所との重複":"","備考":""}},
{"type":"Feature","geometry":{"type":"Point","coordinates":[135.2083260000,34.1571640000]},"properties":{"Name":"パル・シャトー海南（4階以上）","Jusho":"和歌山県海南市日方1272-1","洪水":"","がけ崩れ、土石流及び地滑り":"","高潮":"","地震":"","津波":"◎","大規模な火事":"","内水氾濫":"","火山現象":"","指定避難所との重複":"","備考":""}},
{"type":"Feature","geometry":{"type":"Point","coordinates":[135.2062377000,34.1559356000]},"properties":{"Name":"海南合同宿舎１号棟（5階以上）","Jusho":"和歌山県海南市日方1274-3","洪水":"","がけ崩れ、土石流及び地滑り":"","高潮":"","地震":"","津波":"◎","大規模な火事":"","内水氾濫":"","火山現象":"","指定避難所との重複":"","備考":""}},
{"type":"Feature","geometry":{"type":"Point","coordinates":[135.2061302000,34.1561020400]},"properties":{"Name":"海南合同宿舎２号棟（5階以上）","Jusho":"和歌山県海南市日方1274-3","洪水":"","がけ崩れ、土石流及び地滑り":"","高潮":"","地震":"","津波":"◎","大規模な火事":"","内水氾濫":"","火山現象":"","指定避難所との重複":"","備考":""}},
{"type":"Feature","geometry":{"type":"Point","coordinates":[135.2084320000,34.1539170000]},"properties":{"Name":"マンションニューハマ（屋上）","Jusho":"和歌山県海南市日方1289‐27","洪水":"","がけ崩れ、土石流及び地滑り":"","高潮":"","地震":"","津波":"◎","大規模な火事":"","内水氾濫":"","火山現象":"","指定避難所との重複":"","備考":""}},
{"type":"Feature","geometry":{"type":"Point","coordinates":[135.2051894000,34.1567576500]},"properties":{"Name":"防災センター（3階）","Jusho":"和歌山県海南市日方1294-13","洪水":"","がけ崩れ、土石流及び地滑り":"","高潮":"","地震":"","津波":"◎","大規模な火事":"","内水氾濫":"","火山現象":"","指定避難所との重複":"◎","備考":""}},
{"type":"Feature","geometry":{"type":"Point","coordinates":[135.2139420000,34.1558240000]},"properties":{"Name":"県営駅前団地（4階以上）","Jusho":"和歌山県海南市日方1500-6","洪水":"","がけ崩れ、土石流及び地滑り":"","高潮":"","地震":"","津波":"◎","大規模な火事":"","内水氾濫":"","火山現象":"","指定避難所との重複":"","備考":""}},
{"type":"Feature","geometry":{"type":"Point","coordinates":[135.2102089000,34.1554359600]},"properties":{"Name":"海南保健福祉センター（３階）","Jusho":"和歌山県海南市日方1519-10","洪水":"","がけ崩れ、土石流及び地滑り":"","高潮":"","地震":"","津波":"◎","大規模な火事":"","内水氾濫":"","火山現象":"","指定避難所との重複":"◎","備考":""}},
{"type":"Feature","geometry":{"type":"Point","coordinates":[135.2110750000,34.1543880000]},"properties":{"Name":"和歌山プリンスイン海南（4階以上）","Jusho":"和歌山県海南市日方1521-1","洪水":"","がけ崩れ、土石流及び地滑り":"","高潮":"","地震":"","津波":"◎","大規模な火事":"","内水氾濫":"","火山現象":"","指定避難所との重複":"","備考":""}},
{"type":"Feature","geometry":{"type":"Point","coordinates":[135.2104685000,34.1538203500]},"properties":{"Name":"海南医療センター（屋上）","Jusho":"和歌山県海南市日方1522-１","洪水":"","がけ崩れ、土石流及び地滑り":"","高潮":"","地震":"","津波":"◎","大規模な火事":"","内水氾濫":"","火山現象":"","指定避難所との重複":"","備考":""}},
{"type":"Feature","geometry":{"type":"Point","coordinates":[135.2143370000,34.1543590000]},"properties":{"Name":"ＪＲ海南駅（プラットホーム）","Jusho":"和歌山県海南市名高187-8","洪水":"","がけ崩れ、土石流及び地滑り":"","高潮":"","地震":"","津波":"◎","大規模な火事":"","内水氾濫":"","火山現象":"","指定避難所との重複":"","備考":""}},
{"type":"Feature","geometry":{"type":"Point","coordinates":[135.2185838000,34.1523700500]},"properties":{"Name":"第三中学校（4階）","Jusho":"和歌山県海南市鳥居15-3","洪水":"","がけ崩れ、土石流及び地滑り":"","高潮":"","地震":"","津波":"◎","大規模な火事":"","内水氾濫":"","火山現象":"","指定避難所との重複":"◎","備考":""}},
{"type":"Feature","geometry":{"type":"Point","coordinates":[135.2138544000,34.1495328800]},"properties":{"Name":"内海小学校（屋上）","Jusho":"和歌山県海南市鳥居190","洪水":"","がけ崩れ、土石流及び地滑り":"","高潮":"","地震":"","津波":"◎","大規模な火事":"","内水氾濫":"","火山現象":"","指定避難所との重複":"◎","備考":""}},
{"type":"Feature","geometry":{"type":"Point","coordinates":[135.1540582000,34.1164625600]},"properties":{"Name":"下津保健福祉センター（屋上）","Jusho":"和歌山県海南市下津町上14-6","洪水":"","がけ崩れ、土石流及び地滑り":"","高潮":"","地震":"","津波":"◎","大規模な火事":"","内水氾濫":"","火山現象":"","指定避難所との重複":"◎","備考":""}},
{"type":"Feature","geometry":{"type":"Point","coordinates":[135.1522754000,34.1092852700]},"properties":{"Name":"下津小学校（3階）","Jusho":"和歌山県海南市下津町下津477","洪水":"","がけ崩れ、土石流及び地滑り":"","高潮":"","地震":"","津波":"◎","大規模な火事":"","内水氾濫":"","火山現象":"","指定避難所との重複":"◎","備考":""}},
{"type":"Feature","geometry":{"type":"Point","coordinates":[135.1509252000,34.1088396000]},"properties":{"Name":"海南市民交流センター（3階）","Jusho":"和歌山県海南市下津町下津500-1","洪水":"","がけ崩れ、土石流及び地滑り":"","高潮":"","地震":"","津波":"◎","大規模な火事":"","内水氾濫":"","火山現象":"","指定避難所との重複":"◎","備考":""}},
{"type":"Feature","geometry":{"type":"Point","coordinates":[135.1504040000,34.1093730000]},"properties":{"Name":"海南市民交流センター立体駐車場（最上段）","Jusho":"和歌山県海南市下津町下津500-1","洪水":"","がけ崩れ、土石流及び地滑り":"","高潮":"","地震":"","津波":"◎","大規模な火事":"","内水氾濫":"","火山現象":"","指定避難所との重複":"","備考":""}},
{"type":"Feature","geometry":{"type":"Point","coordinates":[135.1497250000,34.1093440000]},"properties":{"Name":"下津消防署（屋上）","Jusho":"和歌山県海南市下津町下津518-6","洪水":"","がけ崩れ、土石流及び地滑り":"","高潮":"","地震":"","津波":"◎","大規模な火事":"","内水氾濫":"","火山現象":"","指定避難所との重複":"","備考":""}},
{"type":"Feature","geometry":{"type":"Point","coordinates":[135.1575751000,34.1275835000]},"properties":{"Name":"海南下津高等学校（3階）","Jusho":"和歌山県海南市下津町丸田87","洪水":"","がけ崩れ、土石流及び地滑り":"","高潮":"","地震":"","津波":"◎","大規模な火事":"","内水氾濫":"","火山現象":"","指定避難所との重複":"◎","備考":""}},
{"type":"Feature","geometry":{"type":"Point","coordinates":[135.1558994000,34.1252868400]},"properties":{"Name":"下津防災コミュニティセンター（屋上）","Jusho":"和歌山県海南市下津町丸田217-1","洪水":"","がけ崩れ、土石流及び地滑り":"","高潮":"","地震":"","津波":"◎","大規模な火事":"","内水氾濫":"","火山現象":"","指定避難所との重複":"◎","備考":""}},
{"type":"Feature","geometry":{"type":"Point","coordinates":[135.1521802000,34.1233622400]},"properties":{"Name":"大東小学校（屋上）","Jusho":"和歌山県海南市下津町方1","洪水":"","がけ崩れ、土石流及び地滑り":"","高潮":"","地震":"","津波":"◎","大規模な火事":"","内水氾濫":"","火山現象":"","指定避難所との重複":"◎","備考":""}},
{"type":"Feature","geometry":{"type":"Point","coordinates":[135.1644711000,34.1281525100]},"properties":{"Name":"下津第二中学校（3階）","Jusho":"和歌山県海南市下津町下287-2","洪水":"","がけ崩れ、土石流及び地滑り":"","高潮":"","地震":"","津波":"◎","大規模な火事":"","内水氾濫":"","火山現象":"","指定避難所との重複":"◎","備考":""}},
{"type":"Feature","geometry":{"type":"Point","coordinates":[135.1491332000,34.1230304500]},"properties":{"Name":"高田機工（株）高友寮（屋上）","Jusho":"和歌山県海南市下津町方389","洪水":"","がけ崩れ、土石流及び地滑り":"","高潮":"","地震":"","津波":"◎","大規模な火事":"","内水氾濫":"","火山現象":"","指定避難所との重複":"","備考":""}},
{"type":"Feature","geometry":{"type":"Point","coordinates":[135.2041894000,34.1612576000]},"properties":{"Name":"黒江公民館","Jusho":"和歌山県海南市黒江693-4","洪水":"◎","がけ崩れ、土石流及び地滑り":"◎","高潮":"","地震":"◎","津波":"","大規模な火事":"","内水氾濫":"","火山現象":"","指定避難所との重複":"◎","備考":""}},
{"type":"Feature","geometry":{"type":"Point","coordinates":[135.2037530000,34.1606600000]},"properties":{"Name":"黒江防災コミュニティセンター","Jusho":"和歌山県海南市船尾222-21","洪水":"◎","がけ崩れ、土石流及び地滑り":"◎","高潮":"","地震":"◎","津波":"","大規模な火事":"","内水氾濫":"","火山現象":"","指定避難所との重複":"◎","備考":""}},
{"type":"Feature","geometry":{"type":"Point","coordinates":[135.2004853000,34.1593289000]},"properties":{"Name":"黒江小学校","Jusho":"和歌山県海南市船尾236-4","洪水":"◎","がけ崩れ、土石流及び地滑り":"◎","高潮":"","地震":"◎","津波":"","大規模な火事":"","内水氾濫":"","火山現象":"","指定避難所との重複":"◎","備考":""}},
{"type":"Feature","geometry":{"type":"Point","coordinates":[135.1986560000,34.1583079400]},"properties":{"Name":"海南スポーツセンター","Jusho":"和歌山県海南市船尾260-3","洪水":"◎","がけ崩れ、土石流及び地滑り":"◎","高潮":"","地震":"◎","津波":"","大規模な火事":"","内水氾濫":"","火山現象":"","指定避難所との重複":"◎","備考":""}},
{"type":"Feature","geometry":{"type":"Point","coordinates":[135.2096364000,34.1559106000]},