var st={
"type":"FeatureCollection",
"features":[
{
"type":"Feature",
"properties":{
"Name":"阿川小学校",
"Jusho":"山口県下関市豊北町大字阿川字下宅野3755-1",
"Capacity":"330",
"la":"34.33963500000",
"ln":"130.92461000000"
},
"geometry":{
"type":"Point",
"coordinates":[
130.92461,
34.339635
]
}
},
{
"type":"Feature",
"properties":{
"Name":"粟野小学校",
"Jusho":"山口県下関市豊北町大字粟野字妙見3349",
"Capacity":"280",
"la":"34.33920200000",
"ln":"130.98012300000"
},
"geometry":{
"type":"Point",
"coordinates":[
130.980123,
34.339202
]
}
},
{
"type":"Feature",
"properties":{
"Name":"安岡小学校",
"Jusho":"山口県下関市安岡町3丁目5-5",
"Capacity":"400",
"la":"34.02872600000",
"ln":"130.91972900000"
},
"geometry":{
"type":"Point",
"coordinates":[
130.919729,
34.028726
]
}
},
{
"type":"Feature",
"properties":{
"Name":"一の宮小学校",
"Jusho":"山口県下関市一の宮住吉1丁目8-1",
"Capacity":"300",
"la":"34.00222900000",
"ln":"130.95717000000"
},
"geometry":{
"type":"Point",
"coordinates":[
130.95717,
34.002229
]
}
},
{
"type":"Feature",
"properties":{
"Name":"宇賀小学校",
"Jusho":"山口県下関市豊浦町大字宇賀字ふけ4961",
"Capacity":"430",
"la":"34.22094000000",
"ln":"130.93203500000"
},
"geometry":{
"type":"Point",
"coordinates":[
130.932035,
34.22094
]
}
},
{
"type":"Feature",
"properties":{
"Name":"王喜小学校",
"Jusho":"山口県下関市王喜本町2丁目12-30",
"Capacity":"300",
"la":"34.06316800000",
"ln":"131.05530000000"
},
"geometry":{
"type":"Point",
"coordinates":[
131.0553,
34.063168
]
}
},
{
"type":"Feature",
"properties":{
"Name":"王江小学校",
"Jusho":"山口県下関市入江町9-1",
"Capacity":"200",
"la":"33.95437200000",
"ln":"130.93575700000"
},
"geometry":{
"type":"Point",
"coordinates":[
130.935757,
33.954372
]
}
},
{
"type":"Feature",
"properties":{
"Name":"王司小学校",
"Jusho":"山口県下関市王司神田6丁目9-1",
"Capacity":"500",
"la":"34.05041900000",
"ln":"131.01338700000"
},
"geometry":{
"type":"Point",
"coordinates":[
131.013387,
34.050419
]
}
},
{
"type":"Feature",
"properties":{
"Name":"岡枝小学校",
"Jusho":"山口県下関市菊川町大字吉賀字金蔵寺2494",
"Capacity":"270",
"la":"34.13414600000",
"ln":"131.01938400000"
},
"geometry":{
"type":"Point",
"coordinates":[
131.019384,
34.134146
]
}
},
{
"type":"Feature",
"properties":{
"Name":"蓋井小学校",
"Jusho":"山口県下関市大字蓋井島字田町126-2",
"Capacity":"200",
"la":"34.10187900000",
"ln":"130.78757200000"
},
"geometry":{
"type":"Point",
"coordinates":[
130.787572,
34.101879
]
}
},
{
"type":"Feature",
"properties":{
"Name":"角倉小学校",
"Jusho":"山口県下関市彦島角倉町3丁目5-5",
"Capacity":"200",
"la":"33.92484700000",
"ln":"130.91589800000"
},
"geometry":{
"type":"Point",
"coordinates":[
130.915898,
33.924847
]
}
},
{
"type":"Feature",
"properties":{
"Name":"角島小学校",
"Jusho":"山口県下関市豊北町大字角島字正ノ田1768",
"Capacity":"230",
"la":"34.35417200000",
"ln":"130.86094300000"
},
"geometry":{
"type":"Point",
"coordinates":[
130.860943,
34.354172
]
}
},
{
"type":"Feature",
"properties":{
"Name":"関西小学校",
"Jusho":"山口県下関市関西町12-1",
"Capacity":"200",
"la":"33.95798300000",
"ln":"130.92761900000"
},
"geometry":{
"type":"Point",
"coordinates":[
130.927619,
33.957983
]
}
},
{
"type":"Feature",
"properties":{
"Name":"吉見小学校",
"Jusho":"山口県下関市吉見里町1丁目8-1",
"Capacity":"300",
"la":"34.07263600000",
"ln":"130.90070100000"
},
"geometry":{
"type":"Point",
"coordinates":[
130.900701,
34.072636
]
}
},
{
"type":"Feature",
"properties":{
"Name":"吉田小学校",
"Jusho":"山口県下関市大字吉田字高田1044番地の2",
"Capacity":"200",
"la":"34.08862200000",
"ln":"131.07216500000"
},
"geometry":{
"type":"Point",
"coordinates":[
131.072165,
34.088622
]
}
},
{
"type":"Feature",
"properties":{
"Name":"吉母小学校",
"Jusho":"山口県下関市大字吉母字塩谷287番地",
"Capacity":"50",
"la":"34.08966000000",
"ln":"130.87876900000"
},
"geometry":{
"type":"Point",
"coordinates":[
130.878769,
34.08966
]
}
},
{
"type":"Feature",
"properties":{
"Name":"旧殿居小学校維新分校",
"Jusho":"山口県下関市豊田町大字杢路子1441-2",
"Capacity":"50",
"la":"34.21446176380",
"ln":"131.00964659500"
},
"geometry":{
"type":"Point",
"coordinates":[
131.009646595,
34.2144617638
]
}
},
{
"type":"Feature",
"properties":{
"Name":"熊野小学校",
"Jusho":"山口県下関市熊野西町10-1",
"Capacity":"200",
"la":"33.99511800000",
"ln":"130.94178300000"
},
"geometry":{
"type":"Point",
"coordinates":[
130.941783,
33.995118
]
}
},
{
"type":"Feature",
"properties":{
"Name":"向井小学校",
"Jusho":"山口県下関市彦島向井町2丁目20-1",
"Capacity":"300",
"la":"33.91745900000",
"ln":"130.91856400000"
},
"geometry":{
"type":"Point",
"coordinates":[
130.918564,
33.917459
]
}
},
{
"type":"Feature",
"properties":{
"Name":"向山小学校",
"Jusho":"山口県下関市向山町14-1",
"Capacity":"300",
"la":"33.96742600000",
"ln":"130.92578500000"
},
"geometry":{
"type":"Point",
"coordinates":[
130.925785,
33.967426
]
}
},
{
"type":"Feature",
"properties":{
"Name":"垢田小学校",
"Jusho":"山口県下関市新垢田西町1丁目1番1号",
"Capacity":"200",
"la":"33.98923000000",
"ln":"130.91261900000"
},
"geometry":{
"type":"Point",
"coordinates":[
130.912619,
33.98923
]
}
},
{
"type":"Feature",
"properties":{
"Name":"江浦小学校",
"Jusho":"山口県下関市彦島江の浦町3丁目4-1",
"Capacity":"150",
"la":"33.93012400000",
"ln":"130.91492600000"
},
"geometry":{
"type":"Point",
"coordinates":[
130.914926,
33.930124
]
}
},
{
"type":"Feature",
"properties":{
"Name":"桜山小学校",
"Jusho":"山口県下関市上新地町2丁目5-10",
"Capacity":"200",
"la":"33.96081600000",
"ln":"130.92034200000"
},
"geometry":{
"type":"Point",
"coordinates":[
130.920342,
33.960816
]
}
},
{
"type":"Feature",
"properties":{
"Name":"三豊小学校",
"Jusho":"山口県下関市豊田町大字地吉122",
"Capacity":"150",
"la":"34.24025800000",
"ln":"131.12684300000"
},
"geometry":{
"type":"Point",
"coordinates":[
131.126843,
34.240258
]
}
},
{
"type":"Feature",
"properties":{
"Name":"山の田小学校",
"Jusho":"山口県下関市山の田中央町13-1",
"Capacity":"300",
"la":"33.98761900000",
"ln":"130.92561800000"
},
"geometry":{
"type":"Point",
"coordinates":[
130.925618,
33.987619
]
}
},
{
"type":"Feature",
"properties":{
"Name":"室津小学校",
"Jusho":"山口県下関市豊浦町大字室津下字新田152-1",
"Capacity":"360",
"la":"34.13036600000",
"ln":"130.89332000000"
},
"geometry":{
"type":"Point",
"coordinates":[
130.89332,
34.130366
]
}
},
{
"type":"Feature",
"properties":{
"Name":"勝山小学校",
"Jusho":"山口県下関市秋根上町2丁目2-1",
"Capacity":"200",
"la":"34.00997800000",
"ln":"130.96094800000"
},
"geometry":{
"type":"Point",
"coordinates":[
130.960948,
34.009978
]
}
},
{
"type":"Feature",
"properties":{
"Name":"小串小学校",
"Jusho":"山口県下関市豊浦町大字小串字谷田ヶ浴617",
"Capacity":"400",
"la":"34.17602200000",
"ln":"130.93325600000"
},
"geometry":{
"type":"Point",
"coordinates":[
130.933256,
34.176022
]
}
},
{
"type":"Feature",
"properties":{
"Name":"小月小学校",
"Jusho":"山口県下関市小月西の台6-1",
"Capacity":"500",
"la":"34.07100000000",
"ln":"131.04032900000"
},
"geometry":{
"type":"Point",
"coordinates":[
131.040329,
34.071
]
}
},
{
"type":"Feature",
"properties":{
"Name":"神玉小学校",
"Jusho":"山口県下関市豊北町大字神田上字野中2704-1",
"Capacity":"330",
"la":"34.28577700000",
"ln":"130.89409600000"
},
"geometry":{
"type":"Point",
"coordinates":[
130.894096,
34.285777
]
}
},
{
"type":"Feature",
"properties":{
"Name":"神田小学校",
"Jusho":"山口県下関市西神田町5-1",
"Capacity":"200",
"la":"33.96053800000",
"ln":"130.92339700000"
},
"geometry":{
"type":"Point",
"coordinates":[
130.923397,
33.960538
]
}
},
{
"type":"Feature",
"properties":{
"Name":"神田小学校",
"Jusho":"山口県下関市豊北町大字神田字北東法永浴2519",
"Capacity":"320",
"la":"34.33286399910",
"ln":"130.89453400000"
},
"geometry":{
"type":"Point",
"coordinates":[
130.894534,
34.3328639991
]
}
},
{
"type":"Feature",
"properties":{
"Name":"清末小学校",
"Jusho":"山口県下関市清末西町1丁目6-1",
"Capacity":"300",
"la":"34.06391700000",
"ln":"131.01908000000"
},
"geometry":{
"type":"Point",
"coordinates":[
131.01908,
34.063917
]
}
},
{
"type":"Feature",
"properties":{
"Name":"生野小学校",
"Jusho":"山口県下関市幡生本町7-14",
"Capacity":"300",
"la":"33.97800900000",
"ln":"130.92870200000"
},
"geometry":{
"type":"Point",
"coordinates":[
130.928702,
33.978009
]
}
},
{
"type":"Feature",
"properties":{
"Name":"西山小学校",
"Jusho":"山口県下関市彦島迫町5丁目13-21",
"Capacity":"300",
"la":"33.94231700000",
"ln":"130.89606600000"
},
"geometry":{
"type":"Point",
"coordinates":[
130.896066,
33.942317
]
}
},
{
"type":"Feature",
"properties":{
"Name":"西市小学校",
"Jusho":"山口県下関市豊田町大字矢田132",
"Capacity":"140",
"la":"34.20458300000",
"ln":"131.07426000000"
},
"geometry":{
"type":"Point",
"coordinates":[
131.07426,
34.204583
]
}
},
{
"type":"Feature",
"properties":{
"Name":"誠意小学校",
"Jusho":"山口県下関市豊浦町大字黒井字才舛2200",
"Capacity":"870",
"la":"34.12780600000",
"ln":"130.91407000000"
},
"geometry":{
"type":"Point",
"coordinates":[
130.91407,
34.127806
]
}
},
{
"type":"Feature",
"properties":{
"Name":"川棚小学校",
"Jusho":"山口県下関市豊浦町大字川棚字後楽3650-1",
"Capacity":"580",
"la":"34.15119800000",
"ln":"130.93145000000"
},
"geometry":{
"type":"Point",
"coordinates":[
130.93145,
34.151198
]
}
},
{
"type":"Feature",
"properties":{
"Name":"川中小学校",
"Jusho":"山口県下関市伊倉本町19-1",
"Capacity":"200",
"la":"34.00372900000",
"ln":"130.93522800000"
},
"geometry":{
"type":"Point",
"coordinates":[
130.935228,
34.003729
]
}
},
{
"type":"Feature",
"properties":{
"Name":"川中西小学校",
"Jusho":"山口県下関市古屋町2丁目9-1",
"Capacity":"200",
"la":"34.00053400000",
"ln":"130.91881200000"
},
"geometry":{
"type":"Point",
"coordinates":[
130.918812,
34.000534
]
}
},
{
"type":"Feature",
"properties":{
"Name":"滝部小学校",
"Jusho":"山口県下関市豊北町大字滝部字常安1200",
"Capacity":"390",
"la":"34.29293899910",
"ln":"130.95434600000"
},
"geometry":{
"type":"Point",
"coordinates":[
130.954346,
34.2929389991
]
}
},
{
"type":"Feature",
"properties":{
"Name":"長府小学校",
"Jusho":"山口県下関市長府松小田北町14-1",
"Capacity":"200",
"la":"34.02117200000",
"ln":"130.99716600000"
},
"geometry":{
"type":"Point",
"coordinates":[
130.997166,
34.021172
]
}
},
{
"type":"Feature",
"properties":{
"Name":"殿居小学校",
"Jusho":"山口県下関市豊田町大字殿居1040-1",
"Capacity":"150",
"la":"34.25939300000",
"ln":"131.03065900000"
},
"geometry":{
"type":"Point",
"coordinates":[
131.030659,
34.259393
]
}
},
{
"type":"Feature",
"properties":{
"Name":"田耕小学校",
"Jusho":"山口県下関市豊北町大字田耕字尾振り松4351",
"Capacity":"320",
"la":"34.27085000000",
"ln":"130.98715700000"
},
"geometry":{
"type":"Point",
"coordinates":[
130.987157,
34.27085
]
}
},
{
"type":"Feature",
"properties":{
"Name":"内日小学校",
"Jusho":"山口県下関市大字内日下字坂本1031番地",
"Capacity":"300",
"la":"34.10124500000",
"ln":"130.96994400000"
},
"geometry":{
"type":"Point",
"coordinates":[
130.969944,
34.101245
]
}
},
{
"type":"Feature",
"properties":{
"Name":"楢崎小学校",
"Jusho":"山口県下関市菊川町大字楢崎字殿屋敷215",
"Capacity":"270",
"la":"34.13483900000",
"ln":"130.99399500000"
},
"geometry":{
"type":"Point",
"coordinates":[
130.993995,
34.134839
]
}
},
{
"type":"Feature",
"properties":{
"Name":"二見小学校",
"Jusho":"山口県下関市豊北町大字北宇賀字五本松3087-3",
"Capacity":"130",
"la":"34.25435600000",
"ln":"130.91724000000"
},
"geometry":{
"type":"Point",
"coordinates":[
130.91724,
34.254356
]
}
},
{
"type":"Feature",
"properties":{
"Name":"文関小学校",
"Jusho":"山口県下関市上田中町1丁目14-1",
"Capacity":"200",
"la":"33.96639900000",
"ln":"130.93784000000"
},
"geometry":{
"type":"Point",
"coordinates":[
130.93784,
33.966399
]
}
},
{
"type":"Feature",
"properties":{
"Name":"豊浦小学校",
"Jusho":"山口県下関市長府亀の甲2丁目2-1",
"Capacity":"500",
"la":"34.00350600000",
"ln":"130.98900100000"
},
"geometry":{
"type":"Point",
"coordinates":[
130.989001,
34.003506
]
}
},
{
"type":"Feature",
"properties":{
"Name":"豊田下小学校",
"Jusho":"山口県下関市豊田町大字手洗303",
"Capacity":"140",
"la":"34.17980200000",
"ln":"131.06644900000"
},
"geometry":{
"type":"Point",
"coordinates":[
131.066449,
34.179802
]
}
},
{
"type":"Feature",
"properties":{
"Name":"豊田中小学校",
"Jusho":"山口県下関市豊田町大字浮石1159-1",
"Capacity":"150",
"la":"34.22962200000",
"ln":"131.05609700000"
},
"geometry":{
"type":"Point",
"coordinates":[
131.056097,
34.229622
]
}
},
{
"type":"Feature",
"properties":{
"Name":"豊東小学校",
"Jusho":"山口県下関市菊川町大字上大野字上ノ原20-1",
"Capacity":"320",
"la":"34.11513800000",
"ln":"131.04955800000"
},
"geometry":{
"type":"Point",
"coordinates":[
131.049558,
34.115138
]
}
},
{
"type":"Feature",
"properties":{
"Name":"本村小学校",
"Jusho":"山口県下関市彦島本村町3丁目16-1",
"Capacity":"200",
"la":"33.94523400000",
"ln":"130.91014800000"
},
"geometry":{
"type":"Point",
"coordinates":[
130.910148,
33.945234
]
}
},
{
"type":"Feature",
"properties":{
"Name":"名池小学校",
"Jusho":"山口県下関市名池町10-1",
"Capacity":"200",
"la":"33.95848300000",
"ln":"130.93759000000"
},
"geometry":{
"type":"Point",
"coordinates":[
130.93759,
33.958483
]
}
},
{
"type":"Feature",
"properties":{
"Name":"養治小学校",
"Jusho":"山口県下関市本町2丁目6-1",
"Capacity":"200",
"la":"33.96589900000",
"ln":"130.94872800000"
},
"geometry":{
"type":"Point",
"coordinates":[
130.948728,
33.965899
]
}
},
{
"type":"Feature",
"properties":{
"Name":"さくら小学校",
"Jusho":"山口県山口市阿東地福上1234-4",
"Capacity":"－",
"la":"34.35873200000",
"ln":"131.66149100000"
},
"geometry":{
"type":"Point",
"coordinates":[
131.661491,
34.358732
]
}
},
{
"type":"Feature",
"properties":{
"Name":"阿知須小学校",
"Jusho":"山口県山口市阿知須4251",
"Capacity":"－",
"la":"34.01137900000",
"ln":"131.35969400000"
},
"geometry":{
"type":"Point",
"coordinates":[
131.359694,
34.011379
]
}
},
{
"type":"Feature",
"properties":{
"Name":"井関小学校",
"Jusho":"山口県山口市阿知須1636-1",
"Capacity":"－",
"la":"34.01454700000",
"ln":"131.34070100000"
},
"geometry":{
"type":"Point",
"coordinates":[
131.340701,
34.014547
]
}
},
{
"type":"Feature",
"properties":{
"Name":"嘉川小学校",
"Jusho":"山口県山口市嘉川4986",
"Capacity":"－",
"la":"34.07564500000",
"ln":"131.37574800000"
},
"geometry":{
"type":"Point",
"coordinates":[
131.375748,
34.075645
]
}
},
{
"type":"Feature",
"properties":{
"Name":"嘉年小学校",
"Jusho":"山口県山口市阿東嘉年上3436",
"Capacity":"－",
"la":"34.46666700000",
"ln":"131.67343200000"
},
"geometry":{
"type":"Point",
"coordinates":[
131.673432,
34.466667
]
}
},
{
"type":"Feature",
"properties":{
"Name":"宮野小学校",
"Jusho":"山口県山口市宮野下3017",
"Capacity":"－",
"la":"34.19983000000",
"ln":"131.50609200000"
},
"geometry":{
"type":"Point",
"coordinates":[
131.506092,
34.19983
]
}
},
{
"type":"Feature",
"properties":{
"Name":"興進小学校",
"Jusho":"山口県山口市江崎2284",
"Capacity":"－",
"la":"34.05753600000",
"ln":"131.36972100000"
},
"geometry":{
"type":"Point",
"coordinates":[
131.369721,
34.057536
]
}
},
{
"type":"Feature",
"properties":{
"Name":"串小学校",
"Jusho":"山口県山口市徳地鯖河内1421",
"Capacity":"－",
"la":"34.19509300000",
"ln":"131.73568100000"
},
"geometry":{
"type":"Point",
"coordinates":[
131.735681,
34.195093
]
}
},
{
"type":"Feature",
"properties":{
"Name":"佐山小学校",
"Jusho":"山口県山口市佐山2731",
"Capacity":"－",
"la":"34.03670500000",
"ln":"131.36041600000"
},
"geometry":{
"type":"Point",
"coordinates":[
131.360416,
34.036705
]
}
},
{
"type":"Feature",
"properties":{
"Name":"秋穂小学校",
"Jusho":"山口県山口市秋穂東6771",
"Capacity":"－",
"la":"34.01671900000",
"ln":"131.43536900000"
},
"geometry":{
"type":"Point",
"coordinates":[
131.435369,
34.016719
]
}
},
{
"type":"Feature",
"properties":{
"Name":"小郡小学校",
"Jusho":"山口県山口市小郡下郷254-3",
"Capacity":"－",
"la":"34.10611800000",
"ln":"131.39997100000"
},
"geometry":{
"type":"Point",
"coordinates":[
131.399971,
34.106118
]
}
},
{
"type":"Feature",
"properties":{
"Name":"小郡南小学校",
"Jusho":"山口県山口市小郡緑町1-1",
"Capacity":"－",
"la":"34.09071100000",
"ln":"131.40050900000"
},
"geometry":{
"type":"Point",
"coordinates":[
131.400509,
34.090711
]
}
},
{
"type":"Feature",
"properties":{
"Name":"小鯖小学校",
"Jusho":"山口県山口市下小鯖2519",
"Capacity":"－",
"la":"34.12797500000",
"ln":"131.52531500000"
},
"geometry":{
"type":"Point",
"coordinates":[
131.525315,
34.127975
]
}
},
{
"type":"Feature",
"properties":{
"Name":"上郷小学校",
"Jusho":"山口県山口市小郡上郷2555",
"Capacity":"－",
"la":"34.12156800000",
"ln":"131.39806600000"
},
"geometry":{
"type":"Point",
"coordinates":[
131.398066,
34.121568
]
}
},
{
"type":"Feature",
"properties":{
"Name":"仁保小学校",
"Jusho":"山口県山口市仁保中郷81",
"Capacity":"－",
"la":"34.21452400000",
"ln":"131.55547600000"
},
"geometry":{
"type":"Point",
"coordinates":[
131.555476,
34.214524
]
}
},
{
"type":"Feature",
"properties":{
"Name":"生雲小学校",
"Jusho":"山口県山口市阿東生雲中319",
"Capacity":"－",
"la":"34.38511995180",
"ln":"131.59981665600"
},
"geometry":{
"type":"Point",
"coordinates":[
131.599816656,
34.3851199518
]
}
},
{
"type":"Feature",
"properties":{
"Name":"大海小学校",
"Jusho":"山口県山口市秋穂東2299",
"Capacity":"－",
"la":"34.02127600000",
"ln":"131.46310100000"
},
"geometry":{
"type":"Point",
"coordinates":[
131.463101,
34.021276
]
}
},
{
"type":"Feature",
"properties":{
"Name":"大歳小学校",
"Jusho":"山口県山口市矢原1486",
"Capacity":"－",
"la":"34.15022200000",
"ln":"131.43962900000"
},
"geometry":{
"type":"Point",
"coordinates":[
131.439629,
34.150222
]
}
},
{
"type":"Feature",
"properties":{
"Name":"大殿小学校",
"Jusho":"山口県山口市大殿大路213",
"Capacity":"－",
"la":"34.18274800000",
"ln":"131.48153900000"
},
"geometry":{
"type":"Point",
"coordinates":[
131.481539,
34.182748
]
}
},
{
"type":"Feature",
"properties":{
"Name":"大内小学校",
"Jusho":"山口県山口市大内矢田1016",
"Capacity":"－",
"la":"34.15719500000",
"ln":"131.50006600000"
},
"geometry":{
"type":"Point",
"coordinates":[
131.500066,
34.157195
]
}
},
{
"type":"Feature",
"properties":{
"Name":"大内南小学校",
"Jusho":"山口県山口市大内矢田1133-1",
"Capacity":"－",
"la":"34.15036200000",
"ln":"131.49731600000"
},
"geometry":{
"type":"Point",
"coordinates":[
131.497316,
34.150362
]
}
},
{
"type":"Feature",
"properties":{
"Name":"中央小学校",
"Jusho":"山口県山口市徳地堀1551",
"Capacity":"－",
"la":"34.18997000000",
"ln":"131.66161400000"
},
"geometry":{
"type":"Point",
"coordinates":[
131.661614,
34.18997
]
}
},
{
"type":"Feature",
"properties":{
"Name":"鋳銭司小学校",
"Jusho":"山口県山口市鋳銭司4010",
"Capacity":"－",
"la":"34.08589500000",
"ln":"131.45390700000"
},
"geometry":{
"type":"Point",
"coordinates":[
131.453907,
34.085895
]
}
},
{
"type":"Feature",
"properties":{
"Name":"島地小学校",
"Jusho":"山口県山口市徳地島地16",
"Capacity":"－",
"la":"34.15885400000",
"ln":"131.70052800000"
},
"geometry":{
"type":"Point",
"coordinates":[
131.700528,
34.158854
]
}
},
{
"type":"Feature",
"properties":{
"Name":"湯田小学校",
"Jusho":"山口県山口市元町2-26",
"Capacity":"－",
"la":"34.16941500000",
"ln":"131.45818200000"
},
"geometry":{
"type":"Point",
"coordinates":[
131.458182,
34.169415
]
}
},
{
"type":"Feature",
"properties":{
"Name":"陶小学校",
"Jusho":"山口県山口市陶3544",
"Capacity":"－",
"la":"34.09028300000",
"ln":"131.42982600000"
},
"geometry":{
"type":"Point",
"coordinates":[
131.429826,
34.090283
]
}
},
{
"type":"Feature",
"properties":{
"Name":"二島小学校",
"Jusho":"山口県山口市秋穂二島552-1",
"Capacity":"－",
"la":"34.03815000000",
"ln":"131.42024500000"
},
"geometry":{
"type":"Point",
"coordinates":[
131.420245,
34.03815
]
}
},
{
"type":"Feature",
"properties":{
"Name":"白石小学校",
"Jusho":"山口県山口市白石1-10-1",
"Capacity":"－",
"la":"34.17680400000",
"ln":"131.47087400000"
},
"geometry":{
"type":"Point",
"coordinates":[
131.470874,
34.176804
]
}
},
{
"type":"Feature",
"properties":{
"Name":"八坂小学校",
"Jusho":"山口県山口市徳地八坂1226",
"Capacity":"－",
"la":"34.23783800000",
"ln":"131.65804900000"
},
"geometry":{
"type":"Point",
"coordinates":[
131.658049,
34.237838
]
}
},
{
"type":"Feature",
"properties":{
"Name":"平川小学校",
"Jusho":"山口県山口市黒川1675-2",
"Capacity":"－",
"la":"34.14161900000",
"ln":"131.45602000000"
},
"geometry":{
"type":"Point",
"coordinates":[
131.45602,
34.141619
]
}
},
{
"type":"Feature",
"properties":{
"Name":"名田島小学校",
"Jusho":"山口県山口市名田島1538-2",
"Capacity":"－",
"la":"34.07659000000",
"ln":"131.41499500000"
},
"geometry":{
"type":"Point",
"coordinates":[
131.414995,
34.07659
]
}
},
{
"type":"Feature",
"properties":{
"Name":"良城小学校",
"Jusho":"山口県山口市吉敷1515",
"Capacity":"－",
"la":"34.16585900000",
"ln":"131.42985200000"
},
"geometry":{
"type":"Point",
"coordinates":[
131.429852,
34.165859
]
}
},
{
"type":"Feature",
"properties":{
"Name":"むつみ小学校",
"Jusho":"山口県萩市大字吉部上3192番地",
"Capacity":"－",
"la":"34.43764000000",
"ln":"131.57821900000"
},
"geometry":{
"type":"Point",
"coordinates":[
131.578219,
34.43764
]
}
},
{
"type":"Feature",
"properties":{
"Name":"育英小学校",
"Jusho":"山口県萩市大字須佐4371番地",
"Capacity":"－",
"la":"34.61659981960",
"ln":"131.60093529700"
},
"geometry":{
"type":"Point",
"coordinates":[
131.600935297,
34.6165998196
]
}
},
{
"type":"Feature",
"properties":{
"Name":"越ヶ浜小学校",
"Jusho":"山口県萩市大字椿東6088番地",
"Capacity":"－",
"la":"34.44388700000",
"ln":"131.42145500000"
},
"geometry":{
"type":"Point",
"coordinates":[
131.421455,
34.443887
]
}
},
{
"type":"Feature",
"properties":{
"Name":"見島小学校",
"Jusho":"山口県萩市見島657番地",
"Capacity":"－",
"la":"34.76476100000",
"ln":"131.15191300000"
},
"geometry":{
"type":"Point",
"coordinates":[
131.151913,
34.764761
]
}
},
{
"type":"Feature",
"properties":{
"Name":"佐々並小学校グラウンド",
"Jusho":"山口県萩市佐々並2684",
"Capacity":"－",
"la":"34.28446000000",
"ln":"131.45978900000"
},
"geometry":{
"type":"Point",
"coordinates":[
131.459789,
34.28446
]
}
},
{
"type":"Feature",
"properties":{
"Name":"紫福小学校",
"Jusho":"山口県萩市大字紫福3327番地",
"Capacity":"－",
"la":"34.45960900000",
"ln":"131.52691800000"
},
"geometry":{
"type":"Point",
"coordinates":[
131.526918,
34.459609
]
}
},
{
"type":"Feature",
"properties":{
"Name":"小川小学校グランド",
"Jusho":"山口県萩市大字中小川977番地",
"Capacity":"－",
"la":"34.59109700000",
"ln":"131.68606600000"
},
"geometry":{
"type":"Point",
"coordinates":[
131.686066,
34.591097
]
}
},
{
"type":"Feature",
"properties":{
"Name":"川上小学校グラウンド",
"Jusho":"山口県萩市川上4462番地12",
"Capacity":"－",
"la":"34.35904600000",
"ln":"131.45689200000"
},
"geometry":{
"type":"Point",
"coordinates":[
131.456892,
34.359046
]
}
},
{
"type":"Feature",
"properties":{
"Name":"大井小学校グラウンド",
"Jusho":"山口県萩市大井1447-2",
"Capacity":"－",
"la":"34.46832900000",
"ln":"131.45167400000"
},
"geometry":{
"type":"Point",
"coordinates":[
131.451674,
34.468329
]
}
},
{
"type":"Feature",
"properties":{
"Name":"大島小学校",
"Jusho":"山口県萩市大島250番地",
"Capacity":"－",
"la":"34.49252100000",
"ln":"131.40617600000"
},
"geometry":{
"type":"Point",
"coordinates":[
131.406176,
34.492521
]
}
},
{
"type":"Feature",
"properties":{
"Name":"椿西小学校",
"Jusho":"山口県萩市大字椿3332番地1",
"Capacity":"－",
"la":"34.39720694500",
"ln":"131.39833253400"
},
"geometry":{
"type":"Point",
"coordinates":[
131.398332534,
34.397206945
]
}
},
{
"type":"Feature",
"properties":{
"Name":"椿東小学校",
"Jusho":"山口県萩市大字椿東2710番地1",
"Capacity":"－",
"la":"34.41411200000",
"ln":"131.41731700000"
},
"geometry":{
"type":"Point",
"coordinates":[
131.417317,
34.414112
]
}
},
{
"type":"Feature",
"properties":{
"Name":"白水小学校",
"Jusho":"山口県萩市大字山田4522番地",
"Capacity":"－",
"la":"34.39705800000",
"ln":"131.37598700000"
},
"geometry":{
"type":"Point",
"coordinates":[
131.375987,
34.397058
]
}
},
{
"type":"Feature",
"properties":{
"Name":"福川小学校",
"Jusho":"山口県萩市大字福井下4024番地",
"Capacity":"－",
"la":"34.43286100000",
"ln":"131.48061800000"
},
"geometry":{
"type":"Point",
"coordinates":[
131.480618,
34.432861
]
}
},
{
"type":"Feature",
"properties":{
"Name":"明倫小学校",
"Jusho":"山口県萩市大字江向602番地",
"Capacity":"－",
"la":"34.40964000000",
"ln":"131.39984600000"
},
"geometry":{
"type":"Point",
"coordinates":[
131.399846,
34.40964
]
}
},
{
"type":"Feature",
"properties":{
"Name":"弥富小学校",
"Jusho":"山口県萩市大字弥富下4083番1",
"Capacity":"－",
"la":"34.55121200000",
"ln":"131.63882000000"
},
"geometry":{
"type":"Point",
"coordinates":[
131.63882,
34.551212
]
}
},
{
"type":"Feature",
"properties":{
"Name":"鈴野川小学校グラウンド",
"Jusho":"山口県萩市大字鈴野川1982番地",
"Capacity":"－",
"la":"34.54957400000",
"ln":"131.68409500000"
},
"geometry":{
"type":"Point",
"coordinates":[
131.684095,
34.549574
]
}
},
{
"type":"Feature",
"properties":{
"Name":"右田小学校",
"Jusho":"山口県防府市大字下右田86-2",
"Capacity":"500",
"la":"34.07781300000",
"ln":"131.56148100000"
},
"geometry":{
"type":"Point",
"coordinates":[
131.561481,
34.077813
]
}
},
{
"type":"Feature",
"properties":{
"Name":"華浦小学校",
"Jusho":"山口県防府市華浦2-2-2",
"Capacity":"1000",
"la":"34.04084700000",
"ln":"131.56887000000"
},
"geometry":{
"type":"Point",
"coordinates":[
131.56887,
34.040847
]
}
},
{
"type":"Feature",
"properties":{
"Name":"華城小学校",
"Jusho":"山口県防府市華城中央2-2-1",
"Capacity":"500",
"la":"34.04670700000",
"ln":"131.54462200000"
},
"geometry":{
"type":"Point",
"coordinates":[
131.544622,
34.046707
]
}
},
{
"type":"Feature",
"properties":{
"Name":"玉祖小学校",
"Jusho":"山口県防府市大字大崎1802",
"Capacity":"500",
"la":"34.05712300000",
"ln":"131.53017800000"
},
"geometry":{
"type":"Point",
"coordinates":[
131.530178,
34.057123
]
}
},
{
"type":"Feature",
"properties":{
"Name":"向島小学校",
"Jusho":"山口県防府市大字向島775",
"Capacity":"500",
"la":"34.01826700000",
"ln":"131.57862000000"
},
"geometry":{
"type":"Point",
"coordinates":[
131.57862,
34.018267
]
}
},
{
"type":"Feature",
"properties":{
"Name":"佐波小学校",
"Jusho":"山口県防府市八王子2-6-10",
"Capacity":"1000",
"la":"34.05848200000",
"ln":"131.56573100000"
},
"geometry":{
"type":"Point",
"coordinates":[
131.565731,
34.058482
]
}
},
{
"type":"Feature",
"properties":{
"Name":"勝間小学校",
"Jusho":"山口県防府市警固町2-3-1",
"Capacity":"1000",
"la":"34.05129000000",
"ln":"131.58195200000"
},
"geometry":{
"type":"Point",
"coordinates":[
131.581952,
34.05129
]
}
},
{
"type":"Feature",
"properties":{
"Name":"小野小学校",
"Jusho":"山口県防府市大字奈美633-1",
"Capacity":"500",
"la":"34.12152900000",
"ln":"131.60361300000"
},
"geometry":{
"type":"Point",
"coordinates":[
131.603613,
34.121529
]
}
},
{
"type":"Feature",
"properties":{
"Name":"松崎小学校",
"Jusho":"山口県防府市東松崎町1-1",
"Capacity":"1000",
"la":"34.05934300000",
"ln":"131.57600800000"
},
"geometry":{
"type":"Point",
"coordinates":[
131.576008,
34.059343
]
}
},
{
"type":"Feature",
"properties":{
"Name":"新田小学校",
"Jusho":"山口県防府市大字新田1014-1",
"Capacity":"500",
"la":"34.03186700000",
"ln":"131.57163600000"
},
"geometry":{
"type":"Point",
"coordinates":[
131.571636,
34.031867
]
}
},
{
"type":"Feature",
"properties":{
"Name":"西浦小学校",
"Jusho":"山口県防府市大字西浦1944-1",
"Capacity":"800",
"la":"34.02312600000",
"ln":"131.52098600000"
},
"geometry":{
"type":"Point",
"coordinates":[
131.520986,
34.023126
]
}
},
{
"type":"Feature",
"properties":{
"Name":"大道小学校",
"Jusho":"山口県防府市大字台道400-1",
"Capacity":"500",
"la":"34.05953800000",
"ln":"131.48934900000"
},
"geometry":{
"type":"Point",
"coordinates":[
131.489349,
34.059538
]
}
},
{
"type":"Feature",
"properties":{
"Name":"中関小学校",
"Jusho":"山口県防府市大字浜方746",
"Capacity":"1000",
"la":"34.01840500000",
"ln":"131.54884400000"
},
"geometry":{
"type":"Point",
"coordinates":[
131.548844,
34.018405
]
}
},
{
"type":"Feature",
"properties":{
"Name":"富海小学校",
"Jusho":"山口県防府市大字富海1248",
"Capacity":"300",
"la":"34.05168200000",
"ln":"131.64688900000"
},
"geometry":{
"type":"Point",
"coordinates":[
131.646889,
34.051682
]
}
},
{
"type":"Feature",
"properties":{
"Name":"牟礼小学校",
"Jusho":"山口県防府市大字牟礼106",
"Capacity":"1000",
"la":"34.05645800000",
"ln":"131.60561500000"
},
"geometry":{
"type":"Point",
"coordinates":[
131.605615,
34.056458
]
}
},
{
"type":"Feature",
"properties":{
"Name":"牟礼南小学校",
"Jusho":"山口県防府市大字江泊1361",
"Capacity":"1000",
"la":"34.05287500000",
"ln":"131.60594900000"
},
"geometry":{
"type":"Point",
"coordinates":[
131.605949,
34.052875
]
}
},
{
"type":"Feature",
"properties":{
"Name":"下松小学校（体育館）",
"Jusho":"山口県下松市大字西豊井698",
"Capacity":"－",
"la":"34.01205200000",
"ln":"131.87128900000"
},
"geometry":{
"type":"Point",
"coordinates":[
131.871289,
34.012052
]
}
},
{
"type":"Feature",
"properties":{
"Name":"花岡小学校（体育館）",
"Jusho":"山口県下松市大字末武上255-1",
"Capacity":"－",
"la":"34.03849400000",
"ln":"131.87403800000"
},
"geometry":{
"type":"Point",
"coordinates":[
131.874038,
34.038494
]
}
},
{
"type":"Feature",
"properties":{
"Name":"中村小学校（体育館）",
"Jusho":"山口県下松市清瀬町2-6-1",
"Capacity":"－",
"la":"34.02957399910",
"ln":"131.85540200000"
},
"geometry":{
"type":"Point",
"coordinates":[
131.855402,
34.0295739991
]
}
},
{
"type":"Feature",
"properties":{
"Name":"東陽小学校（体育館）",
"Jusho":"山口県下松市東陽4-17-1",
"Capacity":"－",
"la":"34.03532900000",
"ln":"131.91345100000"
},
"geometry":{
"type":"Point",
"coordinates":[
131.913451,
34.035329
]
}
},
{
"type":"Feature",
"properties":{
"Name":"豊井小学校（体育館）",
"Jusho":"山口県下松市大字豊井1134",
"Capacity":"－",
"la":"33.99935900000",
"ln":"131.87820500000"
},
"geometry":{
"type":"Point",
"coordinates":[
131.878205,
33.999359
]
}
},
{
"type":"Feature",
"properties":{
"Name":"愛宕小学校",
"Jusho":"山口県岩国市尾津町1-1-11",
"Capacity":"－",
"la":"34.14554400000",
"ln":"132.21333900000"
},
"geometry":{
"type":"Point",
"coordinates":[
132.213339,
34.145544
]
}
},
{
"type":"Feature",
"properties":{
"Name":"宇佐小学校（休校）",
"Jusho":"山口県岩国市錦町宇佐1243",
"Capacity":"－",
"la":"34.37420000000",
"ln":"132.02100300000"
},
"geometry":{
"type":"Point",
"coordinates":[
132.021003,
34.3742
]
}
},
{
"type":"Feature",
"properties":{
"Name":"河内小学校",
"Jusho":"山口県岩国市土生82",
"Capacity":"－",
"la":"34.15232000000",
"ln":"132.10226600000"
},
"geometry":{
"type":"Point",
"coordinates":[
132.102266,
34.15232
]
}
},
{
"type":"Feature",
"properties":{
"Name":"岩国小学校",
"Jusho":"山口県岩国市岩国3-1-18",
"Capacity":"－",
"la":"34.16440300000",
"ln":"132.18575800000"
},
"geometry":{
"type":"Point",
"coordinates":[
132.185758,
34.164403
]
}
},
{
"type":"Feature",
"properties":{
"Name":"玖珂小学校",
"Jusho":"山口県岩国市玖珂町527-2",
"Capacity":"－",
"la":"34.09567400000",
"ln":"132.08091900000"
},
"geometry":{
"type":"Point",
"coordinates":[
132.080919,
34.095674
]
}
},
{
"type":"Feature",
"properties":{
"Name":"玖珂中央小学校",
"Jusho":"山口県岩国市玖珂町4930",
"Capacity":"－",
"la":"34.09063100000",
"ln":"132.08365900000"
},
"geometry":{
"type":"Point",
"coordinates":[
132.083659,
34.090631
]
}
},
{
"type":"Feature",
"properties":{
"Name":"御庄小学校",
"Jusho":"山口県岩国市御庄1362",
"Capacity":"－",
"la":"34.16237500000",
"ln":"132.14695700000"
},
"geometry":{
"type":"Point",
"coordinates":[
132.146957,
34.162375
]
}
},
{
"type":"Feature",
"properties":{
"Name":"広東小学校（休校）",
"Jusho":"山口県岩国市錦町府谷47-1",
"Capacity":"－",
"la":"34.27777100000",
"ln":"131.97472000000"
},
"geometry":{
"type":"Point",
"coordinates":[
131.97472,
34.277771
]
}
},
{
"type":"Feature",
"properties":{
"Name":"杭名小学校校舎",
"Jusho":"山口県岩国市杭名18-2",
"Capacity":"－",
"la":"34.17287300000",
"ln":"132.10907000000"
},
"geometry":{
"type":"Point",
"coordinates":[
132.10907,
34.172873
]
}
},
{
"type":"Feature",
"properties":{
"Name":"高森小学校",
"Jusho":"山口県岩国市周東町下久原1176",
"Capacity":"－",
"la":"34.09042300000",
"ln":"132.05270000000"
},
"geometry":{
"type":"Point",
"coordinates":[
132.0527,
34.090423
]
}
},
{
"type":"Feature",
"properties":{
"Name":"周北小学校",
"Jusho":"山口県岩国市周東町獺越2161",
"Capacity":"－",
"la":"34.12448900000",
"ln":"132.00489800000"
},
"geometry":{
"type":"Point",
"coordinates":[
132.004898,
34.124489
]
}
},
{
"type":"Feature",
"properties":{
"Name":"修成小学校",
"Jusho":"山口県岩国市周東町西長野1141",
"Capacity":"－",
"la":"34.09007500000",
"ln":"132.00748800000"
},
"geometry":{
"type":"Point",
"coordinates":[
132.007488,
34.090075
]
}
},
{
"type":"Feature",
"properties":{
"Name":"小瀬小学校",
"Jusho":"山口県岩国市小瀬288-1",
"Capacity":"－",
"la":"34.20906500000",
"ln":"132.19322900000"
},
"geometry":{
"type":"Point",
"coordinates":[
132.193229,
34.209065
]
}
},
{
"type":"Feature",
"properties":{
"Name":"深須小学校体育館（休校）",
"Jusho":"山口県岩国市錦町須川3319",
"Capacity":"－",
"la":"34.32885000000",
"ln":"131.99190500000"
},
"geometry":{
"type":"Point",
"coordinates":[
131.991905,
34.32885
]
}
},
{
"type":"Feature",
"properties":{
"Name":"神東小学校",
"Jusho":"山口県岩国市由宇町神東448-1",
"Capacity":"－",
"la":"34.00254600000",
"ln":"132.21167100000"
},
"geometry":{
"type":"Point",
"coordinates":[
132.211671,
34.002546
]
}
},
{
"type":"Feature",
"properties":{
"Name":"川下小学校",
"Jusho":"山口県岩国市車町1-1-43",
"Capacity":"－",
"la":"34.15795900000",
"ln":"132.21392300000"
},
"geometry":{
"type":"Point",
"coordinates":[
132.213923,
34.157959
]
}
},
{
"type":"Feature",
"properties":{
"Name":"川上小学校",
"Jusho":"山口県岩国市周東町下久原3032",
"Capacity":"－",
"la":"34.10882300000",
"ln":"132.04742600000"
},
"geometry":{
"type":"Point",
"coordinates":[
132.047426,
34.108823
]
}
},
{
"type":"Feature",
"properties":{
"Name":"祖生西小学校",
"Jusho":"山口県岩国市周東町祖生5856",
"Capacity":"－",
"la":"34.07423600000",
"ln":"132.10474500000"
},
"geometry":{
"type":"Point",
"coordinates":[
132.104745,
34.074236
]
}
},
{
"type":"Feature",
"properties":{
"Name":"祖生東小学校",
"Jusho":"山口県岩国市周東町祖生1480",
"Capacity":"－",
"la":"34.06204200000",
"ln":"132.13325800000"
},
"geometry":{
"type":"Point",
"coordinates":[
132.133258,
34.062042
]
}
},
{
"type":"Feature",
"properties":{
"Name":"装港小学校",
"Jusho":"山口県岩国市新港町4-16-30",
"Capacity":"－",
"la":"34.19253900000",
"ln":"132.22964400000"
},
"geometry":{
"type":"Point",
"coordinates":[
132.229644,
34.192539
]
}
},
{
"type":"Feature",
"properties":{
"Name":"中洋小学校",
"Jusho":"山口県岩国市青木町2-33-1",
"Capacity":"－",
"la":"34.09943800000",
"ln":"132.20200900000"
},
"geometry":{
"type":"Point",
"coordinates":[
132.202009,
34.099438
]
}
},
{
"type":"Feature",
"properties":{
"Name":"柱野小学校",
"Jusho":"山口県岩国市柱野1092-3",
"Capacity":"－",
"la":"34.13160100000",
"ln":"132.14920800000"
},
"geometry":{
"type":"Point",
"coordinates":[
132.149208,
34.131601
]
}
},
{
"type":"Feature",
"properties":{
"Name":"通津小学校",
"Jusho":"山口県岩国市通津2720",
"Capacity":"－",
"la":"34.07399700000",
"ln":"132.20437000000"
},
"geometry":{
"type":"Point",
"coordinates":[
132.20437,
34.073997
]
}
},
{
"type":"Feature",
"properties":{
"Name":"天尾小学校校舎",
"Jusho":"山口県岩国市天尾262",
"Capacity":"－",
"la":"34.17220599910",
"ln":"132.06493500000"
},
"geometry":{
"type":"Point",
"coordinates":[
132.064935,
34.1722059991
]
}
},
{
"type":"Feature",
"properties":{
"Name":"東小学校",
"Jusho":"山口県岩国市元町1-9-32",
"Capacity":"－",
"la":"34.16956900000",
"ln":"132.22706100000"
},
"geometry":{
"type":"Point",
"coordinates":[
132.227061,
34.169569
]
}
},
{
"type":"Feature",
"properties":{
"Name":"藤河小学校",
"Jusho":"山口県岩国市多田1365-2",
"Capacity":"－",
"la":"34.18565000000",
"ln":"132.16028800000"
},
"geometry":{
"type":"Point",
"coordinates":[
132.160288,
34.18565
]
}
},
{
"type":"Feature",
"properties":{
"Name":"灘小学校",
"Jusho":"山口県岩国市南岩国町5-60-1",
"Capacity":"－",
"la":"34.12129700000",
"ln":"132.19853600000"
},
"geometry":{
"type":"Point",
"coordinates":[
132.198536,
34.121297
]
}
},
{
"type":"Feature",
"properties":{
"Name":"波野小学校校舎",
"Jusho":"山口県岩国市本郷町波野655",
"Capacity":"－",
"la":"34.25655000000",
"ln":"132.02950100000"
},
"geometry":{
"type":"Point",
"coordinates":[
132.029501,
34.25655
]
}
},
{
"type":"Feature",
"properties":{
"Name":"美和西小学校",
"Jusho":"山口県岩国市美和町生見739-1",
"Capacity":"－",
"la":"34.22660600000",
"ln":"132.07735000000"
},
"geometry":{
"type":"Point",
"coordinates":[
132.07735,
34.226606
]
}
},
{
"type":"Feature",
"properties":{
"Name":"美和東小学校",
"Jusho":"山口県岩国市美和町佐坂241",
"Capacity":"－",
"la":"34.22973200000",
"ln":"132.11206300000"
},
"geometry":{
"type":"Point",
"coordinates":[
132.112063,
34.229732
]
}
},
{
"type":"Feature",
"properties":{
"Name":"平田小学校",
"Jusho":"山口県岩国市平田3-5-1",
"Capacity":"－",
"la":"34.14434900000",
"ln":"132.18437000000"
},
"geometry":{
"type":"Point",
"coordinates":[
132.18437,
34.144349
]
}
},
{
"type":"Feature",
"properties":{
"Name":"麻里布小学校",
"Jusho":"山口県岩国市山手町1-7-41",
"Capacity":"－",
"la":"34.16929100000",
"ln":"132.21564500000"
},
"geometry":{
"type":"Point",
"coordinates":[
132.215645,
34.169291
]
}
},
{
"type":"Feature",
"properties":{
"Name":"由宇小学校",
"Jusho":"山口県岩国市由宇町中央2-10-1",
"Capacity":"－",
"la":"34.04403400000",
"ln":"132.20820200000"
},
"geometry":{
"type":"Point",
"coordinates":[
132.208202,
34.044034
]
}
},
{
"type":"Feature",
"properties":{
"Name":"由西小学校",
"Jusho":"山口県岩国市由宇町3300",
"Capacity":"－",
"la":"34.03596100000",
"ln":"132.17593000000"
},
"geometry":{
"type":"Point",
"coordinates":[
132.17593,
34.035961
]
}
},
{
"type":"Feature",
"properties":{
"Name":"塩田小学校体育館",
"Jusho":"山口県光市塩田1927-6",
"Capacity":"－",
"la":"33.99844799910",
"ln":"132.03416400000"
},
"geometry":{
"type":"Point",
"coordinates":[
132.034164,
33.9984479991
]
}
},
{
"type":"Feature",
"properties":{
"Name":"岩田小学校体育館",
"Jusho":"山口県光市岩田193-2",
"Capacity":"－",
"la":"33.98419800000",
"ln":"131.99047300000"
},
"geometry":{
"type":"Point",
"coordinates":[
131.990473,
33.984198
]
}
},
{
"type":"Feature",
"properties":{
"Name":"光井小学校体育館",
"Jusho":"山口県光市光井4-23-1",
"Capacity":"－",
"la":"33.95728400000",
"ln":"131.95567200000"
},
"geometry":{
"type":"Point",
"coordinates":[
131.955672,
33.957284
]
}
},
{
"type":"Feature",
"properties":{
"Name":"三井小学校体育館",
"Jusho":"山口県光市三井5-9-1",
"Capacity":"－",
"la":"33.99039000000",
"ln":"131.95217200000"
},
"geometry":{
"type":"Point",
"coordinates":[
131.952172,
33.99039
]
}
},
{
"type":"Feature",
"properties":{
"Name":"三輪小学校体育館",
"Jusho":"山口県光市三輪264-1",
"Capacity":"－",
"la":"33.97731000000",
"ln":"131.99705600000"
},
"geometry":{
"type":"Point",
"coordinates":[
131.997056,
33.97731
]
}
},
{
"type":"Feature",
"properties":{
"Name":"室積小学校体育館",
"Jusho":"山口県光市室積6-4-1",
"Capacity":"－",
"la":"33.92764900000",
"ln":"131.96747700000"
},
"geometry":{
"type":"Point",
"coordinates":[
131.967477,
33.927649
]
}
},
{
"type":"Feature",
"properties":{
"Name":"周防小学校体育館",
"Jusho":"山口県光市小周防1587",
"Capacity":"－",
"la":"34.01741600000",
"ln":"131.97700200000"
},
"geometry":{
"type":"Point",
"coordinates":[
131.977002,
34.017416
]
}
},
{
"type":"Feature",
"properties":{
"Name":"上島田小学校体育館",
"Jusho":"山口県光市上島田3-9-1",
"Capacity":"－",
"la":"33.98678000000",
"ln":"131.96081000000"
},
"geometry":{
"type":"Point",
"coordinates":[
131.96081,
33.98678
]
}
},
{
"type":"Feature",
"properties":{
"Name":"浅江小学校体育館",
"Jusho":"山口県光市浅江2275",
"Capacity":"－",
"la":"33.97763999910",
"ln":"131.92211900000"
},
"geometry":{
"type":"Point",
"coordinates":[
131.922119,
33.9776399991
]
}
},
{
"type":"Feature",
"properties":{
"Name":"束荷小学校体育館",
"Jusho":"山口県光市束荷1301",
"Capacity":"－",
"la":"34.00883400000",
"ln":"132.00636100000"
},
"geometry":{
"type":"Point",
"coordinates":[
132.006361,
34.008834
]
}
},
{
"type":"Feature",
"properties":{
"Name":"島田小学校体育館",
"Jusho":"山口県光市島田5-15-1",
"Capacity":"－",
"la":"33.97639099910",
"ln":"131.93872900000"
},
"geometry":{
"type":"Point",
"coordinates":[
131.938729,
33.9763909991
]
}
},
{
"type":"Feature",
"properties":{
"Name":"旧伊上小学校",
"Jusho":"山口県長門市油谷伊上2391番地",
"Capacity":"－",
"la":"34.37166499910",
"ln":"131.01991400000"
},
"geometry":{
"type":"Point",
"coordinates":[
131.019914,
34.3716649991
]
}
},
{
"type":"Feature",
"properties":{
"Name":"旧青海島小学校",
"Jusho":"山口県長門市仙崎2874番地",
"Capacity":"－",
"la":"34.40023553620",
"ln":"131.19292157900"
},
"geometry":{
"type":"Point",
"coordinates":[
131.192921579,
34.4002355362
]
}
},
{
"type":"Feature",
"properties":{
"Name":"旧川尻小学校",
"Jusho":"山口県長門市油谷川尻106番地",
"Capacity":"－",
"la":"34.42428200000",
"ln":"130.99998900000"
},
"geometry":{
"type":"Point",
"coordinates":[
130.999989,
34.424282
]
}
},
{
"type":"Feature",
"properties":{
"Name":"旧大平小学校",
"Jusho":"山口県長門市油谷角山赤屋4375-2",
"Capacity":"－",
"la":"34.39848794450",
"ln":"131.02013827000"
},
"geometry":{
"type":"Point",
"coordinates":[
131.02013827,
34.3984879445
]
}
},
{
"type":"Feature",
"properties":{
"Name":"旧文洋小学校",
"Jusho":"山口県長門市油谷後畑1763番地",
"Capacity":"－",
"la":"34.40455460320",
"ln":"131.05246688900"
},
"geometry":{
"type":"Point",
"coordinates":[
131.052466889,
34.4045546032
]
}
},
{
"type":"Feature",
"properties":{
"Name":"向津具小学校",
"Jusho":"山口県長門市油谷向津具下2871",
"Capacity":"－",
"la":"34.41250100000",
"ln":"130.97328600000"
},
"geometry":{
"type":"Point",
"coordinates":[
130.973286,
34.412501
]
}
},
{
"type":"Feature",
"properties":{
"Name":"向陽小学校",
"Jusho":"山口県長門市深川湯本738",
"Capacity":"－",
"la":"34.34542000000",
"ln":"131.17450400000"
},
"geometry":{
"type":"Point",
"coordinates":[
131.174504,
34.34542
]
}
},
{
"type":"Feature",
"properties":{
"Name":"深川小学校",
"Jusho":"山口県長門市東深川1843",
"Capacity":"－",
"la":"34.36619600000",
"ln":"131.18411300000"
},
"geometry":{
"type":"Point",
"coordinates":[
131.184113,
34.366196
]
}
},
{
"type":"Feature",
"properties":{
"Name":"神田小学校",
"Jusho":"山口県長門市日置上2123",
"Capacity":"－",
"la":"34.38683100000",
"ln":"131.13583900000"
},
"geometry":{
"type":"Point",
"coordinates":[
131.135839,
34.386831
]
}
},
{
"type":"Feature",
"properties":{
"Name":"仙崎小学校",
"Jusho":"山口県長門市仙崎新屋敷1230",
"Capacity":"－",
"la":"34.38928900000",
"ln":"131.19626500000"
},
"geometry":{
"type":"Point",
"coordinates":[
131.196265,
34.389289
]
}
},
{
"type":"Feature",
"properties":{
"Name":"浅田小学校",
"Jusho":"山口県長門市三隅下2002-2",
"Capacity":"－",
"la":"34.36986300000",
"ln":"131.22269400000"
},
"geometry":{
"type":"Point",
"coordinates":[
131.222694,
34.369863
]
}
},
{
"type":"Feature",
"properties":{
"Name":"通小学校",
"Jusho":"山口県長門市通1211-1",
"Capacity":"－",
"la":"34.41958100000",
"ln":"131.25592800000"
},
"geometry":{
"type":"Point",
"coordinates":[
131.255928,
34.419581
]
}
},
{
"type":"Feature",
"properties":{
"Name":"日置小学校",
"Jusho":"山口県長門市日置上6150",
"Capacity":"－",
"la":"34.38555400000",
"ln":"131.09764100000"
},
"geometry":{
"type":"Point",
"coordinates":[
131.097641,
34.385554
]
}
},
{
"type":"Feature",
"properties":{
"Name":"俵山小学校",
"Jusho":"山口県長門市俵山2310-1",
"Capacity":"－",
"la":"34.28363479630",
"ln":"131.11284331400"
},
"geometry":{
"type":"Point",
"coordinates":[
131.112843314,
34.2836347963
]
}
},
{
"type":"Feature",
"properties":{
"Name":"明倫小学校",
"Jusho":"山口県長門市三隅中1512-3",
"Capacity":"－",
"la":"34.36394700000",
"ln":"131.24941500000"
},
"geometry":{
"type":"Point",
"coordinates":[
131.249415,
34.363947
]
}
},
{
"type":"Feature",
"properties":{
"Name":"油谷小学校",
"Jusho":"山口県長門市油谷新別名666",
"Capacity":"－",
"la":"34.37036400000",
"ln":"131.05672800000"
},
"geometry":{
"type":"Point",
"coordinates":[
131.056728,
34.370364
]
}
},
{
"type":"Feature",
"properties":{
"Name":"伊陸小学校",
"Jusho":"山口県柳井市伊陸5856-1",
"Capacity":"250",
"la":"34.02900100000",
"ln":"132.11007400000"
},
"geometry":{
"type":"Point",
"coordinates":[
132.110074,
34.029001
]
}
},
{
"type":"Feature",
"properties":{
"Name":"遠崎小学校",
"Jusho":"山口県柳井市遠崎340",
"Capacity":"100",
"la":"33.95967600000",
"ln":"132.14390700000"
},
"geometry":{
"type":"Point",
"coordinates":[
132.143907,
33.959676
]
}
},
{
"type":"Feature",
"properties":{
"Name":"旧阿月小学校",
"Jusho":"山口県柳井市阿月1729-1",
"Capacity":"200",
"la":"33.90229398490",
"ln":"132.12688586200"
},
"geometry":{
"type":"Point",
"coordinates":[
132.126885862,
33.9022939849
]
}
},
{
"type":"Feature",
"properties":{
"Name":"旧相ノ浦小学校グラウンド",
"Jusho":"山口県柳井市阿月515-1",
"Capacity":"－",
"la":"33.86885103870",
"ln":"132.14550251500"
},
"geometry":{
"type":"Point",
"coordinates":[
132.145502515,
33.8688510387
]
}
},
{
"type":"Feature",
"properties":{
"Name":"旧大里小学校グラウンド",
"Jusho":"山口県柳井市日積4150-1",
"Capacity":"－",
"la":"34.01201491720",
"ln":"132.16413066300"
},
"geometry":{
"type":"Point",
"coordinates":[
132.164130663,
34.0120149172
]
}
},
{
"type":"Feature",
"properties":{
"Name":"旧平郡西小学校グラウンド",
"Jusho":"山口県柳井市平郡4836",
"Capacity":"－",
"la":"33.80315746220",
"ln":"132.20261401300"
},
"geometry":{
"type":"Point",
"coordinates":[
132.202614013,
33.8031574622
]
}
},
{
"type":"Feature",
"properties":{
"Name":"小田小学校",
"Jusho":"山口県柳井市伊保庄4853-1",
"Capacity":"300",
"la":"33.95164900000",
"ln":"132.11763200000"
},
"geometry":{
"type":"Point",
"coordinates":[
132.117632,
33.951649
]
}
},
{
"type":"Feature",
"properties":{
"Name":"新庄小学校",
"Jusho":"山口県柳井市新庄2614",
"Capacity":"200",
"la":"33.96970200000",
"ln":"132.08991100000"
},
"geometry":{
"type":"Point",
"coordinates":[
132.089911,
33.969702
]
}
},
{
"type":"Feature",
"properties":{
"Name":"神西小学校",
"Jusho":"山口県柳井市神代4110",
"Capacity":"200",
"la":"33.96637100000",
"ln":"132.18895900000"
},
"geometry":{
"type":"Point",
"coordinates":[
132.188959,
33.966371
]
}
},
{
"type":"Feature",
"properties":{
"Name":"日積小学校",
"Jusho":"山口県柳井市日積6947",
"Capacity":"250",
"la":"34.00133000000",
"ln":"132.15259400000"
},
"geometry":{
"type":"Point",
"coordinates":[
132.152594,
34.00133
]
}
},
{
"type":"Feature",
"properties":{
"Name":"鳴門小学校",
"Jusho":"山口県柳井市大畠764-1",
"Capacity":"100",
"la":"33.96156600000",
"ln":"132.16687700000"
},
"geometry":{
"type":"Point",
"coordinates":[
132.166877,
33.961566
]
}
},
{
"type":"Feature",
"properties":{
"Name":"柳井小学校",
"Jusho":"山口県柳井市柳井3680-4",
"Capacity":"1000",
"la":"33.97142400000",
"ln":"132.10871500000"
},
"geometry":{
"type":"Point",
"coordinates":[
132.108715,
33.971424
]
}
},
{
"type":"Feature",
"properties":{
"Name":"柳井南小学校",
"Jusho":"山口県柳井市伊保庄1429",
"Capacity":"200",
"la":"33.92251300000",
"ln":"132.12599300000"
},
"geometry":{
"type":"Point",
"coordinates":[
132.125993,
33.922513
]
}
},
{
"type":"Feature",
"properties":{
"Name":"柳東小学校",
"Jusho":"山口県柳井市柳井964-1",
"Capacity":"500",
"la":"33.95984100000",
"ln":"132.13101600000"
},
"geometry":{
"type":"Point",
"coordinates":[
132.131016,
33.959841
]
}
},
{
"type":"Feature",
"properties":{
"Name":"柳北小学校",
"Jusho":"山口県柳井市柳井5025",
"Capacity":"300",
"la":"33.98539500000",
"ln":"132.09682700000"
},
"geometry":{
"type":"Point",
"coordinates":[
132.096827,
33.985395
]
}
},
{
"type":"Feature",
"properties":{
"Name":"余田小学校",
"Jusho":"山口県柳井市余田1419",
"Capacity":"200",
"la":"33.97159000000",
"ln":"132.06910700000"
},
"geometry":{
"type":"Point",
"coordinates":[
132.069107,
33.97159
]
}
},
{
"type":"Feature",
"properties":{
"Name":"綾木小学校",
"Jusho":"山口県美祢市美東町綾木2125番地",
"Capacity":"－",
"la":"34.18913400000",
"ln":"131.34691300000"
},
"geometry":{
"type":"Point",
"coordinates":[
131.346913,
34.189134
]
}
},
{
"type":"Feature",
"properties":{
"Name":"伊佐小学校",
"Jusho":"山口県美祢市伊佐町伊佐4554番地",
"Capacity":"－",
"la":"34.16431200000",
"ln":"131.22683900000"
},
"geometry":{
"type":"Point",
"coordinates":[
131.226839,
34.164312
]
}
},
{
"type":"Feature",
"properties":{
"Name":"於福小学校",
"Jusho":"山口県美祢市於福町上4206番地",
"Capacity":"－",
"la":"34.24347100000",
"ln":"131.20481600000"
},
"geometry":{
"type":"Point",
"coordinates":[
131.204816,
34.243471
]
}
},
{
"type":"Feature",
"properties":{
"Name":"下郷小学校",
"Jusho":"山口県美祢市秋芳町岩永下郷663番地",
"Capacity":"－",
"la":"34.18604999910",
"ln":"131.29677900000"
},
"geometry":{
"type":"Point",
"coordinates":[
131.296779,
34.1860499991
]
}
},
{
"type":"Feature",
"properties":{
"Name":"厚保小学校",
"Jusho":"山口県美祢市西厚保町本郷610番地",
"Capacity":"－",
"la":"34.10997600000",
"ln":"131.14217700000"
},
"geometry":{
"type":"Point",
"coordinates":[
131.142177,
34.109976
]
}
},
{
"type":"Feature",
"properties":{
"Name":"秋吉小学校",
"Jusho":"山口県美祢市秋芳町秋吉2388番地",
"Capacity":"－",
"la":"34.21276899910",
"ln":"131.30466700000"
},
"geometry":{
"type":"Point",
"coordinates":[
131.304667,
34.2127689991
]
}
},
{
"type":"Feature",
"properties":{
"Name":"重安小学校",
"Jusho":"山口県美祢市大嶺町北分976番地",
"Capacity":"－",
"la":"34.20085400000",
"ln":"131.20838300000"
},
"geometry":{
"type":"Point",
"coordinates":[
131.208383,
34.200854
]
}
},
{
"type":"Feature",
"properties":{
"Name":"淳美小学校",
"Jusho":"山口県美祢市美東町真名472番地3",
"Capacity":"－",
"la":"34.16005299910",
"ln":"131.35435900000"
},
"geometry":{
"type":"Point",
"coordinates":[
131.354359,
34.1600529991
]
}
},
{
"type":"Feature",
"properties":{
"Name":"城原小学校",
"Jusho":"山口県美祢市大嶺町西分1474番地",
"Capacity":"－",
"la":"34.15013200000",
"ln":"131.16770500000"
},
"geometry":{
"type":"Point",
"coordinates":[
131.167705,
34.150132
]
}
},
{
"type":"Feature",
"properties":{
"Name":"赤郷小学校",
"Jusho":"山口県美祢市美東町赤359番地",
"Capacity":"－",
"la":"34.28045799910",
"ln":"131.34504900000"
},
"geometry":{
"type":"Point",
"coordinates":[
131.345049,
34.2804579991
]
}
},
{
"type":"Feature",
"properties":{
"Name":"川東小学校",
"Jusho":"山口県美祢市東厚保町川東2596番地1",
"Capacity":"－",
"la":"34.13302000000",
"ln":"131.15872800000"
},
"geometry":{
"type":"Point",
"coordinates":[
131.158728,
34.13302
]
}
},
{
"type":"Feature",
"properties":{
"Name":"大田小学校",
"Jusho":"山口県美祢市美東町大田6215番地",
"Capacity":"－",
"la":"34.22607399910",
"ln":"131.34385700000"
},
"geometry":{
"type":"Point",
"coordinates":[
131.343857,
34.2260739991
]
}
},
{
"type":"Feature",
"properties":{
"Name":"大嶺小学校",
"Jusho":"山口県美祢市大嶺町東分1721番地",
"Capacity":"－",
"la":"34.17571500000",
"ln":"131.20612000000"
},
"geometry":{
"type":"Point",
"coordinates":[
131.20612,
34.175715
]
}
},
{
"type":"Feature",
"properties":{
"Name":"田代小学校",
"Jusho":"山口県美祢市於福町上916番地",
"Capacity":"－",
"la":"34.23856600000",
"ln":"131.16888100000"
},
"geometry":{
"type":"Point",
"coordinates":[
131.168881,
34.238566
]
}
},
{
"type":"Feature",
"properties":{
"Name":"東厚小学校",
"Jusho":"山口県美祢市東厚保町山中659番地6",
"Capacity":"－",
"la":"34.11994200000",
"ln":"131.18378800000"
},
"geometry":{
"type":"Point",
"coordinates":[
131.183788,
34.119942
]
}
},
{
"type":"Feature",
"properties":{
"Name":"桃木小学校",
"Jusho":"山口県美祢市大嶺町奥分2950番地1",
"Capacity":"－",
"la":"34.18548800000",
"ln":"131.14539800000"
},
"geometry":{
"type":"Point",
"coordinates":[
131.145398,
34.185488
]
}
},
{
"type":"Feature",
"properties":{
"Name":"麦川小学校",
"Jusho":"山口県美祢市大嶺町奥分1960番地",
"Capacity":"－",
"la":"34.18996200000",
"ln":"131.16978800000"
},
"geometry":{
"type":"Point",
"coordinates":[
131.169788,
34.189962
]
}
},
{
"type":"Feature",
"properties":{
"Name":"別府小学校",
"Jusho":"山口県美祢市秋芳町別府1918番地",
"Capacity":"－",
"la":"34.25187600000",
"ln":"131.25561500000"
},
"geometry":{
"type":"Point",
"coordinates":[
131.255615,
34.251876
]
}
},
{
"type":"Feature",
"properties":{
"Name":"豊田前小学校",
"Jusho":"山口県美祢市豊田前町麻生下809番地",
"Capacity":"－",
"la":"34.19332200000",
"ln":"131.11770900000"
},
"geometry":{
"type":"Point",
"coordinates":[
131.117709,
34.193322
]
}
},
{
"type":"Feature",
"properties":{
"Name":"本郷小学校",
"Jusho":"山口県美祢市秋芳町岩永本郷897番地",
"Capacity":"－",
"la":"34.19877100000",
"ln":"131.28300300000"
},
"geometry":{
"type":"Point",
"coordinates":[
131.283003,
34.198771
]
}
},
{
"type":"Feature",
"properties":{
"Name":"厚狭小学校体育館",
"Jusho":"山口県山陽小野田市大字厚狭897（加藤北）",
"Capacity":"－",
"la":"34.05678199910",
"ln":"131.16940200000"
},
"geometry":{
"type":"Point",
"coordinates":[
131.169402,
34.0567819991
]
}
},
{
"type":"Feature",
"properties":{
"Name":"厚陽小学校体育館",
"Jusho":"山口県山陽小野田市大字郡3492（古開作）",
"Capacity":"－",
"la":"34.01956300000",
"ln":"131.14171100000"
},
"geometry":{
"type":"Point",
"coordinates":[
131.141711,
34.019563
]
}
},
{
"type":"Feature",
"properties":{
"Name":"高千帆小学校",
"Jusho":"山口県山陽小野田市くし山1-25-1",
"Capacity":"－",
"la":"34.01068200000",
"ln":"131.18431600000"
},
"geometry":{
"type":"Point",
"coordinates":[
131.184316,
34.010682
]
}
},
{
"type":"Feature",
"properties":{
"Name":"高泊小学校",
"Jusho":"山口県山陽小野田市西高泊923",
"Capacity":"－",
"la":"34.00681500000",
"ln":"131.16487600000"
},
"geometry":{
"type":"Point",
"coordinates":[
131.164876,
34.006815
]
}
},
{
"type":"Feature",
"properties":{
"Name":"小野田小学校",
"Jusho":"山口県山陽小野田市中川3-2-1",
"Capacity":"－",
"la":"33.98712300000",
"ln":"131.17612600000"
},
"geometry":{
"type":"Point",
"coordinates":[
131.176126,
33.987123
]
}
},
{
"type":"Feature",
"properties":{
"Name":"埴生小学校体育館",
"Jusho":"山口県山陽小野田市大字埴生1996（西側）",
"Capacity":"－",
"la":"34.04125500000",
"ln":"131.08579800000"
},
"geometry":{
"type":"Point",
"coordinates":[
131.085798,
34.041255
]
}
},
{
"type":"Feature",
"properties":{
"Name":"須恵小学校",
"Jusho":"山口県山陽小野田市小野田5258",
"Capacity":"－",
"la":"33.97193000000",
"ln":"131.18176400000"
},
"geometry":{
"type":"Point",
"coordinates":[
131.181764,
33.97193
]
}
},
{
"type":"Feature",
"properties":{
"Name":"赤崎小学校",
"Jusho":"山口県山陽小野田市小野田4402",
"Capacity":"－",
"la":"33.95904200000",
"ln":"131.17576500000"
},
"geometry":{
"type":"Point",
"coordinates":[
131.175765,
33.959042
]
}
},
{
"type":"Feature",
"properties":{
"Name":"津布田小学校体育館",
"Jusho":"山口県山陽小野田市大字津布田1028-1",
"Capacity":"－",
"la":"34.02075700000",
"ln":"131.11251900000"
},
"geometry":{
"type":"Point",
"coordinates":[
131.112519,
34.020757
]
}
},
{
"type":"Feature",
"properties":{
"Name":"本山小学校",
"Jusho":"山口県山陽小野田市小野田482",
"Capacity":"－",
"la":"33.94812700000",
"ln":"131.17265500000"
},
"geometry":{
"type":"Point",
"coordinates":[
131.172655,
33.948127
]
}
},
{
"type":"Feature",
"properties":{
"Name":"有帆小学校",
"Jusho":"山口県山陽小野田市新有帆町4番1号",
"Capacity":"－",
"la":"34.01866700000",
"ln":"131.20164800000"
},
"geometry":{
"type":"Point",
"coordinates":[
131.201648,
34.018667
]
}
},
{
"type":"Feature",
"properties":{
"Name":"安下庄小学校",
"Jusho":"山口県大島郡周防大島町大字西安下庄418",
"Capacity":"－",
"la":"33.89907300000",
"ln":"132.27617400000"
},
"geometry":{
"type":"Point",
"coordinates":[
132.276174,
33.899073
]
}
},
{
"type":"Feature",
"properties":{
"Name":"沖浦小学校",
"Jusho":"山口県大島郡周防大島町大字横見346-1",
"Capacity":"－",
"la":"33.89122800000",
"ln":"132.19116800000"
},
"geometry":{
"type":"Point",
"coordinates":[
132.191168,
33.891228
]
}
},
{
"type":"Feature",
"properties":{
"Name":"屋代小学校",
"Jusho":"山口県大島郡周防大島町大字西屋代1619",
"Capacity":"－",
"la":"33.91937600000",
"ln":"132.20548600000"
},
"geometry":{
"type":"Point",
"coordinates":[
132.205486,
33.919376
]
}
},
{
"type":"Feature",
"properties":{
"Name":"久賀小学校",
"Jusho":"山口県大島郡周防大島町大字久賀4807-1",
"Capacity":"－",
"la":"33.94662500000",
"ln":"132.26400800000"
},
"geometry":{
"type":"Point",
"coordinates":[
132.264008,
33.946625
]
}
},
{
"type":"Feature",
"properties":{
"Name":"旧開導小学校グラウンド",
"Jusho":"山口県大島郡周防大島町大字和佐344",
"Capacity":"－",
"la":"33.91702354190",
"ln":"132.37944300900"
},
"geometry":{
"type":"Point",
"coordinates":[
132.379443009,
33.9170235419
]
}
},
{
"type":"Feature",
"properties":{
"Name":"三蒲小学校",
"Jusho":"山口県大島郡周防大島町大字東三蒲1107-1",
"Capacity":"－",
"la":"33.94504000000",
"ln":"132.21415200000"
},
"geometry":{
"type":"Point",
"coordinates":[
132.214152,
33.94504
]
}
},
{
"type":"Feature",
"properties":{
"Name":"城山小学校",
"Jusho":"山口県大島郡周防大島町大字外入2133-1",
"Capacity":"－",
"la":"33.88799300000",
"ln":"132.33205800000"
},
"geometry":{
"type":"Point",
"coordinates":[
132.332058,
33.887993
]
}
},
{
"type":"Feature",
"properties":{
"Name":"森野小学校",
"Jusho":"山口県大島郡周防大島町大字森269-43",
"Capacity":"－",
"la":"33.90968600000",
"ln":"132.35683400000"
},
"geometry":{
"type":"Point",
"coordinates":[
132.356834,
33.909686
]
}
},
{
"type":"Feature",
"properties":{
"Name":"島中小学校",
"Jusho":"山口県大島郡周防大島町大字土居1300-4",
"Capacity":"－",
"la":"33.91768300000",
"ln":"132.30364300000"
},
"geometry":{
"type":"Point",
"coordinates":[
132.303643,
33.917683
]
}
},
{
"type":"Feature",
"properties":{
"Name":"浮島小学校",
"Jusho":"山口県大島郡周防大島町大字浮島205-1",
"Capacity":"－",
"la":"33.95359800000",
"ln":"132.33952800000"
},
"geometry":{
"type":"Point",
"coordinates":[
132.339528,
33.953598
]
}
},
{
"type":"Feature",
"properties":{
"Name":"椋野小学校",
"Jusho":"山口県大島郡周防大島町大字椋野1328-1",
"Capacity":"－",
"la":"33.95606700000",
"ln":"132.23142800000"
},
"geometry":{
"type":"Point",
"coordinates":[
132.231428,
33.956067
]
}
},
{
"type":"Feature",
"properties":{
"Name":"明新小学校",
"Jusho":"山口県大島郡周防大島町大字小松開作121-1",
"Capacity":"－",
"la":"33.92893000000",
"ln":"132.19034800000"
},
"geometry":{
"type":"Point",
"coordinates":[
132.190348,
33.92893
]
}
},
{
"type":"Feature",
"properties":{
"Name":"油田小学校",
"Jusho":"山口県大島郡周防大島町大字伊保田1195",
"Capacity":"－",
"la":"33.93940700000",
"ln":"132.43882700000"
},
"geometry":{
"type":"Point",
"coordinates":[
132.438827,
33.939407
]
}
},
{
"type":"Feature",
"properties":{
"Name":"和田小学校",
"Jusho":"山口県大島郡周防大島町大字和田1403-1",
"Capacity":"－",
"la":"33.92812900000",
"ln":"132.40299700000"
},
"geometry":{
"type":"Point",
"coordinates":[
132.402997,
33.928129
]
}
},
{
"type":"Feature",
"properties":{
"Name":"和木小学校",
"Jusho":"山口県玖珂郡和木町和木1-13-1",
"Capacity":"－",
"la":"34.20492700000",
"ln":"132.21806000000"
},
"geometry":{
"type":"Point",
"coordinates":[
132.21806,
34.204927
]
}
},
{
"type":"Feature",
"properties":{
"Name":"旧上関小学校グラウンド",
"Jusho":"山口県熊毛郡上関町大字長島448",
"Capacity":"－",
"la":"33.83153595750",
"ln":"132.10971322300"
},
"geometry":{
"type":"Point",
"coordinates":[
132.109713223,
33.8315359575
]
}
},
{
"type":"Feature",
"properties":{
"Name":"旧白井田小学校グラウンド",
"Jusho":"山口県熊毛郡上関町大字長島3780",
"Capacity":"－",
"la":"33.81832410130",
"ln":"132.06949269200"
},
"geometry":{
"type":"Point",
"coordinates":[
132.069492692,
33.8183241013
]
}
},
{
"type":"Feature",
"properties":{
"Name":"旧八島小学校グラウンド",
"Jusho":"山口県熊毛郡上関町大字八島280",
"Capacity":"－",
"la":"33.72923988960",
"ln":"132.13873307400"
},
"geometry":{
"type":"Point",
"coordinates":[
132.138733074,
33.7292398896
]
}
},
{
"type":"Feature",
"properties":{
"Name":"祝島小学校",
"Jusho":"山口県熊毛郡上関町大字祝島3番地",
"Capacity":"－",
"la":"33.78511000000",
"ln":"131.98811700000"
},
"geometry":{
"type":"Point",
"coordinates":[
131.988117,
33.78511
]
}
},
{
"type":"Feature",
"properties":{
"Name":"上関小学校",
"Jusho":"山口県熊毛郡上関町大字長島250番地",
"Capacity":"－",
"la":"33.83286873270",
"ln":"132.10806018500"
},
"geometry":{
"type":"Point",
"coordinates":[
132.108060185,
33.8328687327
]
}
},
{
"type":"Feature",
"properties":{
"Name":"城南小学校",
"Jusho":"山口県熊毛郡田布施町宿井1039番地1",
"Capacity":"300",
"la":"33.96922800000",
"ln":"132.02113800000"
},
"geometry":{
"type":"Point",
"coordinates":[
132.021138,
33.969228
]
}
},
{
"type":"Feature",
"properties":{
"Name":"田布施西小学校",
"Jusho":"山口県熊毛郡田布施町下田布施2150番地2",
"Capacity":"200",
"la":"33.95414700000",
"ln":"132.03030400000"
},
"geometry":{
"type":"Point",
"coordinates":[
132.030304,
33.954147
]
}
},
{
"type":"Feature",
"properties":{
"Name":"東田布施小学校",
"Jusho":"山口県熊毛郡田布施町大波野152番地1",
"Capacity":"200",
"la":"33.96409000000",
"ln":"132.05630300000"
},
"geometry":{
"type":"Point",
"coordinates":[
132.056303,
33.96409
]
}
},
{
"type":"Feature",
"properties":{
"Name":"麻郷小学校",
"Jusho":"山口県熊毛郡田布施町麻郷2258番地",
"Capacity":"200",
"la":"33.93475999910",
"ln":"132.04477600000"
},
"geometry":{
"type":"Point",
"coordinates":[
132.044776,
33.9347599991
]
}
},
{
"type":"Feature",
"properties":{
"Name":"麻里府小学校",
"Jusho":"山口県熊毛郡田布施町別府1408番地",
"Capacity":"100",
"la":"33.91309500000",
"ln":"132.03913700000"
},
"geometry":{
"type":"Point",
"coordinates":[
132.039137,
33.913095
]
}
},
{
"type":"Feature",
"properties":{
"Name":"佐賀小学校",
"Jusho":"山口県熊毛郡平生町佐賀2020",
"Capacity":"－",
"la":"33.89687500000",
"ln":"132.08119100000"
},
"geometry":{
"type":"Point",
"coordinates":[
132.081191,
33.896875
]
}
},
{
"type":"Feature",
"properties":{
"Name":"平生小学校",
"Jusho":"山口県熊毛郡平生町大野南83",
"Capacity":"－",
"la":"33.93395500000",
"ln":"132.07777400000"
},
"geometry":{
"type":"Point",
"coordinates":[
132.077774,
33.933955
]
}
},
{
"type":"Feature",
"properties":{
"Name":"宇田小学校",
"Jusho":"山口県阿武郡阿武町大字宇田2251",
"Capacity":"－",
"la":"34.56757000000",
"ln":"131.54524600000"
},
"geometry":{
"type":"Point",
"coordinates":[
131.545246,
34.56757
]
}
},
{
"type":"Feature",
"properties":{
"Name":"奈古小学校",
"Jusho":"山口県阿武郡阿武町大字奈古2697-1",
"Capacity":"－",
"la":"34.50540900000",
"ln":"131.47472600000"
},
"geometry":{
"type":"Point",
"coordinates":[
131.474726,
34.505409
]
}
},
{
"type":"Feature",
"properties":{
"Name":"福賀小学校",
"Jusho":"山口県阿武郡阿武町大字福田下1544",
"Capacity":"－",
"la":"34.51760743790",
"ln":"131.60087969000"
},
"geometry":{
"type":"Point",
"coordinates":[
131.60087969,
34.5176074379
]
}
},
{
"type":"Feature",
"properties":{
"Name":"徳山小学校",
"Jusho":"山口県周南市毛利町1-1",
"Capacity":"－",
"la":"34.05425752",
"ln":"131.80904888"
},
"geometry":{
"type":"Point",
"coordinates":[
131.80904888,
34.05425752
]
}
},
{
"type":"Feature",
"properties":{
"Name":"遠石小学校",
"Jusho":"山口県周南市遠石1-3-48",
"Capacity":"－",
"la":"34.0424894",
"ln":"131.81817872"
},
"geometry":{
"type":"Point",
"coordinates":[
131.81817872,
34.0424894
]
}
},
{
"type":"Feature",
"properties":{
"Name":"秋月小学校",
"Jusho":"山口県周南市秋月1-1-50",
"Capacity":"－",
"la":"34.05412765",
"ln":"131.82639444"
},
"geometry":{
"type":"Point",
"coordinates":[
131.82639444,
34.05412765
]
}
},
{
"type":"Feature",
"properties":{
"Name":"周陽小学校",
"Jusho":"山口県周南市周陽1-15-1",
"Capacity":"－",
"la":"34.04791154",
"ln":"131.82826955"
},
"geometry":{
"type":"Point",
"coordinates":[
131.82826955,
34.04791154
]
}
},
{
"type":"Feature",
"properties":{
"Name":"桜木小学校",
"Jusho":"山口県周南市桜木1-11-1",
"Capacity":"－",
"la":"34.04122902",
"ln":"131.83820812"
},
"geometry":{
"type":"Point",
"coordinates":[
131.83820812,
34.04122902
]
}
},
{
"type":"Feature",
"properties":{
"Name":"今宿小学校",
"Jusho":"山口県周南市今住町1-40",
"Capacity":"－",
"la":"34.06238429",
"ln":"131.80284403"
},
"geometry":{
"type":"Point",
"coordinates":[
131.80284403,
34.06238429
]
}
},
{
"type":"Feature",
"properties":{
"Name":"岐山小学校",
"Jusho":"山口県周南市大字徳山5673",
"Capacity":"－",
"la":"34.05963795",
"ln":"131.81804239"
},
"geometry":{
"type":"Point",
"coordinates":[
131.81804239,
34.05963795
]
}
},
{
"type":"Feature",
"properties":{
"Name":"櫛浜小学校",
"Jusho":"山口県周南市大字栗屋860",
"Capacity":"－",
"la":"34.02160244",
"ln":"131.83202276"
},
"geometry":{
"type":"Point",
"coordinates":[
131.83202276,
34.02160244
]
}
},
{
"type":"Feature",
"properties":{
"Name":"久米小学校",
"Jusho":"山口県周南市大字久米3417",
"Capacity":"－",
"la":"34.04096532",
"ln":"131.84485766"
},
"geometry":{
"type":"Point",
"coordinates":[
131.84485766,
34.04096532
]
}
},
{
"type":"Feature",
"properties":{
"Name":"久米小学校譲羽分校",
"Jusho":"山口県周南市大字譲羽559-1",
"Capacity":"－",
"la":"34.06842721",
"ln":"131.86079463"
},
"geometry":{
"type":"Point",
"coordinates":[
131.86079463,
34.06842721
]
}
},
{
"type":"Feature",
"properties":{
"Name":"旧粭島小学校",
"Jusho":"山口県周南市大字粭島314-1",
"Capacity":"－",
"la":"33.98164905",
"ln":"131.76264668"
},
"geometry":{
"type":"Point",
"coordinates":[
131.76264668,
33.98164905
]
}
},
{
"type":"Feature",
"properties":{
"Name":"四熊小学校",
"Jusho":"山口県周南市大字四熊1547",
"Capacity":"－",
"la":"34.11192359",
"ln":"131.76497914"
},
"geometry":{
"type":"Point",
"coordinates":[
131.76497914,
34.11192359
]
}
},
{
"type":"Feature",
"properties":{
"Name":"小畑小学校",
"Jusho":"山口県周南市大字小畑190",
"Capacity":"－",
"la":"34.0897397",
"ln":"131.756122"
},
"geometry":{
"type":"Point",
"coordinates":[
131.756122,
34.0897397
]
}
},
{
"type":"Feature",
"properties":{
"Name":"菊川小学校",
"Jusho":"山口県周南市大字下上88",
"Capacity":"－",
"la":"34.08987034",
"ln":"131.78433402"
},
"geometry":{
"type":"Point",
"coordinates":[
131.78433402,
34.08987034
]
}
},
{
"type":"Feature",
"properties":{
"Name":"大向小学校",
"Jusho":"山口県周南市大字大向1652-1",
"Capacity":"－",
"la":"34.18146147",
"ln":"131.81854312"
},
"geometry":{
"type":"Point",
"coordinates":[
131.81854312,
34.18146147
]
}
},
{
"type":"Feature",
"properties":{
"Name":"大道理小学校",
"Jusho":"山口県周南市大字大道理1332",
"Capacity":"－",
"la":"34.14140702",
"ln":"131.80724448"
},
"geometry":{
"type":"Point",
"coordinates":[
131.80724448,
34.14140702
]
}
},
{
"type":"Feature",
"properties":{
"Name":"夜市小学校",
"Jusho":"山口県周南市大字夜市730",
"Capacity":"－",
"la":"34.08281121",
"ln":"131.71621359"
},
"geometry":{
"type":"Point",
"coordinates":[
131.71621359,
34.08281121
]
}
},
{
"type":"Feature",
"properties":{
"Name":"戸田小学校",
"Jusho":"山口県周南市大字戸田2527-2",
"Capacity":"－",
"la":"34.0784137",
"ln":"131.68821301"
},
"geometry":{
"type":"Point",
"coordinates":[
131.68821301,
34.0784137
]
}
},
{
"type":"Feature",
"properties":{
"Name":"湯野小学校",
"Jusho":"山口県周南市大字湯野3843",
"Capacity":"－",
"la":"34.0996475",
"ln":"131.6779049"
},
"geometry":{
"type":"Point",
"coordinates":[
131.6779049,
34.0996475
]
}
},
{
"type":"Feature",
"properties":{
"Name":"大津島小学校",
"Jusho":"山口県周南市大字大津島1964-1",
"Capacity":"－",
"la":"33.9910796",
"ln":"131.718519"
},
"geometry":{
"type":"Point",
"coordinates":[
131.718519,
33.9910796
]
}
},
{
"type":"Feature",
"properties":{
"Name":"長穂小学校",
"Jusho":"山口県周南市大字長穂1692-2",
"Capacity":"－",
"la":"34.13295318",
"ln":"131.83840884"
},
"geometry":{
"type":"Point",
"coordinates":[
131.83840884,
34.13295318
]
}
},
{
"type":"Feature",
"properties":{
"Name":"沼城小学校",
"Jusho":"山口県周南市大字須々万本郷514",
"Capacity":"－",
"la":"34.12154418",
"ln":"131.86771199"
},
"geometry":{
"type":"Point",
"coordinates":[
131.86771199,
34.12154418
]
}
},
{
"type":"Feature",
"properties":{
"Name":"中須小学校",
"Jusho":"山口県周南市大字中須南2583",
"Capacity":"－",
"la":"34.1146742",
"ln":"131.91861802"
},
"geometry":{
"type":"Point",
"coordinates":[
131.91861802,
34.1146742
]
}
},
{
"type":"Feature",
"properties":{
"Name":"須磨小学校",
"Jusho":"山口県周南市大字須万2581",
"Capacity":"－",
"la":"34.20081212",
"ln":"131.92222661"
},
"geometry":{
"type":"Point",
"coordinates":[
131.92222661,
34.20081212
]
}
},
{
"type":"Feature",
"properties":{
"Name":"富田東小学校",
"Jusho":"山口県周南市桶川町2-1",
"Capacity":"－",
"la":"34.07178537",
"ln":"131.7756133"
},
"geometry":{
"type":"Point",
"coordinates":[
131.7756133,
34.07178537
]
}
},
{
"type":"Feature",
"properties":{
"Name":"富田西小学校",
"Jusho":"山口県周南市富田2-14-1",
"Capacity":"－",
"la":"34.07461805",
"ln":"131.75335063"
},
"geometry":{
"type":"Point",
"coordinates":[
131.75335063,
34.07461805
]
}
},
{
"type":"Feature",
"properties":{
"Name":"福川小学校",
"Jusho":"山口県周南市福川3-2-1",
"Capacity":"－",
"la":"34.07560101",
"ln":"131.73680424"
},
"geometry":{
"type":"Point",
"coordinates":[
131.73680424,
34.07560101
]
}
},
{
"type":"Feature",
"properties":{
"Name":"福川南小学校",
"Jusho":"山口県周南市中畷町6-1",
"Capacity":"－",
"la":"34.0717428",
"ln":"131.7275439"
},
"geometry":{
"type":"Point",
"coordinates":[
131.7275439,
34.0717428
]
}
},
{
"type":"Feature",
"properties":{
"Name":"大河内小学校",
"Jusho":"山口県周南市大字大河内1115-1",
"Capacity":"－",
"la":"34.02694702",
"ln":"131.94089368"
},
"geometry":{
"type":"Point",
"coordinates":[
131.94089368,
34.02694702
]
}
},
{
"type":"Feature",
"properties":{
"Name":"勝間小学校",
"Jusho":"山口県周南市勝間ヶ丘1-1-1",
"Capacity":"－",
"la":"34.04739825",
"ln":"131.95375062"
},
"geometry":{
"type":"Point",
"coordinates":[
131.95375062,
34.04739825
]
}
},
{
"type":"Feature",
"properties":{
"Name":"高水小学校",
"Jusho":"山口県周南市大字樋口288-1",
"Capacity":"－",
"la":"34.0612142",
"ln":"131.97784"
},
"geometry":{
"type":"Point",
"coordinates":[
131.97784,
34.0612142
]
}
},
{
"type":"Feature",
"properties":{
"Name":"三丘小学校",
"Jusho":"山口県周南市大字小松原1242",
"Capacity":"－",
"la":"34.03559747",
"ln":"131.99148159"
},
"geometry":{
"type":"Point",
"coordinates":[
131.99148159,
34.03559747
]
}
},
{
"type":"Feature",
"properties":{
"Name":"鹿野小学校",
"Jusho":"山口県周南市大字鹿野上3054",
"Capacity":"－",
"la":"34.22830907",
"ln":"131.8160395"
},
"geometry":{
"type":"Point",
"coordinates":[
131.8160395,
34.22830907
]
}
},
{
"type":"Feature",
"properties":{
"Name":"旧大潮小学校",
"Jusho":"山口県周南市大字大潮1489",
"Capacity":"－",
"la":"34.28377715",
"ln":"131.78842876"
},
"geometry":{
"type":"Point",
"coordinates":[
131.78842876,
34.28377715
]
}
},
{
"type":"Feature",
"properties":{
"Name":"旧仁保津小学校",
"Jusho":"山口県周南市大字巣山1490",
"Capacity":"－",
"la":"34.202183",
"ln":"131.775534"
},
"geometry":{
"type":"Point",
"coordinates":[
131.775534,
34.202183
]
}
},
{
"type":"Feature",
"properties":{
"Name":"東岐波小学校",
"Jusho":"山口県宇部市大字東岐波3853",
"Capacity":"－",
"la":"33.980416",
"ln":"131.339066"
},
"geometry":{
"type":"Point",
"coordinates":[
131.339066,
33.980416
]
}
},
{
"type":"Feature",
"properties":{
"Name":"西岐波小学校",
"Jusho":"山口県宇部市床波3-4-10",
"Capacity":"－",
"la":"33.956724",
"ln":"131.311466"
},
"geometry":{
"type":"Point",
"coordinates":[
131.311466,
33.956724
]
}
},
{
"type":"Feature",
"properties":{
"Name":"常盤小学校",
"Jusho":"山口県宇部市大字西岐波1337-12",
"Capacity":"－",
"la":"33.947739",
"ln":"131.293897"
},
"geometry":{
"type":"Point",
"coordinates":[
131.293897,
33.947739
]
}
},
{
"type":"Feature",
"properties":{
"Name":"恩田小学校",
"Jusho":"山口県宇部市笹山町1-4-1",
"Capacity":"－",
"la":"33.942024",
"ln":"131.262665"
},
"geometry":{
"type":"Point",
"coordinates":[
131.262665,
33.942024
]
}
},
{
"type":"Feature",
"properties":{
"Name":"岬小学校",
"Jusho":"山口県宇部市松山町5-8-10",
"Capacity":"－",
"la":"33.934993",
"ln":"131.259705"
},
"geometry":{
"type":"Point",
"coordinates":[
131.259705,
33.934993
]
}
},
{
"type":"Feature",
"properties":{
"Name":"見初小学校",
"Jusho":"山口県宇部市松山町2-4-42",
"Capacity":"－",
"la":"33.943527",
"ln":"131.255565"
},
"geometry":{
"type":"Point",
"coordinates":[
131.255565,
33.943527
]
}
},
{
"type":"Feature",
"properties":{
"Name":"神原小学校",
"Jusho":"山口県宇部市神原町1-1-1",
"Capacity":"－",
"la":"33.95188",
"ln":"131.256111"
},
"geometry":{
"type":"Point",
"coordinates":[
131.256111,
33.95188
]
}
},
{
"type":"Feature",
"properties":{
"Name":"琴芝小学校",
"Jusho":"山口県宇部市東琴芝2-3-48",
"Capacity":"－",
"la":"33.954109",
"ln":"131.256175"
},
"geometry":{
"type":"Point",
"coordinates":[
131.256175,
33.954109
]
}
},
{
"type":"Feature",
"properties":{
"Name":"上宇部小学校",
"Jusho":"山口県宇部市大小路3-2-17",
"Capacity":"－",
"la":"33.966736",
"ln":"131.269015"
},
"geometry":{
"type":"Point",
"coordinates":[
131.269015,
33.966736
]
}
},
{
"type":"Feature",
"properties":{
"Name":"小羽山小学校",
"Jusho":"山口県宇部市東小羽山町1-4-13",
"Capacity":"－",
"la":"33.978499",
"ln":"131.263103"
},
"geometry":{
"type":"Point",
"coordinates":[
131.263103,
33.978499
]
}
},
{
"type":"Feature",
"properties":{
"Name":"新川小学校",
"Jusho":"山口県宇部市西小串1-4-25",
"Capacity":"－",
"la":"33.963249",
"ln":"131.247903"
},
"geometry":{
"type":"Point",
"coordinates":[
131.247903,
33.963249
]
}
},
{
"type":"Feature",
"properties":{
"Name":"鵜ノ島小学校",
"Jusho":"山口県宇部市小松原町2-10-25",
"Capacity":"－",
"la":"33.963752",
"ln":"131.239526"
},
"geometry":{
"type":"Point",
"coordinates":[
131.239526,
33.963752
]
}
},
{
"type":"Feature",
"properties":{
"Name":"藤山小学校",
"Jusho":"山口県宇部市上条4-4-1",
"Capacity":"－",
"la":"33.974878",
"ln":"131.232072"
},
"geometry":{
"type":"Point",
"coordinates":[
131.232072,
33.974878
]
}
},
{
"type":"Feature",
"properties":{
"Name":"原小学校",
"Jusho":"山口県宇部市大字東須恵4267",
"Capacity":"－",
"la":"33.966069",
"ln":"131.203452"
},
"geometry":{
"type":"Point",
"coordinates":[
131.203452,
33.966069
]
}
},
{
"type":"Feature",
"properties":{
"Name":"黒石小学校",
"Jusho":"山口県宇部市黒石北3-2-35",
"Capacity":"－",
"la":"33.984734",
"ln":"131.209025"
},
"geometry":{
"type":"Point",
"coordinates":[
131.209025,
33.984734
]
}
},
{
"type":"Feature",
"properties":{
"Name":"厚南小学校",
"Jusho":"山口県宇部市大字東須恵234",
"Capacity":"－",
"la":"33.994683",
"ln":"131.207697"
},
"geometry":{
"type":"Point",
"coordinates":[
131.207697,
33.994683
]
}
},
{
"type":"Feature",
"properties":{
"Name":"西宇部小学校",
"Jusho":"山口県宇部市大字際波527-1",
"Capacity":"－",
"la":"34.009452",
"ln":"131.231107"
},
"geometry":{
"type":"Point",
"coordinates":[
131.231107,
34.009452
]
}
},
{
"type":"Feature",
"properties":{
"Name":"厚東小学校",
"Jusho":"山口県宇部市大字棚井7-1",
"Capacity":"－",
"la":"34.026748",
"ln":"131.248991"
},
"geometry":{
"type":"Point",
"coordinates":[
131.248991,
34.026748
]
}
},
{
"type":"Feature",
"properties":{
"Name":"二俣瀬小学校",
"Jusho":"山口県宇部市大字車地36",
"Capacity":"－",
"la":"34.057791",
"ln":"131.292421"
},
"geometry":{
"type":"Point",
"coordinates":[
131.292421,
34.057791
]
}
},
{
"type":"Feature",
"properties":{
"Name":"小野小学校",
"Jusho":"山口県宇部市大字小野8317-2",
"Capacity":"－",
"la":"34.115626",
"ln":"131.320195"
},
"geometry":{
"type":"Point",
"coordinates":[
131.320195,
34.115626
]
}
},
{
"type":"Feature",
"properties":{
"Name":"船木小学校",
"Jusho":"山口県宇部市大字船木4483",
"Capacity":"－",
"la":"34.046708",
"ln":"131.216591"
},
"geometry":{
"type":"Point",
"coordinates":[
131.216591,
34.046708
]
}
},
{
"type":"Feature",
"properties":{
"Name":"万倉小学校",
"Jusho":"山口県宇部市大字西万倉1761-1",
"Capacity":"－",
"la":"34.072349",
"ln":"131.240414"
},
"geometry":{
"type":"Point",
"coordinates":[
131.240414,
34.072349
]
}
},
{
"type":"Feature",
"properties":{
"Name":"吉部小学校",
"Jusho":"山口県宇部市大字東吉部3425-1",
"Capacity":"－",
"la":"34.124869",
"ln":"131.281916"
},
"geometry":{
"type":"Point",
"coordinates":[
131.281916,
34.124869
]
}
},
{
"type":"Feature",
"properties":{
"Name":"安岡中学校",
"Jusho":"山口県下関市安岡町4丁目2-1",
"Capacity":"200",
"la":"34.03308600000",
"ln":"130.91978400000"
},
"geometry":{
"type":"Point",
"coordinates":[
130.919784,
34.033086
]
}
},
{
"type":"Feature",
"properties":{
"Name":"吉見中学校",
"Jusho":"山口県下関市永田本町1丁目3-10",
"Capacity":"300",
"la":"34.07333000000",
"ln":"130.89506200000"
},
"geometry":{
"type":"Point",
"coordinates":[
130.895062,
34.07333
]
}
},
{
"type":"Feature",
"properties":{
"Name":"玄洋中学校",
"Jusho":"山口県下関市彦島本村町2丁目8-1",
"Capacity":"300",
"la":"33.94276200000",
"ln":"130.90678800000"
},
"geometry":{
"type":"Point",
"coordinates":[
130.906788,
33.942762
]
}
},
{
"type":"Feature",
"properties":{
"Name":"向洋中学校",
"Jusho":"山口県下関市向洋町1丁目14-1",
"Capacity":"400",
"la":"33.96428800000",
"ln":"130.93053500000"
},
"geometry":{
"type":"Point",
"coordinates":[
130.930535,
33.964288
]
}
},
{
"type":"Feature",
"properties":{
"Name":"垢田中学校",
"Jusho":"山口県下関市大字垢田字笹原1127番地の6",
"Capacity":"200",
"la":"33.99756200000",
"ln":"130.91422900000"
},
"geometry":{
"type":"Point",
"coordinates":[
130.914229,
33.997562
]
}
},
{
"type":"Feature",
"properties":{
"Name":"山の田中学校",
"Jusho":"山口県下関市山の田本町8-1",
"Capacity":"300",
"la":"33.98959100000",
"ln":"130.92717300000"
},
"geometry":{
"type":"Point",
"coordinates":[
130.927173,
33.989591
]
}
},
{
"type":"Feature",
"properties":{
"Name":"勝山中学校",
"Jusho":"山口県下関市秋根上町2丁目5-1",
"Capacity":"300",
"la":"34.01061700000",
"ln":"130.95900300000"
},
"geometry":{
"type":"Point",
"coordinates":[
130.959003,
34.010617
]
}
},
{
"type":"Feature",
"properties":{
"Name":"川中中学校",
"Jusho":"山口県下関市伊倉新町四丁目6-1",
"Capacity":"300",
"la":"34.00397900000",
"ln":"130.93420000000"
},
"geometry":{
"type":"Point",
"coordinates":[
130.9342,
34.003979
]
}
},
{
"type":"Feature",
"properties":{
"Name":"長成中学校",
"Jusho":"山口県下関市長府日の出町4-1",
"Capacity":"200",
"la":"34.01561700000",
"ln":"130.99400000000"
},
"geometry":{
"type":"Point",
"coordinates":[
130.994,
34.015617
]
}
},
{
"type":"Feature",
"properties":{
"Name":"長府中学校",
"Jusho":"山口県下関市長府逢坂町3-1",
"Capacity":"500",
"la":"33.99817400000",
"ln":"130.98300100000"
},
"geometry":{
"type":"Point",
"coordinates":[
130.983001,
33.998174
]
}
},
{
"type":"Feature",
"properties":{
"Name":"東部中学校",
"Jusho":"山口県下関市清末陣屋5-10",
"Capacity":"200",
"la":"34.06508553370",
"ln":"131.02233730400"
},
"geometry":{
"type":"Point",
"coordinates":[
131.022337304,
34.0650855337
]
}
},
{
"type":"Feature",
"properties":{
"Name":"内日中学校",
"Jusho":"山口県下関市大字内日下字福寿庵1196-2",
"Capacity":"200",
"la":"34.10307800000",
"ln":"130.96919400000"
},
"geometry":{
"type":"Point",
"coordinates":[
130.969194,
34.103078
]
}
},
{
"type":"Feature",
"properties":{
"Name":"日新中学校",
"Jusho":"山口県下関市上田中町1丁目15-1",
"Capacity":"200",
"la":"33.96775900000",
"ln":"130.93795100000"
},
"geometry":{
"type":"Point",
"coordinates":[
130.937951,
33.967759
]
}
},
{
"type":"Feature",
"properties":{
"Name":"彦島中学校",
"Jusho":"山口県下関市彦島江の浦町2丁目25-1",
"Capacity":"200",
"la":"33.93412400000",
"ln":"130.91123200000"
},
"geometry":{
"type":"Point",
"coordinates":[
130.911232,
33.934124
]
}
},
{
"type":"Feature",
"properties":{
"Name":"文洋中学校",
"Jusho":"山口県下関市上新地町5丁目6-1",
"Capacity":"200",
"la":"33.95787100000",
"ln":"130.91348100000"
},
"geometry":{
"type":"Point",
"coordinates":[
130.913481,
33.957871
]
}
},
{
"type":"Feature",
"properties":{
"Name":"豊田西中学校",
"Jusho":"山口県下関市豊田町大字浮石2593-2",
"Capacity":"140",
"la":"34.24194700000",
"ln":"131.04545400000"
},
"geometry":{
"type":"Point",
"coordinates":[
131.045454,
34.241947
]
}
},
{
"type":"Feature",
"properties":{
"Name":"豊田東中学校",
"Jusho":"山口県下関市豊田町大字矢田434",
"Capacity":"240",
"la":"34.19703100000",
"ln":"131.07474900000"
},
"geometry":{
"type":"Point",
"coordinates":[
131.074749,
34.197031
]
}
},
{
"type":"Feature",
"properties":{
"Name":"豊北中学校",
"Jusho":"山口県下関市豊北町大字滝部字幸神1224-36",
"Capacity":"830",
"la":"34.29795092650",
"ln":"130.94909625000"
},
"geometry":{
"type":"Point",
"coordinates":[
130.94909625,
34.2979509265
]
}
},
{
"type":"Feature",
"properties":{
"Name":"豊洋中学校",
"Jusho":"山口県下関市豊浦町大字黒井字馬神724-1",
"Capacity":"790",
"la":"34.12793600000",
"ln":"130.90479300000"
},
"geometry":{
"type":"Point",
"coordinates":[
130.904793,
34.127936
]
}
},
{
"type":"Feature",
"properties":{
"Name":"夢が丘中学校",
"Jusho":"山口県下関市豊浦町大字小串字夢が丘145",
"Capacity":"100",
"la":"34.17168200000",
"ln":"130.93452600000"
},
"geometry":{
"type":"Point",
"coordinates":[
130.934526,
34.171682
]
}
},
{
"type":"Feature",
"properties":{
"Name":"名陵中学校",
"Jusho":"山口県下関市丸山町1丁目13-3",
"Capacity":"200",
"la":"33.95837200000",
"ln":"130.93611800000"
},
"geometry":{
"type":"Point",
"coordinates":[
130.936118,
33.958372
]
}
},
{
"type":"Feature",
"properties":{
"Name":"木屋川中学校",
"Jusho":"山口県下関市木屋川南町2丁目660番地",
"Capacity":"300",
"la":"34.07333400000",
"ln":"131.05624500000"
},
"geometry":{
"type":"Point",
"coordinates":[
131.056245,
34.073334
]
}
},
{
"type":"Feature",
"properties":{
"Name":"阿知須中学校",
"Jusho":"山口県山口市阿知須5094-3",
"Capacity":"－",
"la":"34.01298500000",
"ln":"131.35388300000"
},
"geometry":{
"type":"Point",
"coordinates":[
131.353883,
34.012985
]
}
},
{
"type":"Feature",
"properties":{
"Name":"阿東東中学校",
"Jusho":"山口県山口市阿東徳佐中3288-1",
"Capacity":"－",
"la":"34.39600700000",
"ln":"131.72526500000"
},
"geometry":{
"type":"Point",
"coordinates":[
131.725265,
34.396007
]
}
},
{
"type":"Feature",
"properties":{
"Name":"潟上中学校",
"Jusho":"山口県山口市陶1912",
"Capacity":"－",
"la":"34.07945100000",
"ln":"131.43221500000"
},
"geometry":{
"type":"Point",
"coordinates":[
131.432215,
34.079451
]
}
},
{
"type":"Feature",
"properties":{
"Name":"宮野中学校",
"Jusho":"山口県山口市桜畠4-9-1",
"Capacity":"－",
"la":"34.19777500000",
"ln":"131.50150900000"
},
"geometry":{
"type":"Point",
"coordinates":[
131.501509,
34.197775
]
}
},
{
"type":"Feature",
"properties":{
"Name":"旧島地中学校",
"Jusho":"山口県山口市徳地島地35",
"Capacity":"－",
"la":"34.15897708450",
"ln":"131.70053667600"
},
"geometry":{
"type":"Point",
"coordinates":[
131.700536676,
34.1589770845
]
}
},
{
"type":"Feature",
"properties":{
"Name":"旧八坂中学校",
"Jusho":"山口県山口市徳地船路890",
"Capacity":"－",
"la":"34.23710840830",
"ln":"131.65452737200"
},
"geometry":{
"type":"Point",
"coordinates":[
131.654527372,
34.2371084083
]
}
},
{
"type":"Feature",
"properties":{
"Name":"鴻南中学校",
"Jusho":"山口県山口市吉敷4592",
"Capacity":"－",
"la":"34.15411100000",
"ln":"131.43449100000"
},
"geometry":{
"type":"Point",
"coordinates":[
131.434491,
34.154111
]
}
},
{
"type":"Feature",
"properties":{
"Name":"秋穂中学校",
"Jusho":"山口県山口市秋穂東615-1",
"Capacity":"－",
"la":"34.01428800000",
"ln":"131.44049600000"
},
"geometry":{
"type":"Point",
"coordinates":[
131.440496,
34.014288
]
}
},
{
"type":"Feature",
"properties":{
"Name":"小郡中学校",
"Jusho":"山口県山口市小郡下郷879-1",
"Capacity":"－",
"la":"34.10655200000",
"ln":"131.39772500000"
},
"geometry":{
"type":"Point",
"coordinates":[
131.397725,
34.106552
]
}
},
{
"type":"Feature",
"properties":{
"Name":"仁保中学校",
"Jusho":"山口県山口市仁保中郷84",
"Capacity":"－",
"la":"34.21533000000",
"ln":"131.55833700000"
},
"geometry":{
"type":"Point",
"coordinates":[
131.558337,
34.21533
]
}
},
{
"type":"Feature",
"properties":{
"Name":"川西中学校",
"Jusho":"山口県山口市嘉川4352-2",
"Capacity":"－",
"la":"34.06784000000",
"ln":"131.36783200000"
},
"geometry":{
"type":"Point",
"coordinates":[
131.367832,
34.06784
]
}
},
{
"type":"Feature",
"properties":{
"Name":"大殿中学校",
"Jusho":"山口県山口市古熊1-4-1",
"Capacity":"－",
"la":"34.17702700000",
"ln":"131.48428900000"
},
"geometry":{
"type":"Point",
"coordinates":[
131.484289,
34.177027
]
}
},
{
"type":"Feature",
"properties":{
"Name":"大内中学校",
"Jusho":"山口県山口市大内長野555",
"Capacity":"－",
"la":"34.15400100000",
"ln":"131.52095300000"
},
"geometry":{
"type":"Point",
"coordinates":[
131.520953,
34.154001
]
}
},
{
"type":"Feature",
"properties":{
"Name":"湯田中学校",
"Jusho":"山口県山口市楠木町7-1",
"Capacity":"－",
"la":"34.17177600000",
"ln":"131.45207100000"
},
"geometry":{
"type":"Point",
"coordinates":[
131.452071,
34.171776
]
}
},
{
"type":"Feature",
"properties":{
"Name":"徳地中学校",
"Jusho":"山口県山口市徳地堀1606",
"Capacity":"－",
"la":"34.19120500000",
"ln":"131.65910700000"
},
"geometry":{
"type":"Point",
"coordinates":[
131.659107,
34.191205
]
}
},
{
"type":"Feature",
"properties":{
"Name":"二島中学校",
"Jusho":"山口県山口市秋穂二島561",
"Capacity":"－",
"la":"34.04067800000",
"ln":"131.42471700000"
},
"geometry":{
"type":"Point",
"coordinates":[
131.424717,
34.040678
]
}
},
{
"type":"Feature",
"properties":{
"Name":"白石中学校",
"Jusho":"山口県山口市白石2-7-1",
"Capacity":"－",
"la":"34.17647100000",
"ln":"131.46937400000"
},
"geometry":{
"type":"Point",
"coordinates":[
131.469374,
34.176471
]
}
},
{
"type":"Feature",
"properties":{
"Name":"平川中学校",
"Jusho":"山口県山口市黒川1231-1",
"Capacity":"－",
"la":"34.13975100000",
"ln":"131.45721100000"
},
"geometry":{
"type":"Point",
"coordinates":[
131.457211,
34.139751
]
}
},
{
"type":"Feature",
"properties":{
"Name":"越ヶ浜中学校",
"Jusho":"山口県萩市大字椿東6089番地4",
"Capacity":"－",
"la":"34.44291500000",
"ln":"131.42203800000"
},
"geometry":{
"type":"Point",
"coordinates":[
131.422038,
34.442915
]
}
},
{
"type":"Feature",
"properties":{
"Name":"見島中学校",
"Jusho":"山口県萩市見島953番地1",
"Capacity":"－",
"la":"34.76456700000",
"ln":"131.14963500000"
},
"geometry":{
"type":"Point",
"coordinates":[
131.149635,
34.764567
]
}
},
{
"type":"Feature",
"properties":{
"Name":"三見小・中学校",
"Jusho":"山口県萩市三見3523番地1",
"Capacity":"－",
"la":"34.39237299910",
"ln":"131.33297300000"
},
"geometry":{
"type":"Point",
"coordinates":[
131.332973,
34.3923729991
]
}
},
{
"type":"Feature",
"properties":{
"Name":"須佐中学校",
"Jusho":"山口県萩市大字須佐5200番地1",
"Capacity":"－",
"la":"34.61689700000",
"ln":"131.61034900000"
},
"geometry":{
"type":"Point",
"coordinates":[
131.610349,
34.616897
]
}
},
{
"type":"Feature",
"properties":{
"Name":"川上中学校屋内運動場",
"Jusho":"山口県萩市川上4581番地",
"Capacity":"－",
"la":"34.35739600000",
"ln":"131.46353200000"
},
"geometry":{
"type":"Point",
"coordinates":[
131.463532,
34.357396
]
}
},
{
"type":"Feature",
"properties":{
"Name":"相島小・中学校グラウンド",
"Jusho":"山口県萩市相島9番地",
"Capacity":"－",
"la":"34.50332300000",
"ln":"131.28143400000"
},
"geometry":{
"type":"Point",
"coordinates":[
131.281434,
34.503323
]
}
},
{
"type":"Feature",
"properties":{
"Name":"大井中学校",
"Jusho":"山口県萩市大井1126番地",
"Capacity":"－",
"la":"34.46777400000",
"ln":"131.45620100000"
},
"geometry":{
"type":"Point",
"coordinates":[
131.456201,
34.467774
]
}
},
{
"type":"Feature",
"properties":{
"Name":"大島中学校グラウンド",
"Jusho":"山口県萩市大島211番地",
"Capacity":"－",
"la":"34.49265999910",
"ln":"131.40542600000"
},
"geometry":{
"type":"Point",
"coordinates":[
131.405426,
34.4926599991
]
}
},
{
"type":"Feature",
"properties":{
"Name":"田万川中学校グランド",
"Jusho":"山口県萩市大字下田万1070番地",
"Capacity":"－",
"la":"34.63803499910",
"ln":"131.65851100000"
},
"geometry":{
"type":"Point",
"coordinates":[
131.658511,
34.6380349991
]
}
},
{
"type":"Feature",
"properties":{
"Name":"萩西中学校",
"Jusho":"山口県萩市大字堀内261番地",
"Capacity":"－",
"la":"34.41283400000",
"ln":"131.38790200000"
},
"geometry":{
"type":"Point",
"coordinates":[
131.387902,
34.412834
]
}
},
{
"type":"Feature",
"properties":{
"Name":"萩東中学校",
"Jusho":"山口県萩市大字土原556番地1",
"Capacity":"－",
"la":"34.41258400000",
"ln":"131.40634500000"
},
"geometry":{
"type":"Point",
"coordinates":[
131.406345,
34.412584
]
}
},
{
"type":"Feature",
"properties":{
"Name":"福栄中学校",
"Jusho":"山口県萩市大字福井下4360番地1",
"Capacity":"－",
"la":"34.43622200000",
"ln":"131.48692200000"
},
"geometry":{
"type":"Point",
"coordinates":[
131.486922,
34.436222
]
}
},
{
"type":"Feature",
"properties":{
"Name":"明木中学校",
"Jusho":"山口県萩市大字明木2636番地",
"Capacity":"－",
"la":"34.32581500000",
"ln":"131.39904300000"
},
"geometry":{
"type":"Point",
"coordinates":[
131.399043,
34.325815
]
}
},
{
"type":"Feature",
"properties":{
"Name":"木間小・中学校",
"Jusho":"山口県萩市大字山田680番地2",
"Capacity":"－",
"la":"34.32931500000",
"ln":"131.35807300000"
},
"geometry":{
"type":"Point",
"coordinates":[
131.358073,
34.329315
]
}
},
{
"type":"Feature",
"properties":{
"Name":"右田中学校",
"Jusho":"山口県防府市大字高井565",
"Capacity":"500",
"la":"34.07025900000",
"ln":"131.55592600000"
},
"geometry":{
"type":"Point",
"coordinates":[
131.555926,
34.070259
]
}
},
{
"type":"Feature",
"properties":{
"Name":"華西中学校",
"Jusho":"山口県防府市大字西浦545-2",
"Capacity":"800",
"la":"34.03082000000",
"ln":"131.53101200000"
},
"geometry":{
"type":"Point",
"coordinates":[
131.531012,
34.03082
]
}
},
{
"type":"Feature",
"properties":{
"Name":"華陽中学校",
"Jusho":"山口県防府市大字田島719-2",
"Capacity":"1000",
"la":"34.02621000000",
"ln":"131.56023200000"
},
"geometry":{
"type":"Point",
"coordinates":[
131.560232,
34.02621
]
}
},
{
"type":"Feature",
"properties":{
"Name":"桑山中学校",
"Jusho":"山口県防府市桑山2-7-26",
"Capacity":"1200",
"la":"34.04618000000",
"ln":"131.56145300000"
},
"geometry":{
"type":"Point",
"coordinates":[
131.561453,
34.04618
]
}
},
{
"type":"Feature",
"properties":{
"Name":"高川学園中学校・高等学校屋内運動場",
"Jusho":"山口県防府市大字台道3635",
"Capacity":"1900",
"la":"34.05235000000",
"ln":"131.48653600000"
},
"geometry":{
"type":"Point",
"coordinates":[
131.486536,
34.05235
]
}
},
{
"type":"Feature",
"properties":{
"Name":"国府中学校",
"Jusho":"山口県防府市国衙5-11-19",
"Capacity":"1200",
"la":"34.05445700000",
"ln":"131.59164500000"
},
"geometry":{
"type":"Point",
"coordinates":[
131.591645,
34.054457
]
}
},
{
"type":"Feature",
"properties":{
"Name":"佐波中学校",
"Jusho":"山口県防府市迫戸町16-37",
"Capacity":"1000",
"la":"34.06581300000",
"ln":"131.56920400000"
},
"geometry":{
"type":"Point",
"coordinates":[
131.569204,
34.065813
]
}
},
{
"type":"Feature",
"properties":{
"Name":"小野中学校",
"Jusho":"山口県防府市大字奈美25",
"Capacity":"500",
"la":"34.12950500000",
"ln":"131.60547500000"
},
"geometry":{
"type":"Point",
"coordinates":[
131.605475,
34.129505
]
}
},
{
"type":"Feature",
"properties":{
"Name":"大道中学校",
"Jusho":"山口県防府市大字台道1124",
"Capacity":"300",
"la":"34.06734300000",
"ln":"131.48965400000"
},
"geometry":{
"type":"Point",
"coordinates":[
131.489654,
34.067343
]
}
},
{
"type":"Feature",
"properties":{
"Name":"富海中学校",
"Jusho":"山口県防府市大字富海1246-1",
"Capacity":"300",
"la":"34.05231000000",
"ln":"131.64721400000"
},
"geometry":{
"type":"Point",
"coordinates":[
131.647214,
34.05231
]
}
},
{
"type":"Feature",
"properties":{
"Name":"牟礼中学校",
"Jusho":"山口県防府市敷山町1-1",
"Capacity":"1000",
"la":"34.06573400000",
"ln":"131.59897700000"
},
"geometry":{
"type":"Point",
"coordinates":[
131.598977,
34.065734
]
}
},
{
"type":"Feature",
"properties":{
"Name":"野島小・中学校",
"Jusho":"山口県防府市大字野島158-1",
"Capacity":"200",
"la":"33.94377700000",
"ln":"131.69611200000"
},
"geometry":{
"type":"Point",
"coordinates":[
131.696112,
33.943777
]
}
},
{
"type":"Feature",
"properties":{
"Name":"下松中学校（体育館）",
"Jusho":"山口県下松市古川町2-1-1",
"Capacity":"－",
"la":"34.00899699910",
"ln":"131.87081700000"
},
"geometry":{
"type":"Point",
"coordinates":[
131.870817,
34.0089969991
]
}
},
{
"type":"Feature",
"properties":{
"Name":"久保中学校運動場",
"Jusho":"山口県下松市大字山田122",
"Capacity":"－",
"la":"34.02994000000",
"ln":"131.90006400000"
},
"geometry":{
"type":"Point",
"coordinates":[
131.900064,
34.02994
]
}
},
{
"type":"Feature",
"properties":{
"Name":"末武中学校（体育館）",
"Jusho":"山口県下松市美里町1-8-1",
"Capacity":"－",
"la":"34.02591199910",
"ln":"131.86576100000"
},
"geometry":{
"type":"Point",
"coordinates":[
131.865761,
34.0259119991
]
}
},
{
"type":"Feature",
"properties":{
"Name":"岩国西中学校",
"Jusho":"山口県岩国市角77-1",
"Capacity":"－",
"la":"34.16690100000",
"ln":"132.10537600000"
},
"geometry":{
"type":"Point",
"coordinates":[
132.105376,
34.166901
]
}
},
{
"type":"Feature",
"properties":{
"Name":"岩国中学校",
"Jusho":"山口県岩国市錦見2-5-80",
"Capacity":"－",
"la":"34.16748600000",
"ln":"132.19234100000"
},
"geometry":{
"type":"Point",
"coordinates":[
132.192341,
34.167486
]
}
},
{
"type":"Feature",
"properties":{
"Name":"錦中学校グラウンド",
"Jusho":"山口県岩国市錦町広瀬942",
"Capacity":"－",
"la":"34.25919700000",
"ln":"131.95255500000"
},
"geometry":{
"type":"Point",
"coordinates":[
131.952555,
34.259197
]
}
},
{
"type":"Feature",
"properties":{
"Name":"玖珂中学校",
"Jusho":"山口県岩国市玖珂町6345",
"Capacity":"－",
"la":"34.09771400000",
"ln":"132.07559700000"
},
"geometry":{
"type":"Point",
"coordinates":[
132.075597,
34.097714
]
}
},
{
"type":"Feature",
"properties":{
"Name":"川下中学校",
"Jusho":"山口県岩国市中津町2-22-25",
"Capacity":"－",
"la":"34.15215400000",
"ln":"132.21686700000"
},
"geometry":{
"type":"Point",
"coordinates":[
132.216867,
34.152154
]
}
},
{
"type":"Feature",
"properties":{
"Name":"東中学校",
"Jusho":"山口県岩国市三笠町2-1-9",
"Capacity":"－",
"la":"34.16768100000",
"ln":"132.22700500000"
},
"geometry":{
"type":"Point",
"coordinates":[
132.227005,
34.167681
]
}
},
{
"type":"Feature",
"properties":{
"Name":"灘中学校",
"Jusho":"山口県岩国市藤生町2-25-1",
"Capacity":"－",
"la":"34.10907600000",
"ln":"132.19737000000"
},
"geometry":{
"type":"Point",
"coordinates":[
132.19737,
34.109076
]
}
},
{
"type":"Feature",
"properties":{
"Name":"美川小・中学校",
"Jusho":"山口県岩国市美川町南桑2365",
"Capacity":"－",
"la":"34.20915900000",
"ln":"132.02515700000"
},
"geometry":{
"type":"Point",
"coordinates":[
132.025157,
34.209159
]
}
},
{
"type":"Feature",
"properties":{
"Name":"平田中学校",
"Jusho":"山口県岩国市平田6-10-33",
"Capacity":"－",
"la":"34.13910000000",
"ln":"132.18467600000"
},
"geometry":{
"type":"Point",
"coordinates":[
132.184676,
34.1391
]
}
},
{
"type":"Feature",
"properties":{
"Name":"麻里布中学校",
"Jusho":"山口県岩国市室の木町2-7-11",
"Capacity":"－",
"la":"34.17376300000",
"ln":"132.21281200000"
},
"geometry":{
"type":"Point",
"coordinates":[
132.212812,
34.173763
]
}
},
{
"type":"Feature",
"properties":{
"Name":"由宇中学校",
"Jusho":"山口県岩国市由宇町4944",
"Capacity":"－",
"la":"34.04611700000",
"ln":"132.20034200000"
},
"geometry":{
"type":"Point",
"coordinates":[
132.200342,
34.046117
]
}
},
{
"type":"Feature",
"properties":{
"Name":"光井中学校体育館",
"Jusho":"山口県光市光井7-18-1",
"Capacity":"－",
"la":"33.95822799910",
"ln":"131.95381100000"
},
"geometry":{
"type":"Point",
"coordinates":[
131.953811,
33.9582279991
]
}
},
{
"type":"Feature",
"properties":{
"Name":"室積中学校体育館",
"Jusho":"山口県光市室積新開2-4-1",
"Capacity":"－",
"la":"33.94267500000",
"ln":"131.96806000000"
},
"geometry":{
"type":"Point",
"coordinates":[
131.96806,
33.942675
]
}
},
{
"type":"Feature",
"properties":{
"Name":"浅江中学校柔剣道場",
"Jusho":"山口県光市花園2-1-1",
"Capacity":"－",
"la":"33.97515500000",
"ln":"131.92868800000"
},
"geometry":{
"type":"Point",
"coordinates":[
131.928688,
33.975155
]
}
},
{
"type":"Feature",
"properties":{
"Name":"大和中学校体育館",
"Jusho":"山口県光市塩田3333-1",
"Capacity":"－",
"la":"33.98714299910",
"ln":"132.01227700000"
},
"geometry":{
"type":"Point",
"coordinates":[
132.012277,
33.9871429991
]
}
},
{
"type":"Feature",
"properties":{
"Name":"島田中学校体育館",
"Jusho":"山口県光市中島田2-7-1",
"Capacity":"－",
"la":"33.98297400000",
"ln":"131.95181100000"
},
"geometry":{
"type":"Point",
"coordinates":[
131.951811,
33.982974
]
}
},
{
"type":"Feature",
"properties":{
"Name":"旧向津具中学校",
"Jusho":"山口県長門市油谷向津具下4102番地",
"Capacity":"－",
"la":"34.41441100000",
"ln":"130.97641100000"
},
"geometry":{
"type":"Point",
"coordinates":[
130.976411,
34.414411
]
}
},
{
"type":"Feature",
"properties":{
"Name":"旧通中学校",
"Jusho":"山口県長門市通319番地1",
"Capacity":"－",
"la":"34.42717599910",
"ln":"131.24982500000"
},
"geometry":{
"type":"Point",
"coordinates":[
131.249825,
34.4271759991
]
}
},
{
"type":"Feature",
"properties":{
"Name":"旧油谷中学校",
"Jusho":"山口県長門市後畑小田267",
"Capacity":"－",
"la":"34.40843458710",
"ln":"131.01491533300"
},
"geometry":{
"type":"Point",
"coordinates":[
131.014915333,
34.4084345871
]
}
},
{
"type":"Feature",
"properties":{
"Name":"三隅中学校",
"Jusho":"山口県長門市三隅中1504",
"Capacity":"－",
"la":"34.36503000000",
"ln":"131.24855400000"
},
"geometry":{
"type":"Point",
"coordinates":[
131.248554,
34.36503
]
}
},
{
"type":"Feature",
"properties":{
"Name":"深川中学校",
"Jusho":"山口県長門市東深川2714",
"Capacity":"－",
"la":"34.36372400000",
"ln":"131.18589100000"
},
"geometry":{
"type":"Point",
"coordinates":[
131.185891,
34.363724
]
}
},
{
"type":"Feature",
"properties":{
"Name":"仙崎中学校",
"Jusho":"山口県長門市仙崎1181-1",
"Capacity":"－",
"la":"34.38295300000",
"ln":"131.19943900000"
},
"geometry":{
"type":"Point",
"coordinates":[
131.199439,
34.382953
]
}
},
{
"type":"Feature",
"properties":{
"Name":"日置中学校",
"Jusho":"山口県長門市日置上6115",
"Capacity":"－",
"la":"34.38619100000",
"ln":"131.09612000000"
},
"geometry":{
"type":"Point",
"coordinates":[
131.09612,
34.386191
]
}
},
{
"type":"Feature",
"properties":{
"Name":"菱海中学校",
"Jusho":"山口県長門市河原1016",
"Capacity":"－",
"la":"34.36741200000",
"ln":"131.04203200000"
},
"geometry":{
"type":"Point",
"coordinates":[
131.042032,
34.367412
]
}
},
{
"type":"Feature",
"properties":{
"Name":"俵山中学校",
"Jusho":"山口県長門市俵山2305",
"Capacity":"－",
"la":"34.28384099910",
"ln":"131.11226100000"
},
"geometry":{
"type":"Point",
"coordinates":[
131.112261,
34.2838409991
]
}
},
{
"type":"Feature",
"properties":{
"Name":"旧伊陸中学校",
"Jusho":"山口県柳井市伊陸4224",
"Capacity":"350",
"la":"34.02693315000",
"ln":"132.12090204700"
},
"geometry":{
"type":"Point",
"coordinates":[
132.120902047,
34.02693315
]
}
},
{
"type":"Feature",
"properties":{
"Name":"旧平郡東中学校グラウンド",
"Jusho":"山口県柳井市平郡1072",
"Capacity":"－",
"la":"33.78304522180",
"ln":"132.25511770700"
},
"geometry":{
"type":"Point",
"coordinates":[
132.255117707,
33.7830452218
]
}
},
{
"type":"Feature",
"properties":{
"Name":"大畠中学校",
"Jusho":"山口県柳井市神代4273",
"Capacity":"200",
"la":"33.96395500000",
"ln":"132.17604300000"
},
"geometry":{
"type":"Point",
"coordinates":[
132.176043,
33.963955
]
}
},
{
"type":"Feature",
"properties":{
"Name":"柳井西中学校",
"Jusho":"山口県柳井市余田2111",
"Capacity":"500",
"la":"33.97703400000",
"ln":"132.07652300000"
},
"geometry":{
"type":"Point",
"coordinates":[
132.076523,
33.977034
]
}
},
{
"type":"Feature",
"properties":{
"Name":"柳井中学校",
"Jusho":"山口県柳井市柳井4155",
"Capacity":"1000",
"la":"33.97450700000",
"ln":"132.10552100000"
},
"geometry":{
"type":"Point",
"coordinates":[
132.105521,
33.974507
]
}
},
{
"type":"Feature",
"properties":{
"Name":"柳井南中学校",
"Jusho":"山口県柳井市伊保庄3485-1",
"Capacity":"300",
"la":"33.93770600000",
"ln":"132.12304800000"
},
"geometry":{
"type":"Point",
"coordinates":[
132.123048,
33.937706
]
}
},
{
"type":"Feature",
"properties":{
"Name":"伊佐中学校",
"Jusho":"山口県美祢市伊佐町伊佐4616番地",
"Capacity":"－",
"la":"34.16721600000",
"ln":"131.22614600000"
},
"geometry":{
"type":"Point",
"coordinates":[
131.226146,
34.167216
]
}
},
{
"type":"Feature",
"properties":{
"Name":"於福中学校",
"Jusho":"山口県美祢市於福町上4319番地",
"Capacity":"－",
"la":"34.23991200000",
"ln":"131.20535300000"
},
"geometry":{
"type":"Point",
"coordinates":[
131.205353,
34.239912
]
}
},
{
"type":"Feature",
"properties":{
"Name":"厚保中学校",
"Jusho":"山口県美祢市西厚保町本郷189番地3",
"Capacity":"－",
"la":"34.11144300000",
"ln":"131.15292900000"
},
"geometry":{
"type":"Point",
"coordinates":[
131.152929,
34.111443
]
}
},
{
"type":"Feature",
"properties":{
"Name":"秋芳南中学校",
"Jusho":"山口県美祢市秋芳町秋吉5100番地",
"Capacity":"－",
"la":"34.21590800000",
"ln":"131.29322400000"
},
"geometry":{
"type":"Point",
"coordinates":[
131.293224,
34.215908
]
}
},
{
"type":"Feature",
"properties":{
"Name":"秋芳北中学校",
"Jusho":"山口県美祢市秋芳町嘉万2970番地",
"Capacity":"－",
"la":"34.26551900000",
"ln":"131.25901200000"
},
"geometry":{
"type":"Point",
"coordinates":[
131.259012,
34.265519
]
}
},
{
"type":"Feature",
"properties":{
"Name":"大嶺中学校",
"Jusho":"山口県美祢市大嶺町東分3020番地",
"Capacity":"－",
"la":"34.16671500000",
"ln":"131.19537100000"
},
"geometry":{
"type":"Point",
"coordinates":[
131.195371,
34.166715
]
}
},
{
"type":"Feature",
"properties":{
"Name":"美東中学校",
"Jusho":"山口県美祢市美東町大田6258番地",
"Capacity":"－",
"la":"34.22579599910",
"ln":"131.34566200000"
},
"geometry":{
"type":"Point",
"coordinates":[
131.345662,
34.2257959991
]
}
},
{
"type":"Feature",
"properties":{
"Name":"豊田前中学校",
"Jusho":"山口県美祢市豊田前町麻生下262番地1",
"Capacity":"－",
"la":"34.19485000000",
"ln":"131.11990300000"
},
"geometry":{
"type":"Point",
"coordinates":[
131.119903,
34.19485
]
}
},
{
"type":"Feature",
"properties":{
"Name":"厚狭中学校体育館",
"Jusho":"山口県山陽小野田市大字山川829（山川）",
"Capacity":"－",
"la":"34.06044800000",
"ln":"131.15059800000"
},
"geometry":{
"type":"Point",
"coordinates":[
131.150598,
34.060448
]
}
},
{
"type":"Feature",
"properties":{
"Name":"厚陽中学校体育館",
"Jusho":"山口県山陽小野田市大字郡3250（渡場）",
"Capacity":"－",
"la":"34.02225800000",
"ln":"131.14607200000"
},
"geometry":{
"type":"Point",
"coordinates":[
131.146072,
34.022258
]
}
},
{
"type":"Feature",
"properties":{
"Name":"高千帆中学校",
"Jusho":"山口県山陽小野田市くし山2-8-1",
"Capacity":"－",
"la":"34.01306800000",
"ln":"131.18744000000"
},
"geometry":{
"type":"Point",
"coordinates":[
131.18744,
34.013068
]
}
},
{
"type":"Feature",
"properties":{
"Name":"小野田中学校",
"Jusho":"山口県山陽小野田市丸河内1018",
"Capacity":"－",
"la":"33.98106800000",
"ln":"131.18534700000"
},
"geometry":{
"type":"Point",
"coordinates":[
131.185347,
33.981068
]
}
},
{
"type":"Feature",
"properties":{
"Name":"埴生中学校体育館",
"Jusho":"山口県山陽小野田市大字埴生283（東側）",
"Capacity":"－",
"la":"34.04042100000",
"ln":"131.09349200000"
},
"geometry":{
"type":"Point",
"coordinates":[
131.093492,
34.040421
]
}
},
{
"type":"Feature",
"properties":{
"Name":"竜王中学校",
"Jusho":"山口県山陽小野田市松角",
"Capacity":"－",
"la":"33.95937600000",
"ln":"131.18312600000"
},
"geometry":{
"type":"Point",
"coordinates":[
131.183126,
33.959376
]
}
},
{
"type":"Feature",
"properties":{
"Name":"安下庄中学校",
"Jusho":"山口県大島郡周防大島町大字西安下庄562",
"Capacity":"－",
"la":"33.89840600000",
"ln":"132.27417400000"
},
"geometry":{
"type":"Point",
"coordinates":[
132.274174,
33.898406
]
}
},
{
"type":"Feature",
"properties":{
"Name":"沖浦中学校",
"Jusho":"山口県大島郡周防大島町大字戸田453",
"Capacity":"－",
"la":"33.87557300000",
"ln":"132.20740300000"
},
"geometry":{
"type":"Point",
"coordinates":[
132.207403,
33.875573
]
}
},
{
"type":"Feature",
"properties":{
"Name":"蒲野中学校",
"Jusho":"山口県大島郡周防大島町大字東三蒲1106-1",
"Capacity":"－",
"la":"33.94492900000",
"ln":"132.21479100000"
},
"geometry":{
"type":"Point",
"coordinates":[
132.214791,
33.944929
]
}
},
{
"type":"Feature",
"properties":{
"Name":"久賀中学校",
"Jusho":"山口県大島郡周防大島町大字久賀4823",
"Capacity":"－",
"la":"33.94587500000",
"ln":"132.26281300000"
},
"geometry":{
"type":"Point",
"coordinates":[
132.262813,
33.945875
]
}
},
{
"type":"Feature",
"properties":{
"Name":"情島小・中学校",
"Jusho":"山口県大島郡周防大島町大字伊保田163",
"Capacity":"－",
"la":"33.96079400000",
"ln":"132.47774100000"
},
"geometry":{
"type":"Point",
"coordinates":[
132.477741,
33.960794
]
}
},
{
"type":"Feature",
"properties":{
"Name":"大島中学校",
"Jusho":"山口県大島郡周防大島町大字西屋代2598",
"Capacity":"－",
"la":"33.92482000000",
"ln":"132.19793100000"
},
"geometry":{
"type":"Point",
"coordinates":[
132.197931,
33.92482
]
}
},
{
"type":"Feature",
"properties":{
"Name":"東和中学校",
"Jusho":"山口県大島郡周防大島町大字西方2048-1",
"Capacity":"－",
"la":"33.90249200000",
"ln":"132.34252900000"
},
"geometry":{
"type":"Point",
"coordinates":[
132.342529,
33.902492
]
}
},
{
"type":"Feature",
"properties":{
"Name":"日良居中学校",
"Jusho":"山口県大島郡周防大島町大字土居1325-1",
"Capacity":"－",
"la":"33.91740000000",
"ln":"132.30263100000"
},
"geometry":{
"type":"Point",
"coordinates":[
132.302631,
33.9174
]
}
},
{
"type":"Feature",
"properties":{
"Name":"油田中学校",
"Jusho":"山口県大島郡周防大島町大字伊保田1195",
"Capacity":"－",
"la":"33.93887900000",
"ln":"132.43857700000"
},
"geometry":{
"type":"Point",
"coordinates":[
132.438577,
33.938879
]
}
},
{
"type":"Feature",
"properties":{
"Name":"和木中学校",
"Jusho":"山口県玖珂郡和木町和木2-5-2",
"Capacity":"－",
"la":"34.20392700000",
"ln":"132.22069900000"
},
"geometry":{
"type":"Point",
"coordinates":[
132.220699,
34.203927
]
}
},
{
"type":"Feature",
"properties":{
"Name":"上関中学校",
"Jusho":"山口県熊毛郡上関町大字長島280番地",
"Capacity":"－",
"la":"33.83399500000",
"ln":"132.10788400000"
},
"geometry":{
"type":"Point",
"coordinates":[
132.107884,
33.833995
]
}
},
{
"type":"Feature",
"properties":{
"Name":"田布施中学校",
"Jusho":"山口県熊毛郡田布施町下田布施1050番地4",
"Capacity":"1500",
"la":"33.95700800000",
"ln":"132.04285900000"
},
"geometry":{
"type":"Point",
"coordinates":[
132.042859,
33.957008
]
}
},
{
"type":"Feature",
"properties":{
"Name":"平生中学校",
"Jusho":"山口県熊毛郡平生町曽根1844",
"Capacity":"－",
"la":"33.92406700000",
"ln":"132.07299600000"
},
"geometry":{
"type":"Point",
"coordinates":[
132.072996,
33.924067
]
}
},
{
"type":"Feature",
"properties":{
"Name":"阿武中学校",
"Jusho":"山口県阿武郡阿武町大字奈古3050-3",
"Capacity":"－",
"la":"34.50577000000",
"ln":"131.47347600000"
},
"geometry":{
"type":"Point",
"coordinates":[
131.473476,
34.50577
]
}
},
{
"type":"Feature",
"properties":{
"Name":"福賀中学校",
"Jusho":"山口県阿武郡阿武町大字福田下1556-3",
"Capacity":"－",
"la":"34.51752995860",
"ln":"131.60202500700"
},
"geometry":{
"type":"Point",
"coordinates":[
131.602025007,
34.5175299586
]
}
},
{
"type":"Feature",
"properties":{
"Name":"岐陽中学校",
"Jusho":"山口県周南市大字徳山4915",
"Capacity":"－",
"la":"34.05463827",
"ln":"131.8144094"
},
"geometry":{
"type":"Point",
"coordinates":[
131.8144094,
34.05463827
]
}
},
{
"type":"Feature",
"properties":{
"Name":"秋月中学校",
"Jusho":"山口県周南市秋月1-1-53",
"Capacity":"－",
"la":"34.05311662",
"ln":"131.82564725"
},
"geometry":{
"type":"Point",
"coordinates":[
131.82564725,
34.05311662
]
}
},
{
"type":"Feature",
"properties":{
"Name":"周陽中学校",
"Jusho":"山口県周南市周陽3-3-1",
"Capacity":"－",
"la":"34.0438786",
"ln":"131.8304418"
},
"geometry":{
"type":"Point",
"coordinates":[
131.8304418,
34.0438786
]
}
},
{
"type":"Feature",
"properties":{
"Name":"住吉中学校",
"Jusho":"山口県周南市住吉町1-80",
"Capacity":"－",
"la":"34.06413145",
"ln":"131.8058187"
},
"geometry":{
"type":"Point",
"coordinates":[
131.8058187,
34.06413145
]
}
},
{
"type":"Feature",
"properties":{
"Name":"太華中学校",
"Jusho":"山口県周南市大字久米4117-4",
"Capacity":"－",
"la":"34.03331278",
"ln":"131.83143107"
},
"geometry":{
"type":"Point",
"coordinates":[
131.83143107,
34.03331278
]
}
},
{
"type":"Feature",
"properties":{
"Name":"鼓南中学校",
"Jusho":"山口県周南市大字大島880",
"Capacity":"－",
"la":"33.98388278",
"ln":"131.77687024"
},
"geometry":{
"type":"Point",
"coordinates":[
131.77687024,
33.98388278
]
}
},
{
"type":"Feature",
"properties":{
"Name":"菊川中学校",
"Jusho":"山口県周南市大字上村685",
"Capacity":"－",
"la":"34.09603112",
"ln":"131.79019719"
},
"geometry":{
"type":"Point",
"coordinates":[
131.79019719,
34.09603112
]
}
},
{
"type":"Feature",
"properties":{
"Name":"桜田中学校",
"Jusho":"山口県周南市大字戸田2960",
"Capacity":"－",
"la":"34.07946357",
"ln":"131.68681031"
},