var o={
"type":"FeatureCollection",
"features":[
{
"type":"Feature",
"properties":{
"Name":"いきいきプラザ一番町",
"Jusho":"東京都千代田区一番町12-12",
"Capacity":"－",
"la":"35.68689800000",
"ln":"139.73953800000"
},
"geometry":{
"type":"Point",
"coordinates":[
139.739538,
35.686898
]
}
},
{
"type":"Feature",
"properties":{
"Name":"ちよだパークサイドプラザ",
"Jusho":"東京都千代田区神田和泉町1",
"Capacity":"－",
"la":"35.69931899910",
"ln":"139.77859900000"
},
"geometry":{
"type":"Point",
"coordinates":[
139.778599,
35.6993189991
]
}
},
{
"type":"Feature",
"properties":{
"Name":"岩本町ほほえみプラザ",
"Jusho":"東京都千代田区岩本町2-15-13",
"Capacity":"－",
"la":"35.69446700000",
"ln":"139.77789400000"
},
"geometry":{
"type":"Point",
"coordinates":[
139.777894,
35.694467
]
}
},
{
"type":"Feature",
"properties":{
"Name":"九段生涯学習館",
"Jusho":"東京都千代田区九段南1-15-10",
"Capacity":"－",
"la":"35.69516900000",
"ln":"139.75210600000"
},
"geometry":{
"type":"Point",
"coordinates":[
139.752106,
35.695169
]
}
},
{
"type":"Feature",
"properties":{
"Name":"九段中等教育学校",
"Jusho":"東京都千代田区富士見1-10-14",
"Capacity":"－",
"la":"35.69650275710",
"ln":"139.74645831000"
},
"geometry":{
"type":"Point",
"coordinates":[
139.74645831,
35.6965027571
]
}
},
{
"type":"Feature",
"properties":{
"Name":"区立スポーツセンター",
"Jusho":"東京都千代田区内神田2-1-18",
"Capacity":"－",
"la":"35.68917000000",
"ln":"139.76755600000"
},
"geometry":{
"type":"Point",
"coordinates":[
139.767556,
35.68917
]
}
},
{
"type":"Feature",
"properties":{
"Name":"高齢者センター",
"Jusho":"東京都千代田区神田神保町2-120",
"Capacity":"－",
"la":"35.69712400000",
"ln":"139.75651600000"
},
"geometry":{
"type":"Point",
"coordinates":[
139.756516,
35.697124
]
}
},
{
"type":"Feature",
"properties":{
"Name":"昌平童夢館",
"Jusho":"東京都千代田区外神田3-14-17",
"Capacity":"－",
"la":"35.70115200000",
"ln":"139.76990400000"
},
"geometry":{
"type":"Point",
"coordinates":[
139.769904,
35.701152
]
}
},
{
"type":"Feature",
"properties":{
"Name":"神田さくら館",
"Jusho":"東京都千代田区神田司町2-16",
"Capacity":"－",
"la":"35.69348599910",
"ln":"139.76846000000"
},
"geometry":{
"type":"Point",
"coordinates":[
139.76846,
35.6934859991
]
}
},
{
"type":"Feature",
"properties":{
"Name":"都立一橋高校",
"Jusho":"東京都千代田区東神田1-12-13",
"Capacity":"－",
"la":"35.69456999910",
"ln":"139.78107100000"
},
"geometry":{
"type":"Point",
"coordinates":[
139.781071,
35.6945699991
]
}
},
{
"type":"Feature",
"properties":{
"Name":"都立九段高校",
"Jusho":"東京都千代田区九段北2-12-1",
"Capacity":"－",
"la":"35.69609599910",
"ln":"139.74740600000"
},
"geometry":{
"type":"Point",
"coordinates":[
139.747406,
35.6960959991
]
}
},
{
"type":"Feature",
"properties":{
"Name":"都立日比谷高校",
"Jusho":"東京都千代田区永田町2-16-1",
"Capacity":"－",
"la":"35.67604300000",
"ln":"139.73943500000"
},
"geometry":{
"type":"Point",
"coordinates":[
139.739435,
35.676043
]
}
},
{
"type":"Feature",
"properties":{
"Name":"ほっとプラザはるみ",
"Jusho":"東京都中央区晴海5-12-13",
"Capacity":"285",
"la":"35.65180510040",
"ln":"139.77494355000"
},
"geometry":{
"type":"Point",
"coordinates":[
139.77494355,
35.6518051004
]
}
},
{
"type":"Feature",
"properties":{
"Name":"介護老人保健施設「リハポート明石」",
"Jusho":"東京都中央区明石町1-16",
"Capacity":"145",
"la":"35.66942099200",
"ln":"139.77669943500"
},
"geometry":{
"type":"Point",
"coordinates":[
139.776699435,
35.669420992
]
}
},
{
"type":"Feature",
"properties":{
"Name":"京華スクエア（１、２階）",
"Jusho":"東京都中央区八丁堀3-17-19",
"Capacity":"981",
"la":"35.67499636490",
"ln":"139.77557102700"
},
"geometry":{
"type":"Point",
"coordinates":[
139.775571027,
35.6749963649
]
}
},
{
"type":"Feature",
"properties":{
"Name":"京橋プラザ",
"Jusho":"東京都中央区銀座1-125-13",
"Capacity":"1008",
"la":"35.67324600000",
"ln":"139.77171700000"
},
"geometry":{
"type":"Point",
"coordinates":[
139.771717,
35.673246
]
}
},
{
"type":"Feature",
"properties":{
"Name":"教育センター",
"Jusho":"東京都中央区明石町12-1",
"Capacity":"94",
"la":"35.66652655100",
"ln":"139.77690527600"
},
"geometry":{
"type":"Point",
"coordinates":[
139.776905276,
35.666526551
]
}
},
{
"type":"Feature",
"properties":{
"Name":"月島児童館",
"Jusho":"東京都中央区月島4-1-1",
"Capacity":"918",
"la":"35.66199000000",
"ln":"139.78229300000"
},
"geometry":{
"type":"Point",
"coordinates":[
139.782293,
35.66199
]
}
},
{
"type":"Feature",
"properties":{
"Name":"月島社会教育会館",
"Jusho":"東京都中央区月島4-1-1",
"Capacity":"140",
"la":"35.66199900000",
"ln":"139.78218900000"
},
"geometry":{
"type":"Point",
"coordinates":[
139.782189,
35.661999
]
}
},
{
"type":"Feature",
"properties":{
"Name":"月島社会教育会館晴海分館「アートはるみ」",
"Jusho":"東京都中央区晴海1-14-1",
"Capacity":"120",
"la":"35.65886900000",
"ln":"139.78561900000"
},
"geometry":{
"type":"Point",
"coordinates":[
139.785619,
35.658869
]
}
},
{
"type":"Feature",
"properties":{
"Name":"十思スクエア",
"Jusho":"東京都中央区小伝馬町5-1",
"Capacity":"1660",
"la":"35.69087243690",
"ln":"139.77699394200"
},
"geometry":{
"type":"Point",
"coordinates":[
139.776993942,
35.6908724369
]
}
},
{
"type":"Feature",
"properties":{
"Name":"新川区民館",
"Jusho":"東京都中央区新川1-126-1",
"Capacity":"366",
"la":"35.67641400000",
"ln":"139.78372400000"
},
"geometry":{
"type":"Point",
"coordinates":[
139.783724,
35.676414
]
}
},
{
"type":"Feature",
"properties":{
"Name":"築地社会教育会館",
"Jusho":"東京都中央区築地4-15-1",
"Capacity":"310",
"la":"35.66637900000",
"ln":"139.76815100000"
},
"geometry":{
"type":"Point",
"coordinates":[
139.768151,
35.666379
]
}
},
{
"type":"Feature",
"properties":{
"Name":"佃児童館シニアセンター",
"Jusho":"東京都中央区佃1-11-1",
"Capacity":"170",
"la":"35.66890599910",
"ln":"139.78473700000"
},
"geometry":{
"type":"Point",
"coordinates":[
139.784737,
35.6689059991
]
}
},
{
"type":"Feature",
"properties":{
"Name":"特別養護老人ホーム「マイホームはるみ」",
"Jusho":"東京都中央区晴海1-15-1",
"Capacity":"60",
"la":"35.65996200000",
"ln":"139.78471000000"
},
"geometry":{
"type":"Point",
"coordinates":[
139.78471,
35.659962
]
}
},
{
"type":"Feature",
"properties":{
"Name":"特別養護老人ホーム「マイホーム新川」",
"Jusho":"東京都中央区新川2-127-13",
"Capacity":"40",
"la":"35.67310000000",
"ln":"139.78382100000"
},
"geometry":{
"type":"Point",
"coordinates":[
139.783821,
35.6731
]
}
},
{
"type":"Feature",
"properties":{
"Name":"日本橋公会堂集会室",
"Jusho":"東京都中央区日本橋蛎殻町1-131-1",
"Capacity":"513",
"la":"35.68248600000",
"ln":"139.78432100000"
},
"geometry":{
"type":"Point",
"coordinates":[
139.784321,
35.682486
]
}
},
{
"type":"Feature",
"properties":{
"Name":"日本橋社会教育会館",
"Jusho":"東京都中央区日本橋人形町1-1-17",
"Capacity":"130",
"la":"35.68477100000",
"ln":"139.78139400000"
},
"geometry":{
"type":"Point",
"coordinates":[
139.781394,
35.684771
]
}
},
{
"type":"Feature",
"properties":{
"Name":"浜町敬老館浜町児童館浜町区民館",
"Jusho":"東京都中央区日本橋浜町3-137-1",
"Capacity":"180",
"la":"35.68548800000",
"ln":"139.79146100000"
},
"geometry":{
"type":"Point",
"coordinates":[
139.791461,
35.685488
]
}
},
{
"type":"Feature",
"properties":{
"Name":"福祉センター",
"Jusho":"東京都中央区明石町12-1",
"Capacity":"220",
"la":"35.66648900000",
"ln":"139.77690500000"
},
"geometry":{
"type":"Point",
"coordinates":[
139.776905,
35.666489
]
}
},
{
"type":"Feature",
"properties":{
"Name":"エコプラザ",
"Jusho":"東京都港区浜松町1-13-1",
"Capacity":"－",
"la":"35.65879000000",
"ln":"139.75691300000"
},
"geometry":{
"type":"Point",
"coordinates":[
139.756913,
35.65879
]
}
},
{
"type":"Feature",
"properties":{
"Name":"サンサン赤坂",
"Jusho":"東京都港区赤坂6-16-14",
"Capacity":"888",
"la":"35.66996600000",
"ln":"139.73763100000"
},
"geometry":{
"type":"Point",
"coordinates":[
139.737631,
35.669966
]
}
},
{
"type":"Feature",
"properties":{
"Name":"虎ノ門健康福祉館（とらトピア）",
"Jusho":"東京都港区虎ノ門1-121-10",
"Capacity":"132",
"la":"35.66783900000",
"ln":"139.74873200000"
},
"geometry":{
"type":"Point",
"coordinates":[
139.748732,
35.667839
]
}
},
{
"type":"Feature",
"properties":{
"Name":"港勤労福祉会館",
"Jusho":"東京都港区芝5-18-12",
"Capacity":"651",
"la":"35.64803300000",
"ln":"139.74849400000"
},
"geometry":{
"type":"Point",
"coordinates":[
139.748494,
35.648033
]
}
},
{
"type":"Feature",
"properties":{
"Name":"港区スポーツセンター",
"Jusho":"東京都港区芝浦3-1-19",
"Capacity":"4457",
"la":"35.64550000000",
"ln":"139.75003000000"
},
"geometry":{
"type":"Point",
"coordinates":[
139.75003,
35.6455
]
}
},
{
"type":"Feature",
"properties":{
"Name":"港南健康福祉館",
"Jusho":"東京都港区港南4-12-1",
"Capacity":"191",
"la":"35.62930670340",
"ln":"139.74787353600"
},
"geometry":{
"type":"Point",
"coordinates":[
139.747873536,
35.6293067034
]
}
},
{
"type":"Feature",
"properties":{
"Name":"高輪区民センター",
"Jusho":"東京都港区高輪1-16-125",
"Capacity":"393",
"la":"35.64195600000",
"ln":"139.73408200000"
},
"geometry":{
"type":"Point",
"coordinates":[
139.734082,
35.641956
]
}
},
{
"type":"Feature",
"properties":{
"Name":"高輪福祉会館",
"Jusho":"東京都港区高輪3-18-15",
"Capacity":"138",
"la":"35.63252000000",
"ln":"139.73618700000"
},
"geometry":{
"type":"Point",
"coordinates":[
139.736187,
35.63252
]
}
},
{
"type":"Feature",
"properties":{
"Name":"三田福祉会館",
"Jusho":"東京都港区芝4-1-17",
"Capacity":"332",
"la":"35.64882400000",
"ln":"139.74957400000"
},
"geometry":{
"type":"Point",
"coordinates":[
139.749574,
35.648824
]
}
},
{
"type":"Feature",
"properties":{
"Name":"芝浦港南区民センター",
"Jusho":"東京都港区芝浦4-13-1",
"Capacity":"433",
"la":"35.64057000000",
"ln":"139.74863400000"
},
"geometry":{
"type":"Point",
"coordinates":[
139.748634,
35.64057
]
}
},
{
"type":"Feature",
"properties":{
"Name":"障害保健福祉センター",
"Jusho":"東京都港区芝1-18-123",
"Capacity":"526",
"la":"35.65149000000",
"ln":"139.75560200000"
},
"geometry":{
"type":"Point",
"coordinates":[
139.755602,
35.65149
]
}
},
{
"type":"Feature",
"properties":{
"Name":"新橋福祉会館",
"Jusho":"東京都港区新橋6-14-12",
"Capacity":"148",
"la":"35.66215600000",
"ln":"139.75412900000"
},
"geometry":{
"type":"Point",
"coordinates":[
139.754129,
35.662156
]
}
},
{
"type":"Feature",
"properties":{
"Name":"生涯学習センター",
"Jusho":"東京都港区新橋3-16-13",
"Capacity":"838",
"la":"35.66552162320",
"ln":"139.75709123200"
},
"geometry":{
"type":"Point",
"coordinates":[
139.757091232,
35.6655216232
]
}
},
{
"type":"Feature",
"properties":{
"Name":"西麻布福祉会館",
"Jusho":"東京都港区西麻布2-13-13",
"Capacity":"122",
"la":"35.66040500000",
"ln":"139.72288200000"
},
"geometry":{
"type":"Point",
"coordinates":[
139.722882,
35.660405
]
}
},
{
"type":"Feature",
"properties":{
"Name":"青山福祉会館",
"Jusho":"東京都港区南青山2-16-15",
"Capacity":"585",
"la":"35.66912600000",
"ln":"139.72116000000"
},
"geometry":{
"type":"Point",
"coordinates":[
139.72116,
35.669126
]
}
},
{
"type":"Feature",
"properties":{
"Name":"青南福祉会館",
"Jusho":"東京都港区南青山4-10-1",
"Capacity":"138",
"la":"35.66665400000",
"ln":"139.71766000000"
},
"geometry":{
"type":"Point",
"coordinates":[
139.71766,
35.666654
]
}
},
{
"type":"Feature",
"properties":{
"Name":"赤坂区民センター",
"Jusho":"東京都港区赤坂4-18-13",
"Capacity":"475",
"la":"35.67474900000",
"ln":"139.73163400000"
},
"geometry":{
"type":"Point",
"coordinates":[
139.731634,
35.674749
]
}
},
{
"type":"Feature",
"properties":{
"Name":"赤坂福祉会館",
"Jusho":"東京都港区赤坂6-14-18",
"Capacity":"118",
"la":"35.67015400000",
"ln":"139.73440800000"
},
"geometry":{
"type":"Point",
"coordinates":[
139.734408,
35.670154
]
}
},
{
"type":"Feature",
"properties":{
"Name":"台場区民センター",
"Jusho":"東京都港区台場1-15-1",
"Capacity":"298",
"la":"35.62989200000",
"ln":"139.77717000000"
},
"geometry":{
"type":"Point",
"coordinates":[
139.77717,
35.629892
]
}
},
{
"type":"Feature",
"properties":{
"Name":"男女平等参画センター",
"Jusho":"東京都港区芝浦3-1-147",
"Capacity":"552",
"la":"35.64566400000",
"ln":"139.74903300000"
},
"geometry":{
"type":"Point",
"coordinates":[
139.749033,
35.645664
]
}
},
{
"type":"Feature",
"properties":{
"Name":"南麻布福祉会館",
"Jusho":"東京都港区南麻布1-15-126",
"Capacity":"224",
"la":"35.65615600000",
"ln":"139.73069900000"
},
"geometry":{
"type":"Point",
"coordinates":[
139.730699,
35.656156
]
}
},
{
"type":"Feature",
"properties":{
"Name":"白金台福祉会館",
"Jusho":"東京都港区白金台4-18-15",
"Capacity":"424",
"la":"35.63763000000",
"ln":"139.72493800000"
},
"geometry":{
"type":"Point",
"coordinates":[
139.724938,
35.63763
]
}
},
{
"type":"Feature",
"properties":{
"Name":"白金福祉会館",
"Jusho":"東京都港区白金3-10-12",
"Capacity":"129",
"la":"35.64496300000",
"ln":"139.73104800000"
},
"geometry":{
"type":"Point",
"coordinates":[
139.731048,
35.644963
]
}
},
{
"type":"Feature",
"properties":{
"Name":"飯倉福祉会館",
"Jusho":"東京都港区東麻布2-16-11",
"Capacity":"157",
"la":"35.65697100000",
"ln":"139.74081000000"
},
"geometry":{
"type":"Point",
"coordinates":[
139.74081,
35.656971
]
}
},
{
"type":"Feature",
"properties":{
"Name":"福祉プラザさくら川",
"Jusho":"東京都港区新橋6-19-12",
"Capacity":"189",
"la":"35.66107558390",
"ln":"139.75392979500"
},
"geometry":{
"type":"Point",
"coordinates":[
139.753929795,
35.6610755839
]
}
},
{
"type":"Feature",
"properties":{
"Name":"豊岡福祉会館",
"Jusho":"東京都港区三田5-17-17",
"Capacity":"121",
"la":"35.64629600000",
"ln":"139.73954800000"
},
"geometry":{
"type":"Point",
"coordinates":[
139.739548,
35.646296
]
}
},
{
"type":"Feature",
"properties":{
"Name":"本村福祉会館",
"Jusho":"東京都港区南麻布3-15-15",
"Capacity":"149",
"la":"35.65126700000",
"ln":"139.73010400000"
},
"geometry":{
"type":"Point",
"coordinates":[
139.730104,
35.651267
]
}
},
{
"type":"Feature",
"properties":{
"Name":"麻布区民センター",
"Jusho":"東京都港区六本木5-16-145",
"Capacity":"326",
"la":"35.66064800000",
"ln":"139.73501200000"
},
"geometry":{
"type":"Point",
"coordinates":[
139.735012,
35.660648
]
}
},
{
"type":"Feature",
"properties":{
"Name":"あゆみの家",
"Jusho":"東京都新宿区西落合1-130-10",
"Capacity":"－",
"la":"35.72067500000",
"ln":"139.67891100000"
},
"geometry":{
"type":"Point",
"coordinates":[
139.678911,
35.720675
]
}
},
{
"type":"Feature",
"properties":{
"Name":"下落合地域交流館",
"Jusho":"東京都新宿区下落合3-12-133",
"Capacity":"－",
"la":"35.72124200000",
"ln":"139.69950700000"
},
"geometry":{
"type":"Point",
"coordinates":[
139.699507,
35.721242
]
}
},
{
"type":"Feature",
"properties":{
"Name":"高田馬場シニア活動館",
"Jusho":"東京都新宿区高田馬場3-139-129",
"Capacity":"－",
"la":"35.71215899910",
"ln":"139.69595900000"
},
"geometry":{
"type":"Point",
"coordinates":[
139.695959,
35.7121589991
]
}
},
{
"type":"Feature",
"properties":{
"Name":"高田馬場第一児童館",
"Jusho":"東京都新宿区高田馬場3-18-121",
"Capacity":"－",
"la":"35.71420246010",
"ln":"139.69776198700"
},
"geometry":{
"type":"Point",
"coordinates":[
139.697761987,
35.7142024601
]
}
},
{
"type":"Feature",
"properties":{
"Name":"高田馬場福祉作業所",
"Jusho":"東京都新宿区百人町4-14-12",
"Capacity":"－",
"la":"35.70906600000",
"ln":"139.70202100000"
},
"geometry":{
"type":"Point",
"coordinates":[
139.702021,
35.709066
]
}
},
{
"type":"Feature",
"properties":{
"Name":"山吹町地域交流館",
"Jusho":"東京都新宿区山吹町342",
"Capacity":"－",
"la":"35.70801400000",
"ln":"139.72960700000"
},
"geometry":{
"type":"Point",
"coordinates":[
139.729607,
35.708014
]
}
},
{
"type":"Feature",
"properties":{
"Name":"障害者福祉センター",
"Jusho":"東京都新宿区戸山1-122-12",
"Capacity":"－",
"la":"35.70338651600",
"ln":"139.71760973800"
},
"geometry":{
"type":"Point",
"coordinates":[
139.717609738,
35.703386516
]
}
},
{
"type":"Feature",
"properties":{
"Name":"上落合児童館",
"Jusho":"東京都新宿区上落合2-128-18",
"Capacity":"－",
"la":"35.71106500000",
"ln":"139.68543900000"
},
"geometry":{
"type":"Point",
"coordinates":[
139.685439,
35.711065
]
}
},
{
"type":"Feature",
"properties":{
"Name":"上落合地域交流館",
"Jusho":"東京都新宿区上落合2-128-18",
"Capacity":"－",
"la":"35.71101800000",
"ln":"139.68539500000"
},
"geometry":{
"type":"Point",
"coordinates":[
139.685395,
35.711018
]
}
},
{
"type":"Feature",
"properties":{
"Name":"信濃町シニア活動館",
"Jusho":"東京都新宿区信濃町20",
"Capacity":"－",
"la":"35.68339953500",
"ln":"139.72016920500"
},
"geometry":{
"type":"Point",
"coordinates":[
139.720169205,
35.683399535
]
}
},
{
"type":"Feature",
"properties":{
"Name":"新宿生活実習所",
"Jusho":"東京都新宿区弁天町50",
"Capacity":"－",
"la":"35.70371700000",
"ln":"139.72710500000"
},
"geometry":{
"type":"Point",
"coordinates":[
139.727105,
35.703717
]
}
},
{
"type":"Feature",
"properties":{
"Name":"新宿地域交流館",
"Jusho":"東京都新宿区新宿5-13-13",
"Capacity":"－",
"la":"35.69305785830",
"ln":"139.71101813000"
},
"geometry":{
"type":"Point",
"coordinates":[
139.71101813,
35.6930578583
]
}
},
{
"type":"Feature",
"properties":{
"Name":"新宿福祉作業所",
"Jusho":"東京都新宿区戸山1-122-12",
"Capacity":"－",
"la":"35.70370600000",
"ln":"139.71740900000"
},
"geometry":{
"type":"Point",
"coordinates":[
139.717409,
35.703706
]
}
},
{
"type":"Feature",
"properties":{
"Name":"西新宿児童館",
"Jusho":"東京都新宿区西新宿4-135-128",
"Capacity":"－",
"la":"35.68641300000",
"ln":"139.68677000000"
},
"geometry":{
"type":"Point",
"coordinates":[
139.68677,
35.686413
]
}
},
{
"type":"Feature",
"properties":{
"Name":"西早稲田地域交流館",
"Jusho":"東京都新宿区西早稲田1-122-12",
"Capacity":"－",
"la":"35.71181100000",
"ln":"139.71788900000"
},
"geometry":{
"type":"Point",
"coordinates":[
139.717889,
35.711811
]
}
},
{
"type":"Feature",
"properties":{
"Name":"早稲田南町児童館",
"Jusho":"東京都新宿区早稲田南町50",
"Capacity":"－",
"la":"35.70509300000",
"ln":"139.72218500000"
},
"geometry":{
"type":"Point",
"coordinates":[
139.722185,
35.705093
]
}
},
{
"type":"Feature",
"properties":{
"Name":"早稲田南町地域交流館",
"Jusho":"東京都新宿区早稲田南町50",
"Capacity":"－",
"la":"35.70521400000",
"ln":"139.72241300000"
},
"geometry":{
"type":"Point",
"coordinates":[
139.722413,
35.705214
]
}
},
{
"type":"Feature",
"properties":{
"Name":"百人町ことぶき館",
"Jusho":"東京都新宿区百人町2-18-121",
"Capacity":"－",
"la":"35.70334200000",
"ln":"139.69817200000"
},
"geometry":{
"type":"Point",
"coordinates":[
139.698172,
35.703342
]
}
},
{
"type":"Feature",
"properties":{
"Name":"百人町児童館",
"Jusho":"東京都新宿区百人町2-18-121",
"Capacity":"－",
"la":"35.70329100000",
"ln":"139.69810900000"
},
"geometry":{
"type":"Point",
"coordinates":[
139.698109,
35.703291
]
}
},
{
"type":"Feature",
"properties":{
"Name":"富久町児童館",
"Jusho":"東京都新宿区富久町22-121",
"Capacity":"－",
"la":"35.69406800000",
"ln":"139.71563100000"
},
"geometry":{
"type":"Point",
"coordinates":[
139.715631,
35.694068
]
}
},
{
"type":"Feature",
"properties":{
"Name":"北新宿第一児童館",
"Jusho":"東京都新宿区北新宿2-13-17",
"Capacity":"－",
"la":"35.69845600000",
"ln":"139.69024400000"
},
"geometry":{
"type":"Point",
"coordinates":[
139.690244,
35.698456
]
}
},
{
"type":"Feature",
"properties":{
"Name":"北新宿地域交流館",
"Jusho":"東京都新宿区北新宿2-13-17",
"Capacity":"－",
"la":"35.69852604850",
"ln":"139.69011557100"
},
"geometry":{
"type":"Point",
"coordinates":[
139.690115571,
35.6985260485
]
}
},
{
"type":"Feature",
"properties":{
"Name":"榎町子ども家庭支援センター",
"Jusho":"東京都新宿区榎町36",
"Capacity":"－",
"la":"35.70459499910",
"ln":"139.72768500000"
},
"geometry":{
"type":"Point",
"coordinates":[
139.727685,
35.7045949991
]
}
},
{
"type":"Feature",
"properties":{
"Name":"花園幼稚園",
"Jusho":"東京都新宿区新宿1-122-1",
"Capacity":"－",
"la":"35.68956800000",
"ln":"139.71360400000"
},
"geometry":{
"type":"Point",
"coordinates":[
139.713604,
35.689568
]
}
},
{
"type":"Feature",
"properties":{
"Name":"学習院女子大学、学習院女子中・高等科",
"Jusho":"東京都新宿区戸山3-120-1",
"Capacity":"－",
"la":"35.70687900000",
"ln":"139.71356700000"
},
"geometry":{
"type":"Point",
"coordinates":[
139.713567,
35.706879
]
}
},
{
"type":"Feature",
"properties":{
"Name":"牛込仲之幼稚園",
"Jusho":"東京都新宿区市谷仲之町4-133",
"Capacity":"－",
"la":"35.69579000000",
"ln":"139.72357500000"
},
"geometry":{
"type":"Point",
"coordinates":[
139.723575,
35.69579
]
}
},
{
"type":"Feature",
"properties":{
"Name":"戸山ことぶき館",
"Jusho":"東京都新宿区戸山2-127-12",
"Capacity":"－",
"la":"35.70452600000",
"ln":"139.71098900000"
},
"geometry":{
"type":"Point",
"coordinates":[
139.710989,
35.704526
]
}
},
{
"type":"Feature",
"properties":{
"Name":"戸山幼稚園",
"Jusho":"東京都新宿区百人町2-1-138",
"Capacity":"－",
"la":"35.70389999910",
"ln":"139.70193800000"
},
"geometry":{
"type":"Point",
"coordinates":[
139.701938,
35.7038999991
]
}
},
{
"type":"Feature",
"properties":{
"Name":"戸塚第一幼稚園",
"Jusho":"東京都新宿区西早稲田3-10-12",
"Capacity":"－",
"la":"35.71095500000",
"ln":"139.71471400000"
},
"geometry":{
"type":"Point",
"coordinates":[
139.714714,
35.710955
]
}
},
{
"type":"Feature",
"properties":{
"Name":"戸塚第二幼稚園",
"Jusho":"東京都新宿区高田馬場1-125-121",
"Capacity":"－",
"la":"35.71214900000",
"ln":"139.70610400000"
},
"geometry":{
"type":"Point",
"coordinates":[
139.706104,
35.712149
]
}
},
{
"type":"Feature",
"properties":{
"Name":"高田馬場第二児童館・ことぶき館",
"Jusho":"東京都新宿区高田馬場1-14-17",
"Capacity":"－",
"la":"35.71106300000",
"ln":"139.70929900000"
},
"geometry":{
"type":"Point",
"coordinates":[
139.709299,
35.711063
]
}
},
{
"type":"Feature",
"properties":{
"Name":"高齢者いこいの家清風園",
"Jusho":"東京都新宿区中落合1-17-126",
"Capacity":"－",
"la":"35.71762300000",
"ln":"139.69054700000"
},
"geometry":{
"type":"Point",
"coordinates":[
139.690547,
35.717623
]
}
},
{
"type":"Feature",
"properties":{
"Name":"四谷ひろば",
"Jusho":"東京都新宿区四谷4-120",
"Capacity":"－",
"la":"35.68951930930",
"ln":"139.71784505800"
},
"geometry":{
"type":"Point",
"coordinates":[
139.717845058,
35.6895193093
]
}
},
{
"type":"Feature",
"properties":{
"Name":"四谷第六幼稚園",
"Jusho":"東京都新宿区大京町30",
"Capacity":"－",
"la":"35.68176400000",
"ln":"139.71604800000"
},
"geometry":{
"type":"Point",
"coordinates":[
139.716048,
35.681764
]
}
},
{
"type":"Feature",
"properties":{
"Name":"子ども総合センター",
"Jusho":"東京都新宿区新宿7-13-129",
"Capacity":"－",
"la":"35.70079551070",
"ln":"139.71231140900"
},
"geometry":{
"type":"Point",
"coordinates":[
139.712311409,
35.7007955107
]
}
},
{
"type":"Feature",
"properties":{
"Name":"市谷幼稚園",
"Jusho":"東京都新宿区市谷山伏町1-13",
"Capacity":"－",
"la":"35.69973400000",
"ln":"139.72868500000"
},
"geometry":{
"type":"Point",
"coordinates":[
139.728685,
35.699734
]
}
},
{
"type":"Feature",
"properties":{
"Name":"信濃町子ども家庭支援センター",
"Jusho":"東京都新宿区信濃町20",
"Capacity":"－",
"la":"35.68330100000",
"ln":"139.72032200000"
},
"geometry":{
"type":"Point",
"coordinates":[
139.720322,
35.683301
]
}
},
{
"type":"Feature",
"properties":{
"Name":"新宿養護学校",
"Jusho":"東京都新宿区西新宿4-120-11",
"Capacity":"－",
"la":"35.68829000000",
"ln":"139.68616200000"
},
"geometry":{
"type":"Point",
"coordinates":[
139.686162,
35.68829
]
}
},
{
"type":"Feature",
"properties":{
"Name":"成城学校",
"Jusho":"東京都新宿区原町3-187",
"Capacity":"－",
"la":"35.69859499910",
"ln":"139.72310300000"
},
"geometry":{
"type":"Point",
"coordinates":[
139.723103,
35.6985949991
]
}
},
{
"type":"Feature",
"properties":{
"Name":"西戸山幼稚園",
"Jusho":"東京都新宿区百人町4-17-1",
"Capacity":"－",
"la":"35.70887100000",
"ln":"139.69568800000"
},
"geometry":{
"type":"Point",
"coordinates":[
139.695688,
35.708871
]
}
},
{
"type":"Feature",
"properties":{
"Name":"西新宿ことぶき館",
"Jusho":"東京都新宿区西新宿4-18-135",
"Capacity":"－",
"la":"35.68867100000",
"ln":"139.68430200000"
},
"geometry":{
"type":"Point",
"coordinates":[
139.684302,
35.688671
]
}
},
{
"type":"Feature",
"properties":{
"Name":"西落合児童館",
"Jusho":"東京都新宿区西落合1-131-124",
"Capacity":"－",
"la":"35.71970000000",
"ln":"139.67960600000"
},
"geometry":{
"type":"Point",
"coordinates":[
139.679606,
35.7197
]
}
},
{
"type":"Feature",
"properties":{
"Name":"早稲田大学（戸山キャンパス）",
"Jusho":"東京都新宿区戸山1-124-1",
"Capacity":"－",
"la":"35.70523000000",
"ln":"139.71815600000"
},
"geometry":{
"type":"Point",
"coordinates":[
139.718156,
35.70523
]
}
},
{
"type":"Feature",
"properties":{
"Name":"早稲田大学（早稲田キャンパス）",
"Jusho":"東京都新宿区西早稲田1-16-1",
"Capacity":"－",
"la":"35.70976100000",
"ln":"139.71874100000"
},
"geometry":{
"type":"Point",
"coordinates":[
139.718741,
35.709761
]
}
},
{
"type":"Feature",
"properties":{
"Name":"早稲田幼稚園",
"Jusho":"東京都新宿区早稲田南町25",
"Capacity":"－",
"la":"35.70390000000",
"ln":"139.72351900000"
},
"geometry":{
"type":"Point",
"coordinates":[
139.723519,
35.7039
]
}
},
{
"type":"Feature",
"properties":{
"Name":"大久保ことぶき館",
"Jusho":"東京都新宿区大久保1-14-1",
"Capacity":"－",
"la":"35.69988100000",
"ln":"139.70689600000"
},
"geometry":{
"type":"Point",
"coordinates":[
139.706896,
35.699881
]
}
},
{
"type":"Feature",
"properties":{
"Name":"大久保幼稚園",
"Jusho":"東京都新宿区大久保1-1-121",
"Capacity":"－",
"la":"35.69962300000",
"ln":"139.70571500000"
},
"geometry":{
"type":"Point",
"coordinates":[
139.705715,
35.699623
]
}
},
{
"type":"Feature",
"properties":{
"Name":"中井児童館",
"Jusho":"東京都新宿区中井1-18-12",
"Capacity":"－",
"la":"35.71462000000",
"ln":"139.68413300000"
},
"geometry":{
"type":"Point",
"coordinates":[
139.684133,
35.71462
]
}
},
{
"type":"Feature",
"properties":{
"Name":"中町児童館・ことぶき館",
"Jusho":"東京都新宿区中町25",
"Capacity":"－",
"la":"35.69896000000",
"ln":"139.73470600000"
},
"geometry":{
"type":"Point",
"coordinates":[
139.734706,
35.69896
]
}
},
{
"type":"Feature",
"properties":{
"Name":"中落合ことぶき館",
"Jusho":"東京都新宿区中落合2-17-124",
"Capacity":"－",
"la":"35.71795600000",
"ln":"139.69398000000"
},
"geometry":{
"type":"Point",
"coordinates":[
139.69398,
35.717956
]
}
},
{
"type":"Feature",
"properties":{
"Name":"中落合子ども家庭支援センター",
"Jusho":"東京都新宿区中落合2-17-124",
"Capacity":"－",
"la":"35.71779400000",
"ln":"139.69383600000"
},
"geometry":{
"type":"Point",
"coordinates":[
139.693836,
35.717794
]
}
},
{
"type":"Feature",
"properties":{
"Name":"津久戸幼稚園",
"Jusho":"東京都新宿区津久戸町2-12",
"Capacity":"－",
"la":"35.70270700000",
"ln":"139.74199000000"
},
"geometry":{
"type":"Point",
"coordinates":[
139.74199,
35.702707
]
}
},
{
"type":"Feature",
"properties":{
"Name":"鶴巻幼稚園",
"Jusho":"東京都新宿区早稲田鶴巻町140",
"Capacity":"－",
"la":"35.70828900000",
"ln":"139.72482400000"
},
"geometry":{
"type":"Point",
"coordinates":[
139.724824,
35.708289
]
}
},
{
"type":"Feature",
"properties":{
"Name":"都立戸山高等学校",
"Jusho":"東京都新宿区戸山3-19-1",
"Capacity":"－",
"la":"35.70712200000",
"ln":"139.71085300000"
},
"geometry":{
"type":"Point",
"coordinates":[
139.710853,
35.707122
]
}
},
{
"type":"Feature",
"properties":{
"Name":"都立新宿高等学校",
"Jusho":"東京都新宿区内藤町8",
"Capacity":"－",
"la":"35.68847800000",
"ln":"139.70512100000"
},
"geometry":{
"type":"Point",
"coordinates":[
139.705121,
35.688478
]
}
},
{
"type":"Feature",
"properties":{
"Name":"都立新宿山吹高等学校",
"Jusho":"東京都新宿区山吹町81",
"Capacity":"－",
"la":"35.70698400000",
"ln":"139.72835200000"
},
"geometry":{
"type":"Point",
"coordinates":[
139.728352,
35.706984
]
}
},
{
"type":"Feature",
"properties":{
"Name":"東京医科大学",
"Jusho":"東京都新宿区新宿6-1-1",
"Capacity":"－",
"la":"35.69367900000",
"ln":"139.71204800000"
},
"geometry":{
"type":"Point",
"coordinates":[
139.712048,
35.693679
]
}
},
{
"type":"Feature",
"properties":{
"Name":"東京富士大学（高田記念館）",
"Jusho":"東京都新宿区下落合1-17-17",
"Capacity":"－",
"la":"35.71533200000",
"ln":"139.70000100000"
},
"geometry":{
"type":"Point",
"coordinates":[
139.700001,
35.715332
]
}
},
{
"type":"Feature",
"properties":{
"Name":"東五軒町児童館・ことぶき館",
"Jusho":"東京都新宿区東五軒町5-124",
"Capacity":"－",
"la":"35.70656200000",
"ln":"139.74024800000"
},
"geometry":{
"type":"Point",
"coordinates":[
139.740248,
35.706562
]
}
},
{
"type":"Feature",
"properties":{
"Name":"北山伏児童館・ことぶき館",
"Jusho":"東京都新宿区北山伏町2-17",
"Capacity":"－",
"la":"35.70033500000",
"ln":"139.72990700000"
},
"geometry":{
"type":"Point",
"coordinates":[
139.729907,
35.700335
]
}
},
{
"type":"Feature",
"properties":{
"Name":"北新宿第二児童館・ことぶき館",
"Jusho":"東京都新宿区北新宿3-120-12",
"Capacity":"－",
"la":"35.70289300000",
"ln":"139.68962400000"
},
"geometry":{
"type":"Point",
"coordinates":[
139.689624,
35.702893
]
}
},
{
"type":"Feature",
"properties":{
"Name":"本塩町児童館・ことぶき館",
"Jusho":"東京都新宿区本塩町8",
"Capacity":"－",
"la":"35.68853300000",
"ln":"139.72936300000"
},
"geometry":{
"type":"Point",
"coordinates":[
139.729363,
35.688533
]
}
},
{
"type":"Feature",
"properties":{
"Name":"薬王寺児童館・ことぶき館",
"Jusho":"東京都新宿区市谷薬王寺町51",
"Capacity":"－",
"la":"35.69598600000",
"ln":"139.72467100000"
},
"geometry":{
"type":"Point",
"coordinates":[
139.724671,
35.695986
]
}
},
{
"type":"Feature",
"properties":{
"Name":"余丁町幼稚園",
"Jusho":"東京都新宿区若松町13-1",
"Capacity":"－",
"la":"35.69934500000",
"ln":"139.71610300000"
},
"geometry":{
"type":"Point",
"coordinates":[
139.716103,
35.699345
]
}
},
{
"type":"Feature",
"properties":{
"Name":"淀橋第四幼稚園",
"Jusho":"東京都新宿区北新宿3-17-1",
"Capacity":"－",
"la":"35.70392700000",
"ln":"139.69082700000"
},
"geometry":{
"type":"Point",
"coordinates":[
139.690827,
35.703927
]
}
},
{
"type":"Feature",
"properties":{
"Name":"落合第五幼稚園",
"Jusho":"東京都新宿区上落合3-1-16",
"Capacity":"－",
"la":"35.71462000000",
"ln":"139.68560500000"
},
"geometry":{
"type":"Point",
"coordinates":[
139.685605,
35.71462
]
}
},
{
"type":"Feature",
"properties":{
"Name":"落合第三幼稚園",
"Jusho":"東京都新宿区西落合1-12-120",
"Capacity":"－",
"la":"35.72081400000",
"ln":"139.68255000000"
},
"geometry":{
"type":"Point",
"coordinates":[
139.68255,
35.720814
]
}
},
{
"type":"Feature",
"properties":{
"Name":"落合第四幼稚園",
"Jusho":"東京都新宿区下落合2-19-134",
"Capacity":"－",
"la":"35.71831500000",
"ln":"139.70018700000"
},
"geometry":{
"type":"Point",
"coordinates":[
139.700187,
35.718315
]
}
},
{
"type":"Feature",
"properties":{
"Name":"お茶の水女子大学一帯",
"Jusho":"東京都文京区",
"Capacity":"49900",
"la":"35.71878799910",
"ln":"139.73262900000"
},
"geometry":{
"type":"Point",
"coordinates":[
139.732629,
35.7187879991
]
}
},
{
"type":"Feature",
"properties":{
"Name":"しおみ児童館",
"Jusho":"東京都文京区千駄木2-127-18",
"Capacity":"－",
"la":"35.72505499910",
"ln":"139.76203000000"
},
"geometry":{
"type":"Point",
"coordinates":[
139.76203,
35.7250549991
]
}
},
{
"type":"Feature",
"properties":{
"Name":"久堅児童館",
"Jusho":"東京都文京区小石川5-127-17",
"Capacity":"－",
"la":"35.71859399910",
"ln":"139.74154500000"
},
"geometry":{
"type":"Point",
"coordinates":[
139.741545,
35.7185939991
]
}
},
{
"type":"Feature",
"properties":{
"Name":"後楽園一帯",
"Jusho":"東京都文京区",
"Capacity":"177600",
"la":"35.70534000000",
"ln":"139.74940000000"
},
"geometry":{
"type":"Point",
"coordinates":[
139.7494,
35.70534
]
}
},
{
"type":"Feature",
"properties":{
"Name":"後楽幼稚園",
"Jusho":"東京都文京区後楽1-17-17",
"Capacity":"－",
"la":"35.70637300000",
"ln":"139.74690600000"
},
"geometry":{
"type":"Point",
"coordinates":[
139.746906,
35.706373
]
}
},
{
"type":"Feature",
"properties":{
"Name":"護国寺一帯",
"Jusho":"東京都文京区",
"Capacity":"13000",
"la":"35.72171800000",
"ln":"139.72569300000"
},
"geometry":{
"type":"Point",
"coordinates":[
139.725693,
35.721718
]
}
},
{
"type":"Feature",
"properties":{
"Name":"根津児童館",
"Jusho":"東京都文京区根津1-14-13",
"Capacity":"－",
"la":"35.71827600000",
"ln":"139.76347600000"
},
"geometry":{
"type":"Point",
"coordinates":[
139.763476,
35.718276
]
}
},
{
"type":"Feature",
"properties":{
"Name":"根津幼稚園",
"Jusho":"東京都文京区根津1-14-12",
"Capacity":"－",
"la":"35.71859400000",
"ln":"139.76318200000"
},
"geometry":{
"type":"Point",
"coordinates":[
139.763182,
35.718594
]
}
},
{
"type":"Feature",
"properties":{
"Name":"小石川植物園",
"Jusho":"東京都文京区白山3-17-1",
"Capacity":"29100",
"la":"35.71854700000",
"ln":"139.74646400000"
},
"geometry":{
"type":"Point",
"coordinates":[
139.746464,
35.718547
]
}
},
{
"type":"Feature",
"properties":{
"Name":"小日向台町児童館",
"Jusho":"東京都文京区小日向2-12-12",
"Capacity":"－",
"la":"35.71304191140",
"ln":"139.73486015000"
},
"geometry":{
"type":"Point",
"coordinates":[
139.73486015,
35.7130419114
]
}
},
{
"type":"Feature",
"properties":{
"Name":"小日向台町幼稚園",
"Jusho":"東京都文京区小日向2-12-12",
"Capacity":"－",
"la":"35.71295500000",
"ln":"139.73482300000"
},
"geometry":{
"type":"Point",
"coordinates":[
139.734823,
35.712955
]
}
},
{
"type":"Feature",
"properties":{
"Name":"水道児童館",
"Jusho":"東京都文京区水道1-13-126",
"Capacity":"－",
"la":"35.70934500000",
"ln":"139.74207300000"
},
"geometry":{
"type":"Point",
"coordinates":[
139.742073,
35.709345
]
}
},
{
"type":"Feature",
"properties":{
"Name":"青柳幼稚園",
"Jusho":"東京都文京区大塚5-140-18",
"Capacity":"－",
"la":"35.72151000000",
"ln":"139.72482400000"
},
"geometry":{
"type":"Point",
"coordinates":[
139.724824,
35.72151
]
}
},
{
"type":"Feature",
"properties":{
"Name":"千石児童館",
"Jusho":"東京都文京区千石1-14-16",
"Capacity":"－",
"la":"35.72478699910",
"ln":"139.74315500000"
},
"geometry":{
"type":"Point",
"coordinates":[
139.743155,
35.7247869991
]
}
},
{
"type":"Feature",
"properties":{
"Name":"千石西児童館",
"Jusho":"東京都文京区千石3-15-15",
"Capacity":"－",
"la":"35.72471599910",
"ln":"139.73829900000"
},
"geometry":{
"type":"Point",
"coordinates":[
139.738299,
35.7247159991
]
}
},
{
"type":"Feature",
"properties":{
"Name":"千駄木幼稚園",
"Jusho":"東京都文京区千駄木5-143-13",
"Capacity":"－",
"la":"35.72864900000",
"ln":"139.75798800000"
},
"geometry":{
"type":"Point",
"coordinates":[
139.757988,
35.728649
]
}
},
{
"type":"Feature",
"properties":{
"Name":"大塚児童館",
"Jusho":"東京都文京区大塚6-122-19",
"Capacity":"－",
"la":"35.72463641510",
"ln":"139.72563783500"
},
"geometry":{
"type":"Point",
"coordinates":[
139.725637835,
35.7246364151
]
}
},
{
"type":"Feature",
"properties":{
"Name":"第一幼稚園",
"Jusho":"東京都文京区西片2-17-16",
"Capacity":"－",
"la":"35.71745500000",
"ln":"139.75501600000"
},
"geometry":{
"type":"Point",
"coordinates":[
139.755016,
35.717455
]
}
},
{
"type":"Feature",
"properties":{
"Name":"東京大学",
"Jusho":"東京都文京区本郷7-13-1",
"Capacity":"123900",
"la":"35.71252200000",
"ln":"139.76312300000"
},
"geometry":{
"type":"Point",
"coordinates":[
139.763123,
35.712522
]
}
},
{
"type":"Feature",
"properties":{
"Name":"湯島児童館",
"Jusho":"東京都文京区本郷3-10-18",
"Capacity":"－",
"la":"35.70381782390",
"ln":"139.76380971000"
},
"geometry":{
"type":"Point",
"coordinates":[
139.76380971,
35.7038178239
]
}
},
{
"type":"Feature",
"properties":{
"Name":"湯島幼稚園",
"Jusho":"東京都文京区本郷3-10-18",
"Capacity":"－",
"la":"35.70395699910",
"ln":"139.76359900000"
},
"geometry":{
"type":"Point",
"coordinates":[
139.763599,
35.7039569991
]
}
},
{
"type":"Feature",
"properties":{
"Name":"白山東児童館",
"Jusho":"東京都文京区白山1-129-10",
"Capacity":"－",
"la":"35.71912199910",
"ln":"139.75309900000"
},
"geometry":{
"type":"Point",
"coordinates":[
139.753099,
35.7191219991
]
}
},
{
"type":"Feature",
"properties":{
"Name":"本郷児童館",
"Jusho":"東京都文京区本郷5-130-18",
"Capacity":"－",
"la":"35.71165000000",
"ln":"139.75826600000"
},
"geometry":{
"type":"Point",
"coordinates":[
139.758266,
35.71165
]
}
},
{
"type":"Feature",
"properties":{
"Name":"本駒込児童館",
"Jusho":"東京都文京区本駒込5-163-12",
"Capacity":"－",
"la":"35.73384000000",
"ln":"139.75231700000"
},
"geometry":{
"type":"Point",
"coordinates":[
139.752317,
35.73384
]
}
},
{
"type":"Feature",
"properties":{
"Name":"本駒込南児童館",
"Jusho":"東京都文京区本駒込3-11-14",
"Capacity":"－",
"la":"35.72773200000",
"ln":"139.75518200000"
},
"geometry":{
"type":"Point",
"coordinates":[
139.755182,
35.727732
]
}
},
{
"type":"Feature",
"properties":{
"Name":"本駒込幼稚園",
"Jusho":"東京都文京区本駒込4-135-15",
"Capacity":"－",
"la":"35.73331500000",
"ln":"139.75543200000"
},
"geometry":{
"type":"Point",
"coordinates":[
139.755432,
35.733315
]
}
},
{
"type":"Feature",
"properties":{
"Name":"明化幼稚園",
"Jusho":"東京都文京区千石1-13-19",
"Capacity":"－",
"la":"35.72498200000",
"ln":"139.74485000000"
},
"geometry":{
"type":"Point",
"coordinates":[
139.74485,
35.724982
]
}
},
{
"type":"Feature",
"properties":{
"Name":"目白台児童館",
"Jusho":"東京都文京区目白台1-15-1",
"Capacity":"－",
"la":"35.71352500000",
"ln":"139.72085500000"
},
"geometry":{
"type":"Point",
"coordinates":[
139.720855,
35.713525
]
}
},
{
"type":"Feature",
"properties":{
"Name":"目白台第二児童館",
"Jusho":"東京都文京区目白台3-18-17",
"Capacity":"－",
"la":"35.71714900000",
"ln":"139.72346300000"
},
"geometry":{
"type":"Point",
"coordinates":[
139.723463,
35.717149
]
}
},
{
"type":"Feature",
"properties":{
"Name":"柳町児童館",
"Jusho":"東京都文京区小石川1-123-19",
"Capacity":"－",
"la":"35.71392198250",
"ln":"139.75032097600"
},
"geometry":{
"type":"Point",
"coordinates":[
139.750320976,
35.7139219825
]
}
},
{
"type":"Feature",
"properties":{
"Name":"柳町幼稚園",
"Jusho":"東京都文京区小石川1-123-16",
"Capacity":"－",
"la":"35.71370600000",
"ln":"139.75043300000"
},
"geometry":{
"type":"Point",
"coordinates":[
139.750433,
35.713706
]
}
},
{
"type":"Feature",
"properties":{
"Name":"六義園",
"Jusho":"東京都文京区",
"Capacity":"31900",
"la":"35.73226460000",
"ln":"139.74625928000"
},
"geometry":{
"type":"Point",
"coordinates":[
139.74625928,
35.7322646
]
}
},
{
"type":"Feature",
"properties":{
"Name":"（仮称）清川２丁目福祉施設",
"Jusho":"東京都台東区清川2-14",
"Capacity":"－",
"la":"35.72720752530",
"ln":"139.80117478500"
},
"geometry":{
"type":"Point",
"coordinates":[
139.801174785,
35.7272075253
]
}
},
{
"type":"Feature",
"properties":{
"Name":"産業研修センター",
"Jusho":"東京都台東区橋場1-136-12",
"Capacity":"－",
"la":"35.72407900000",
"ln":"139.80825700000"
},
"geometry":{
"type":"Point",
"coordinates":[
139.808257,
35.724079
]
}
},
{
"type":"Feature",
"properties":{
"Name":"上野高等学校",
"Jusho":"東京都台東区上野公園10-14",
"Capacity":"－",
"la":"35.71865000000",
"ln":"139.76990400000"
},
"geometry":{
"type":"Point",
"coordinates":[
139.769904,
35.71865
]
}
},
{
"type":"Feature",
"properties":{
"Name":"生涯学習センター",
"Jusho":"東京都台東区西浅草3-125-16",
"Capacity":"－",
"la":"35.71752600000",
"ln":"139.78958600000"
},
"geometry":{
"type":"Point",
"coordinates":[
139.789586,
35.717526
]
}
},
{
"type":"Feature",
"properties":{
"Name":"蔵前工業高等学校",
"Jusho":"東京都台東区蔵前1-13-157",
"Capacity":"－",
"la":"35.70037500000",
"ln":"139.79179300000"
},
"geometry":{
"type":"Point",
"coordinates":[
139.791793,
35.700375
]
}
},
{
"type":"Feature",
"properties":{
"Name":"台東一丁目区民館",
"Jusho":"東京都台東区台東1-125-15",
"Capacity":"－",
"la":"35.70177200000",
"ln":"139.77790000000"
},
"geometry":{
"type":"Point",
"coordinates":[
139.7779,
35.701772
]
}
},
{
"type":"Feature",
"properties":{
"Name":"台東商業高等学校",
"Jusho":"東京都台東区今戸1-18-13",
"Capacity":"－",
"la":"35.71959600000",
"ln":"139.80248500000"
},
"geometry":{
"type":"Point",
"coordinates":[
139.802485,
35.719596
]
}
},
{
"type":"Feature",
"properties":{
"Name":"谷中墓地",
"Jusho":"東京都台東区",
"Capacity":"32100",
"la":"35.72397081000",
"ln":"139.77168143300"
},
"geometry":{
"type":"Point",
"coordinates":[
139.771681433,
35.72397081
]
}
},
{
"type":"Feature",
"properties":{
"Name":"東上野区民館",
"Jusho":"東京都台東区東上野3-124-16",
"Capacity":"－",
"la":"35.71129300000",
"ln":"139.77961200000"
},
"geometry":{
"type":"Point",
"coordinates":[
139.779612,
35.711293
]
}
},
{
"type":"Feature",
"properties":{
"Name":"忍岡高等学校",
"Jusho":"東京都台東区浅草橋5-1-124",
"Capacity":"－",
"la":"35.70063900000",
"ln":"139.78251000000"
},
"geometry":{
"type":"Point",
"coordinates":[
139.78251,
35.700639
]
}
},
{
"type":"Feature",
"properties":{
"Name":"白鴎高等学校",
"Jusho":"東京都台東区元浅草1-16-122",
"Capacity":"－",
"la":"35.70817900000",
"ln":"139.78304200000"
},
"geometry":{
"type":"Point",
"coordinates":[
139.783042,
35.708179
]
}
},
{
"type":"Feature",
"properties":{
"Name":"老人福祉センター",
"Jusho":"東京都台東区東上野2-125-14",
"Capacity":"－",
"la":"35.70945499910",
"ln":"139.78157100000"
},
"geometry":{
"type":"Point",
"coordinates":[
139.781571,
35.7094549991
]
}
},
{
"type":"Feature",
"properties":{
"Name":"荒川・四ツ木橋緑地",
"Jusho":"東京都墨田区",
"Capacity":"37600",
"la":"35.72922697510",
"ln":"139.82918353500"
},
"geometry":{
"type":"Point",
"coordinates":[
139.829183535,
35.7292269751
]
}
},
{
"type":"Feature",
"properties":{
"Name":"都営文花一丁目住宅一帯",
"Jusho":"東京都墨田区",
"Capacity":"27900",
"la":"35.70816160350",
"ln":"139.82146097900"
},
"geometry":{
"type":"Point",
"coordinates":[
139.821460979,
35.7081616035
]
}
},
{
"type":"Feature",
"properties":{
"Name":"白鬚東地区",
"Jusho":"東京都墨田区",
"Capacity":"38600",
"la":"35.72480673520",
"ln":"139.81099409800"
},
"geometry":{
"type":"Point",
"coordinates":[
139.810994098,
35.7248067352
]
}
},
{
"type":"Feature",
"properties":{
"Name":"立花一丁目団地一帯",
"Jusho":"東京都墨田区",
"Capacity":"14400",
"la":"35.70520100000",
"ln":"139.83003600000"
},
"geometry":{
"type":"Point",
"coordinates":[
139.830036,
35.705201
]
}
},
{
"type":"Feature",
"properties":{
"Name":"両国地区",
"Jusho":"東京都墨田区",
"Capacity":"65200",
"la":"35.69832386860",
"ln":"139.79518661600"
},
"geometry":{
"type":"Point",
"coordinates":[
139.795186616,
35.6983238686
]
}
},
{
"type":"Feature",
"properties":{
"Name":"アンフェリシオン",
"Jusho":"東京都江東区亀戸1-143-122",
"Capacity":"300",
"la":"35.69679000000",
"ln":"139.82239000000"
},
"geometry":{
"type":"Point",
"coordinates":[
139.82239,
35.69679
]
}
},
{
"type":"Feature",
"properties":{
"Name":"スポーツ会館",
"Jusho":"東京都江東区北砂1-12-19",
"Capacity":"2020",
"la":"35.68447400000",
"ln":"139.82138200000"
},
"geometry":{
"type":"Point",
"coordinates":[
139.821382,
35.684474
]
}
},
{
"type":"Feature",
"properties":{
"Name":"ちどり幼稚園",
"Jusho":"東京都江東区古石場1-11-11",
"Capacity":"140",
"la":"35.66918400000",
"ln":"139.79484800000"
},
"geometry":{
"type":"Point",
"coordinates":[
139.794848,
35.669184
]
}
},
{
"type":"Feature",
"properties":{
"Name":"つばめ幼稚園",
"Jusho":"東京都江東区扇橋3-120-13-101",
"Capacity":"140",
"la":"35.68432100000",
"ln":"139.81895700000"
},
"geometry":{
"type":"Point",
"coordinates":[
139.818957,
35.684321
]
}
},
{
"type":"Feature",
"properties":{
"Name":"なでしこ幼稚園",
"Jusho":"東京都江東区北砂5-120-17-102",
"Capacity":"340",
"la":"35.68348900000",
"ln":"139.83406600000"
},
"geometry":{
"type":"Point",
"coordinates":[
139.834066,
35.683489
]
}
},
{
"type":"Feature",
"properties":{
"Name":"ひばり幼稚園",
"Jusho":"東京都江東区東雲2-14-1-103",
"Capacity":"260",
"la":"35.64218700000",
"ln":"139.79779300000"
},
"geometry":{
"type":"Point",
"coordinates":[
139.797793,
35.642187
]
}
},
{
"type":"Feature",
"properties":{
"Name":"ホテルイースト２１東京",
"Jusho":"東京都江東区東陽6-13-12",
"Capacity":"1090",
"la":"35.67446771170",
"ln":"139.81463009500"
},
"geometry":{
"type":"Point",
"coordinates":[
139.814630095,
35.6744677117
]
}
},
{
"type":"Feature",
"properties":{
"Name":"みどり幼稚園",
"Jusho":"東京都江東区南砂2-13-13-101",
"Capacity":"320",
"la":"35.67321151060",
"ln":"139.82295600000"
},
"geometry":{
"type":"Point",
"coordinates":[
139.822956,
35.6732115106
]
}
},
{
"type":"Feature",
"properties":{
"Name":"もみじ幼稚園",
"Jusho":"東京都江東区大島8-121-19-101",
"Capacity":"220",
"la":"35.68893200000",
"ln":"139.83989900000"
},
"geometry":{
"type":"Point",
"coordinates":[
139.839899,
35.688932
]
}
},
{
"type":"Feature",
"properties":{
"Name":"わかば保育園",
"Jusho":"東京都江東区大島9-17-18-101",
"Capacity":"260",
"la":"35.69398700000",
"ln":"139.84423100000"
},
"geometry":{
"type":"Point",
"coordinates":[
139.844231,
35.693987
]
}
},
{
"type":"Feature",
"properties":{
"Name":"猿江保育園",
"Jusho":"東京都江東区猿江1-18-10",
"Capacity":"90",
"la":"35.68540500000",
"ln":"139.81351300000"
},
"geometry":{
"type":"Point",
"coordinates":[
139.813513,
35.685405
]
}
},
{
"type":"Feature",
"properties":{
"Name":"塩崎保育園",
"Jusho":"東京都江東区塩浜2-16-13",
"Capacity":"240",
"la":"35.66093500000",
"ln":"139.80862400000"
},
"geometry":{
"type":"Point",
"coordinates":[
139.808624,
35.660935
]
}
},
{
"type":"Feature",
"properties":{
"Name":"塩浜保育園",
"Jusho":"東京都江東区塩浜1-13-10",
"Capacity":"160",
"la":"35.66349000000",
"ln":"139.80079200000"
},
"geometry":{
"type":"Point",
"coordinates":[
139.800792,
35.66349
]
}
},
{
"type":"Feature",
"properties":{
"Name":"科学技術高等学校",
"Jusho":"東京都江東区大島1-12-131",
"Capacity":"890",
"la":"35.68712700000",
"ln":"139.82251200000"
},
"geometry":{
"type":"Point",
"coordinates":[
139.822512,
35.687127
]
}
},
{
"type":"Feature",
"properties":{
"Name":"介護老人保健施設キーストーン",
"Jusho":"東京都江東区亀戸3-136-1",
"Capacity":"200",
"la":"35.70727500000",
"ln":"139.81932900000"
},
"geometry":{
"type":"Point",
"coordinates":[
139.819329,
35.707275
]
}
},
{
"type":"Feature",
"properties":{
"Name":"亀戸スポーツセンター",
"Jusho":"東京都江東区亀戸8-122-1",
"Capacity":"790",
"la":"35.70031700000",
"ln":"139.83663800000"
},
"geometry":{
"type":"Point",
"coordinates":[
139.836638,
35.700317
]
}
},
{
"type":"Feature",
"properties":{
"Name":"亀戸児童館",
"Jusho":"東京都江東区亀戸2-1-19",
"Capacity":"190",
"la":"35.69778941880",
"ln":"139.82166805200"
},
"geometry":{
"type":"Point",
"coordinates":[
139.821668052,
35.6977894188
]
}
},
{
"type":"Feature",
"properties":{
"Name":"亀戸図書館亀戸第三児童館",
"Jusho":"東京都江東区亀戸7-139-19",
"Capacity":"500",
"la":"35.69694900000",
"ln":"139.83933100000"
},
"geometry":{
"type":"Point",
"coordinates":[
139.839331,
35.696949
]
}
},
{
"type":"Feature",
"properties":{
"Name":"亀戸第三保育園",
"Jusho":"東京都江東区亀戸1-124-16",
"Capacity":"260",
"la":"35.69468100000",
"ln":"139.82415000000"
},
"geometry":{
"type":"Point",
"coordinates":[
139.82415,
35.694681
]
}
},
{
"type":"Feature",
"properties":{
"Name":"亀戸第四保育園",
"Jusho":"東京都江東区亀戸4-121-13",
"Capacity":"330",
"la":"35.70259700000",
"ln":"139.82662200000"
},
"geometry":{
"type":"Point",
"coordinates":[
139.826622,
35.702597
]
}
},
{
"type":"Feature",
"properties":{
"Name":"亀戸第二保育園",
"Jusho":"東京都江東区亀戸7-157-18-107",
"Capacity":"140",
"la":"35.69629300000",
"ln":"139.83670400000"
},
"geometry":{
"type":"Point",
"coordinates":[
139.836704,
35.696293
]
}
},
{
"type":"Feature",
"properties":{
"Name":"亀戸福祉会館亀戸第二児童館",
"Jusho":"東京都江東区亀戸1-124-16",
"Capacity":"290",
"la":"35.69454800000",
"ln":"139.82420900000"
},
"geometry":{
"type":"Point",
"coordinates":[
139.824209,
35.694548
]
}
},
{
"type":"Feature",
"properties":{
"Name":"亀戸文化センター",
"Jusho":"東京都江東区亀戸2-19-1",
"Capacity":"840",
"la":"35.69764500000",
"ln":"139.82452000000"
},
"geometry":{
"type":"Point",
"coordinates":[
139.82452,
35.697645
]
}
},
{
"type":"Feature",
"properties":{
"Name":"亀戸保育園",
"Jusho":"東京都江東区亀戸6-154-12-101",
"Capacity":"90",
"la":"35.69648700000",
"ln":"139.83245400000"
},
"geometry":{
"type":"Point",
"coordinates":[
139.832454,
35.696487
]
}
},
{
"type":"Feature",
"properties":{
"Name":"亀戸老人福祉センター",
"Jusho":"東京都江東区亀戸9-133-12-101",
"Capacity":"220",
"la":"35.69898700000",
"ln":"139.84214800000"
},
"geometry":{
"type":"Point",
"coordinates":[
139.842148,
35.698987
]
}
},
{
"type":"Feature",
"properties":{
"Name":"亀高第二保育園",
"Jusho":"東京都江東区北砂5-120-10-101",
"Capacity":"270",
"la":"35.68534900000",
"ln":"139.83406600000"
},
"geometry":{
"type":"Point",
"coordinates":[
139.834066,
35.685349
]
}
},
{
"type":"Feature",
"properties":{
"Name":"亀高保育園",
"Jusho":"東京都江東区北砂5-120-19-101",
"Capacity":"280",
"la":"35.68476600000",
"ln":"139.83298300000"
},
"geometry":{
"type":"Point",
"coordinates":[
139.832983,
35.684766
]
}
},
{
"type":"Feature",
"properties":{
"Name":"教育センター東陽図書館",
"Jusho":"東京都江東区東陽2-13-16",
"Capacity":"840",
"la":"35.66719300000",
"ln":"139.81713300000"
},
"geometry":{
"type":"Point",
"coordinates":[
139.817133,
35.667193
]
}
},
{
"type":"Feature",
"properties":{
"Name":"元加賀幼稚園",
"Jusho":"東京都江東区白河4-19-17",
"Capacity":"210",
"la":"35.68273800000",
"ln":"139.80759800000"
},
"geometry":{
"type":"Point",
"coordinates":[
139.807598,
35.682738
]
}
},
{
"type":"Feature",
"properties":{
"Name":"古石場福祉会館古石場児童館",
"Jusho":"東京都江東区古石場1-11-1",
"Capacity":"220",
"la":"35.66894490010",
"ln":"139.79526250500"
},
"geometry":{
"type":"Point",
"coordinates":[
139.795262505,
35.6689449001
]
}
},
{
"type":"Feature",
"properties":{
"Name":"古石場文化センター",
"Jusho":"東京都江東区古石場2-13-12",
"Capacity":"620",
"la":"35.66692600000",
"ln":"139.79914200000"
},
"geometry":{
"type":"Point",
"coordinates":[
139.799142,
35.666926
]
}
},
{
"type":"Feature",
"properties":{
"Name":"古石場保育園",
"Jusho":"東京都江東区古石場2-14-1-102",
"Capacity":"320",
"la":"35.66700309050",
"ln":"139.79980762600"
},
"geometry":{
"type":"Point",
"coordinates":[
139.799807626,
35.6670030905
]
}
},
{
"type":"Feature",
"properties":{
"Name":"江東区文化センター",
"Jusho":"東京都江東区東陽4-11-13",
"Capacity":"1810",
"la":"35.67247300000",
"ln":"139.81833700000"
},
"geometry":{
"type":"Point",
"coordinates":[
139.818337,
35.672473
]
}
},
{
"type":"Feature",
"properties":{
"Name":"江東公会堂（ティアラこうとう）",
"Jusho":"東京都江東区住吉2-128-136",
"Capacity":"670",
"la":"35.68849600000",
"ln":"139.81950100000"
},
"geometry":{
"type":"Point",
"coordinates":[
139.819501,
35.688496
]
}
},
{
"type":"Feature",
"properties":{
"Name":"江東商業高等学校",
"Jusho":"東京都江東区亀戸4-150-1",
"Capacity":"410",
"la":"35.70262500000",
"ln":"139.83139900000"
},
"geometry":{
"type":"Point",
"coordinates":[
139.831399,
35.702625
]
}
},
{
"type":"Feature",
"properties":{
"Name":"江東図書館",
"Jusho":"東京都江東区南砂6-17-152",
"Capacity":"50",
"la":"35.67179500000",
"ln":"139.83405300000"
},
"geometry":{
"type":"Point",
"coordinates":[
139.834053,
35.671795
]
}
},
{
"type":"Feature",
"properties":{
"Name":"砂町文化センター、砂町図書館",
"Jusho":"東京都江東区北砂5-1-17",
"Capacity":"1310",
"la":"35.68044700000",
"ln":"139.83203100000"
},
"geometry":{
"type":"Point",
"coordinates":[
139.832031,
35.680447
]
}
},
{
"type":"Feature",
"properties":{
"Name":"枝川区民館",
"Jusho":"東京都江東区枝川3-16-16",
"Capacity":"270",
"la":"35.65848800000",
"ln":"139.81030300000"
},
"geometry":{
"type":"Point",
"coordinates":[
139.810303,
35.658488
]
}
},
{
"type":"Feature",
"properties":{
"Name":"枝川幼稚園",
"Jusho":"東京都江東区枝川3-14-1-101",
"Capacity":"170",
"la":"35.65946300000",
"ln":"139.80862400000"
},
"geometry":{
"type":"Point",
"coordinates":[
139.808624,
35.659463
]
}
},
{
"type":"Feature",
"properties":{
"Name":"児童会館",
"Jusho":"東京都江東区住吉1-19-18",
"Capacity":"520",
"la":"35.68757100000",
"ln":"139.81234700000"
},
"geometry":{
"type":"Point",
"coordinates":[
139.812347,
35.687571
]
}
},
{
"type":"Feature",
"properties":{
"Name":"芝浦工業大学（豊洲キャンパス）",
"Jusho":"東京都江東区豊洲3-17-15",
"Capacity":"760",
"la":"35.66093000000",
"ln":"139.79543500000"
},
"geometry":{
"type":"Point",
"coordinates":[
139.795435,
35.66093
]
}
},
{
"type":"Feature",
"properties":{
"Name":"小名木川児童館",
"Jusho":"東京都江東区北砂5-120-15-101",
"Capacity":"240",
"la":"35.68204400000",
"ln":"139.83376100000"
},
"geometry":{
"type":"Point",
"coordinates":[
139.833761,
35.682044
]
}
},
{
"type":"Feature",
"properties":{
"Name":"小名木川第二保育園",
"Jusho":"東京都江東区北砂5-120-13-101",
"Capacity":"260",
"la":"35.68218300000",
"ln":"139.83201100000"
},
"geometry":{
"type":"Point",
"coordinates":[
139.832011,
35.682183
]
}
},
{
"type":"Feature",
"properties":{
"Name":"小名木川保育園",
"Jusho":"東京都江東区北砂5-121-15",
"Capacity":"240",
"la":"35.68318300000",
"ln":"139.83076100000"
},
"geometry":{
"type":"Point",
"coordinates":[
139.830761,
35.683183
]
}
},
{
"type":"Feature",
"properties":{
"Name":"城東高等学校",
"Jusho":"東京都江東区大島3-122-1",
"Capacity":"780",
"la":"35.69287600000",
"ln":"139.82937200000"
},
"geometry":{
"type":"Point",
"coordinates":[
139.829372,
35.692876
]
}
},
{
"type":"Feature",
"properties":{
"Name":"城東保育園",
"Jusho":"東京都江東区南砂7-19-11",
"Capacity":"130",
"la":"35.67039550730",
"ln":"139.83243147100"
},
"geometry":{
"type":"Point",
"coordinates":[
139.832431471,
35.6703955073
]
}
},
{
"type":"Feature",
"properties":{
"Name":"城東老人福祉センター",
"Jusho":"東京都江東区北砂4-120-12",
"Capacity":"250",
"la":"35.67742627650",
"ln":"139.83182075400"
},
"geometry":{
"type":"Point",
"coordinates":[
139.831820754,
35.6774262765
]
}
},
{
"type":"Feature",
"properties":{
"Name":"森下児童館",
"Jusho":"東京都江東区森下3-14-16",
"Capacity":"120",
"la":"35.68596820050",
"ln":"139.80296564600"
},
"geometry":{
"type":"Point",
"coordinates":[
139.802965646,
35.6859682005
]
}
},
{
"type":"Feature",
"properties":{
"Name":"森下文化センター",
"Jusho":"東京都江東区森下3-12-17",
"Capacity":"1030",
"la":"35.68515100000",
"ln":"139.80214500000"
},
"geometry":{
"type":"Point",
"coordinates":[
139.802145,
35.685151
]
}
},
{
"type":"Feature",
"properties":{
"Name":"森下保育園",
"Jusho":"東京都江東区森下3-14-16",
"Capacity":"190",
"la":"35.68593200000",
"ln":"139.80296000000"
},
"geometry":{
"type":"Point",
"coordinates":[
139.80296,
35.685932
]
}
},
{
"type":"Feature",
"properties":{
"Name":"深川スポーツセンター",
"Jusho":"東京都江東区越中島1-12-18",
"Capacity":"1420",
"la":"35.67045900000",
"ln":"139.79171000000"
},
"geometry":{
"type":"Point",
"coordinates":[
139.79171,
35.670459
]
}
},
{
"type":"Feature",
"properties":{
"Name":"深川一丁目保育園",
"Jusho":"東京都江東区深川1-16-15-101",
"Capacity":"180",
"la":"35.67726600000",
"ln":"139.79637600000"
},
"geometry":{
"type":"Point",
"coordinates":[
139.796376,
35.677266
]
}
},
{
"type":"Feature",
"properties":{
"Name":"深川高等学校",
"Jusho":"東京都江東区東陽5-132-19",
"Capacity":"710",
"la":"35.67112900000",
"ln":"139.81551300000"
},
"geometry":{
"type":"Point",
"coordinates":[
139.815513,
35.671129
]
}
},
{
"type":"Feature",
"properties":{
"Name":"深川図書館",
"Jusho":"東京都江東区清澄3-13-139",
"Capacity":"400",
"la":"35.67915400000",
"ln":"139.79672100000"
},
"geometry":{
"type":"Point",
"coordinates":[
139.796721,
35.679154
]
}
},
{
"type":"Feature",
"properties":{
"Name":"深川北スポーツセンター",
"Jusho":"東京都江東区平野3-12-120",
"Capacity":"680",
"la":"35.67688900000",
"ln":"139.80494200000"
},
"geometry":{
"type":"Point",
"coordinates":[
139.804942,
35.676889
]
}
},
{
"type":"Feature",
"properties":{
"Name":"深川北子ども家庭支援センター",
"Jusho":"東京都江東区高橋14-16",
"Capacity":"190",
"la":"35.68592739010",
"ln":"139.79913140600"
},
"geometry":{
"type":"Point",
"coordinates":[
139.799131406,
35.6859273901
]
}
},
{
"type":"Feature",
"properties":{
"Name":"深川老人福祉センター平野児童館",
"Jusho":"東京都江東区平野1-12-13",
"Capacity":"590",
"la":"35.67843300000",
"ln":"139.79865400000"
},
"geometry":{
"type":"Point",
"coordinates":[
139.798654,
35.678433
]
}
},
{
"type":"Feature",
"properties":{
"Name":"青少年センター",
"Jusho":"東京都江東区亀戸7-141-16",
"Capacity":"730",
"la":"35.69682300000",
"ln":"139.83739400000"
},
"geometry":{
"type":"Point",
"coordinates":[
139.837394,
35.696823
]
}
},
{
"type":"Feature",
"properties":{
"Name":"千田福祉会館千田児童館",
"Jusho":"東京都江東区千田21-18",
"Capacity":"500",
"la":"35.68102500000",
"ln":"139.81648800000"
},
"geometry":{
"type":"Point",
"coordinates":[
139.816488,
35.681025
]
}
},
{
"type":"Feature",
"properties":{
"Name":"総合区民センター、大島福祉会館、城東図書館、大島第二児童館",
"Jusho":"東京都江東区大島4-15-1",
"Capacity":"1330",
"la":"35.68907599910",
"ln":"139.82683800000"
},
"geometry":{
"type":"Point",
"coordinates":[
139.826838,
35.6890759991
]
}
},
{
"type":"Feature",
"properties":{
"Name":"大江戸高等学校",
"Jusho":"東京都江東区千石3-12-11",
"Capacity":"870",
"la":"35.67932400000",
"ln":"139.81805200000"
},
"geometry":{
"type":"Point",
"coordinates":[
139.818052,
35.679324
]
}
},
{
"type":"Feature",
"properties":{
"Name":"大島子ども家庭支援センター",
"Jusho":"東京都江東区大島4-1-137",
"Capacity":"150",
"la":"35.68739360920",
"ln":"139.82810040600"
},
"geometry":{
"type":"Point",
"coordinates":[
139.828100406,
35.6873936092
]
}
},
{
"type":"Feature",
"properties":{
"Name":"大島児童館",
"Jusho":"東京都江東区大島7-128-1-104",
"Capacity":"190",
"la":"35.69365399910",
"ln":"139.84009300000"
},
"geometry":{
"type":"Point",
"coordinates":[
139.840093,
35.6936539991
]
}
},
{
"type":"Feature",
"properties":{
"Name":"大島第五保育園",
"Jusho":"東京都江東区大島4-121-13-101",
"Capacity":"270",
"la":"35.68621000000",
"ln":"139.83201100000"
},
"geometry":{
"type":"Point",
"coordinates":[
139.832011,
35.68621
]
}
},
{
"type":"Feature",
"properties":{
"Name":"大島第三保育園",
"Jusho":"東京都江東区大島6-1-16-130",
"Capacity":"240",
"la":"35.69276500000",
"ln":"139.83317700000"
},
"geometry":{
"type":"Point",
"coordinates":[
139.833177,
35.692765
]
}
},
{
"type":"Feature",
"properties":{
"Name":"大島第四保育園",
"Jusho":"東京都江東区大島8-12-120-101",
"Capacity":"190",
"la":"35.68726600000",
"ln":"139.83895400000"
},
"geometry":{
"type":"Point",
"coordinates":[
139.838954,
35.687266
]
}
},
{
"type":"Feature",
"properties":{
"Name":"大島第二保育園",
"Jusho":"東京都江東区大島4-1-16-130",
"Capacity":"160",
"la":"35.68707100000",
"ln":"139.83023300000"
},
"geometry":{
"type":"Point",
"coordinates":[
139.830233,
35.687071
]
}
},
{
"type":"Feature",
"properties":{
"Name":"大島保育園",
"Jusho":"東京都江東区大島5-153-1-101",
"Capacity":"220",
"la":"35.68643300000",
"ln":"139.83834300000"
},
"geometry":{
"type":"Point",
"coordinates":[
139.838343,
35.686433
]
}
},
{
"type":"Feature",
"properties":{
"Name":"大島幼稚園",
"Jusho":"東京都江東区大島5-138-1",
"Capacity":"290",
"la":"35.68718300000",
"ln":"139.83592700000"
},
"geometry":{
"type":"Point",
"coordinates":[
139.835927,
35.687183
]
}
},
{
"type":"Feature",
"properties":{
"Name":"第五砂町幼稚園",
"Jusho":"東京都江東区東砂7-15-127",
"Capacity":"290",
"la":"35.67143500000",
"ln":"139.83870500000"
},
"geometry":{
"type":"Point",
"coordinates":[
139.838705,
35.671435
]
}
},
{
"type":"Feature",
"properties":{
"Name":"第三商業高等学校",
"Jusho":"東京都江東区越中島3-13-1",
"Capacity":"730",
"la":"35.66287900000",
"ln":"139.79570900000"
},
"geometry":{
"type":"Point",
"coordinates":[
139.795709,
35.662879
]
}
},
{
"type":"Feature",
"properties":{
"Name":"第三大島幼稚園",
"Jusho":"東京都江東区大島7-139-12-101",
"Capacity":"290",
"la":"35.69137700000",
"ln":"139.84375900000"
},
"geometry":{
"type":"Point",
"coordinates":[
139.843759,
35.691377
]
}
},
{
"type":"Feature",
"properties":{
"Name":"辰巳児童館",
"Jusho":"東京都江東区辰巳1-1-136",
"Capacity":"280",
"la":"35.64757873300",
"ln":"139.80893913100"
},
"geometry":{
"type":"Point",
"coordinates":[
139.808939131,
35.647578733
]
}
},
{
"type":"Feature",
"properties":{
"Name":"辰巳第三保育園",
"Jusho":"東京都江東区辰巳1-10-181-101",
"Capacity":"210",
"la":"35.64818700000",
"ln":"139.81137400000"
},
"geometry":{
"type":"Point",
"coordinates":[
139.811374,
35.648187
]
}
},
{
"type":"Feature",
"properties":{
"Name":"辰巳第二保育園",
"Jusho":"東京都江東区辰巳1-10-165-101",
"Capacity":"150",
"la":"35.64896400000",
"ln":"139.81070800000"
},
"geometry":{
"type":"Point",
"coordinates":[
139.810708,
35.648964
]
}
},
{
"type":"Feature",
"properties":{
"Name":"男女共同参画推進センター",
"Jusho":"東京都江東区扇橋3-122-12",
"Capacity":"540",
"la":"35.68412999910",
"ln":"139.82016200000"
},
"geometry":{
"type":"Point",
"coordinates":[
139.820162,
35.6841299991
]
}
},
{
"type":"Feature",
"properties":{
"Name":"中央学院大学中央高等学校",
"Jusho":"東京都江東区亀戸7-165-12",
"Capacity":"790",
"la":"35.69585900000",
"ln":"139.83987500000"
},
"geometry":{
"type":"Point",
"coordinates":[
139.839875,
35.695859
]
}
},
{
"type":"Feature",
"properties":{
"Name":"中村中学高等学校",
"Jusho":"東京都江東区清澄2-13-15",
"Capacity":"490",
"la":"35.68146000000",
"ln":"139.79659900000"
},
"geometry":{
"type":"Point",
"coordinates":[
139.796599,
35.68146
]
}
},
{
"type":"Feature",
"properties":{
"Name":"潮見保育園",
"Jusho":"東京都江東区潮見1-129-15-101",
"Capacity":"250",
"la":"35.65599100000",
"ln":"139.81470700000"
},
"geometry":{
"type":"Point",
"coordinates":[
139.814707,
35.655991
]
}
},
{
"type":"Feature",
"properties":{
"Name":"東雲児童館",
"Jusho":"東京都江東区東雲2-14-14-102",
"Capacity":"220",
"la":"35.64393699910",
"ln":"139.79926500000"
},
"geometry":{
"type":"Point",
"coordinates":[
139.799265,
35.6439369991
]
}
},
{
"type":"Feature",
"properties":{
"Name":"東雲第二保育園",
"Jusho":"東京都江東区東雲2-14-14-103",
"Capacity":"190",
"la":"35.64332600000",
"ln":"139.79923700000"
},
"geometry":{
"type":"Point",
"coordinates":[
139.799237,
35.643326
]
}
},
{
"type":"Feature",
"properties":{
"Name":"東雲保育園",
"Jusho":"東京都江東区東雲1-18-15-101",
"Capacity":"150",
"la":"35.64493700000",
"ln":"139.80023700000"
},
"geometry":{
"type":"Point",
"coordinates":[
139.800237,
35.644937
]
}
},
{
"type":"Feature",
"properties":{
"Name":"東京海洋大学",
"Jusho":"東京都江東区越中島2-1-16",
"Capacity":"940",
"la":"35.66785100000",
"ln":"139.79176500000"
},
"geometry":{
"type":"Point",
"coordinates":[
139.791765,
35.667851
]
}
},
{
"type":"Feature",
"properties":{
"Name":"東高等学校",
"Jusho":"東京都江東区東砂7-19-124",
"Capacity":"880",
"la":"35.67368400000",
"ln":"139.83723300000"
},
"geometry":{
"type":"Point",
"coordinates":[
139.837233,
35.673684
]
}
},
{
"type":"Feature",
"properties":{
"Name":"東砂スポーツセンター",
"Jusho":"東京都江東区東砂4-124-1",
"Capacity":"740",
"la":"35.67918700000",
"ln":"139.83944400000"
},
"geometry":{
"type":"Point",
"coordinates":[
139.839444,
35.679187
]
}
},
{
"type":"Feature",
"properties":{
"Name":"東砂第三保育園",
"Jusho":"東京都江東区東砂1-15-13-101",
"Capacity":"210",
"la":"35.68212800000",
"ln":"139.84078800000"
},
"geometry":{
"type":"Point",
"coordinates":[
139.840788,
35.682128
]
}
},
{
"type":"Feature",
"properties":{
"Name":"東砂第四保育園",
"Jusho":"東京都江東区東砂7-17-135-101",
"Capacity":"200",
"la":"35.67407300000",
"ln":"139.83848200000"
},
"geometry":{
"type":"Point",
"coordinates":[
139.838482,
35.674073
]
}
},
{
"type":"Feature",
"properties":{
"Name":"東砂第二児童館",
"Jusho":"東京都江東区東砂2-13-13",
"Capacity":"180",
"la":"35.68596435450",
"ln":"139.84156700100"
},
"geometry":{
"type":"Point",
"coordinates":[
139.841567001,
35.6859643545
]
}
},
{
"type":"Feature",
"properties":{
"Name":"東砂第二保育園",
"Jusho":"東京都江東区東砂2-16-14-101",
"Capacity":"160",
"la":"35.68443300000",
"ln":"139.84295400000"
},
"geometry":{
"type":"Point",
"coordinates":[
139.842954,
35.684433
]
}
},
{
"type":"Feature",
"properties":{
"Name":"東砂福祉会館、東砂児童館",
"Jusho":"東京都江東区東砂7-15-13",
"Capacity":"520",
"la":"35.67462899910",
"ln":"139.83970500000"
},
"geometry":{
"type":"Point",
"coordinates":[
139.839705,
35.6746289991
]
}
},
{
"type":"Feature",
"properties":{
"Name":"東砂保育園",
"Jusho":"東京都江東区東砂2-13-12-101",
"Capacity":"150",
"la":"35.68489536520",
"ln":"139.84380508500"
},
"geometry":{
"type":"Point",
"coordinates":[
139.843805085,
35.6848953652
]
}
},
{
"type":"Feature",
"properties":{
"Name":"東砂幼稚園",
"Jusho":"東京都江東区東砂4-120-1",
"Capacity":"310",
"la":"35.67835000000",
"ln":"139.83917700000"
},
"geometry":{
"type":"Point",
"coordinates":[
139.839177,
35.67835
]
}
},
{
"type":"Feature",
"properties":{
"Name":"東大島文化センター",
"Jusho":"東京都江東区大島8-133-19",
"Capacity":"890",
"la":"35.68976300000",
"ln":"139.84238500000"
},
"geometry":{
"type":"Point",
"coordinates":[
139.842385,
35.689763
]
}
},
{
"type":"Feature",
"properties":{
"Name":"東陽区民館、東陽子ども家庭支援センター",
"Jusho":"東京都江東区東陽3-1-12",
"Capacity":"270",
"la":"35.66856000000",
"ln":"139.80856900000"
},
"geometry":{
"type":"Point",
"coordinates":[
139.808569,
35.66856
]
}
},
{
"type":"Feature",
"properties":{
"Name":"東陽児童館",
"Jusho":"東京都江東区東陽5-16-13",
"Capacity":"230",
"la":"35.67137789820",
"ln":"139.81179095800"
},
"geometry":{
"type":"Point",
"coordinates":[
139.811790958,
35.6713778982
]
}
},
{
"type":"Feature",
"properties":{
"Name":"東陽福祉会館",
"Jusho":"東京都江東区東陽6-12-17",
"Capacity":"240",
"la":"35.67471399910",
"ln":"139.81236300000"
},
"geometry":{
"type":"Point",
"coordinates":[
139.812363,
35.6747139991
]
}
},
{
"type":"Feature",
"properties":{
"Name":"東陽保育園",
"Jusho":"東京都江東区東陽3-122-1-101",
"Capacity":"290",
"la":"35.66918400000",
"ln":"139.81370700000"
},
"geometry":{
"type":"Point",
"coordinates":[
139.813707,
35.669184
]
}
},
{
"type":"Feature",
"properties":{
"Name":"特別養護老人ホームカメリア",
"Jusho":"東京都江東区亀戸3-136-15",
"Capacity":"490",
"la":"35.70707400000",
"ln":"139.81994000000"
},
"geometry":{
"type":"Point",
"coordinates":[
139.81994,
35.707074
]
}
},
{
"type":"Feature",
"properties":{
"Name":"南砂子ども家庭支援センター",
"Jusho":"東京都江東区南砂3-14-1-101",
"Capacity":"160",
"la":"35.66885102730",
"ln":"139.83169563800"
},
"geometry":{
"type":"Point",
"coordinates":[
139.831695638,
35.6688510273
]
}
},
{
"type":"Feature",
"properties":{
"Name":"南砂児童館",
"Jusho":"東京都江東区南砂2-13-17",
"Capacity":"250",
"la":"35.67115512930",
"ln":"139.82312581400"
},
"geometry":{
"type":"Point",
"coordinates":[
139.823125814,
35.6711551293
]
}
},
{
"type":"Feature",
"properties":{
"Name":"南砂第一保育園",
"Jusho":"東京都江東区南砂4-14-1-102",
"Capacity":"190",
"la":"35.67462800000",
"ln":"139.82853900000"
},
"geometry":{
"type":"Point",
"coordinates":[
139.828539,
35.674628
]
}
},
{
"type":"Feature",
"properties":{
"Name":"南砂第五保育園",
"Jusho":"東京都江東区南砂2-13-16-103",
"Capacity":"250",
"la":"35.67060100000",
"ln":"139.82356700000"
},
"geometry":{
"type":"Point",
"coordinates":[
139.823567,
35.670601
]
}
},
{
"type":"Feature",
"properties":{
"Name":"南砂第三保育園",
"Jusho":"東京都江東区南砂2-13-13-102",
"Capacity":"240",
"la":"35.67315600000",
"ln":"139.82295600000"
},
"geometry":{
"type":"Point",
"coordinates":[
139.822956,
35.673156
]
}
},
{
"type":"Feature",
"properties":{
"Name":"南砂第四保育園",
"Jusho":"東京都江東区南砂2-13-14-101",
"Capacity":"230",
"la":"35.67198999910",
"ln":"139.82292900000"
},
"geometry":{
"type":"Point",
"coordinates":[
139.822929,
35.6719899991
]
}
},
{
"type":"Feature",
"properties":{
"Name":"南砂第二保育園",
"Jusho":"東京都江東区南砂2-13-1-101",
"Capacity":"230",
"la":"35.67031035250",
"ln":"139.82197443200"
},
"geometry":{
"type":"Point",
"coordinates":[
139.821974432,
35.6703103525
]
}
},
{
"type":"Feature",
"properties":{
"Name":"白河かもめ保育園",
"Jusho":"東京都江東区白河1-15-1-101",
"Capacity":"250",
"la":"35.68325600000",
"ln":"139.79991200000"
},
"geometry":{
"type":"Point",
"coordinates":[
139.799912,
35.683256
]
}
},
{
"type":"Feature",
"properties":{
"Name":"白河保育園",
"Jusho":"東京都江東区白河1-17-1",
"Capacity":"200",
"la":"35.68315500000",
"ln":"139.79968300000"
},
"geometry":{
"type":"Point",
"coordinates":[
139.799683,
35.683155
]
}
},
{
"type":"Feature",
"properties":{
"Name":"母子生活支援施設パークサイド亀島",
"Jusho":"東京都江東区亀戸3-136-13",
"Capacity":"90",
"la":"35.70665500000",
"ln":"139.82015900000"
},
"geometry":{
"type":"Point",
"coordinates":[
139.820159,
35.706655
]
}
},
{
"type":"Feature",
"properties":{
"Name":"豊洲子ども家庭支援センター",
"Jusho":"東京都江東区豊洲5-15-1-1201",
"Capacity":"60",
"la":"35.65362999910",
"ln":"139.79607000000"
},
"geometry":{
"type":"Point",
"coordinates":[
139.79607,
35.6536299991
]
}
},
{
"type":"Feature",
"properties":{
"Name":"豊洲児童館",
"Jusho":"東京都江東区豊洲4-10-14-111",
"Capacity":"250",
"la":"35.65401480620",
"ln":"139.80267302700"
},
"geometry":{
"type":"Point",
"coordinates":[
139.802673027,
35.6540148062
]
}
},
{
"type":"Feature",
"properties":{
"Name":"豊洲図書館有明スポーツセンター",
"Jusho":"東京都江東区有明2-13-15",
"Capacity":"1300",
"la":"35.63318000000",
"ln":"139.78382000000"
},
"geometry":{
"type":"Point",
"coordinates":[
139.78382,
35.63318
]
}
},
{
"type":"Feature",
"properties":{
"Name":"豊洲文化センター",
"Jusho":"東京都江東区豊洲2-12-18",
"Capacity":"670",
"la":"35.65387200000",
"ln":"139.79492400000"
},
"geometry":{
"type":"Point",
"coordinates":[
139.794924,
35.653872
]
}
},
{
"type":"Feature",
"properties":{
"Name":"豊洲保育園",
"Jusho":"東京都江東区豊洲4-15-16-101",
"Capacity":"200",
"la":"35.65471300000",
"ln":"139.79940300000"
},
"geometry":{
"type":"Point",
"coordinates":[
139.799403,
35.654713
]
}
},
{
"type":"Feature",
"properties":{
"Name":"北砂保育園",
"Jusho":"東京都江東区北砂1-1-14-101",
"Capacity":"150",
"la":"35.68234900000",
"ln":"139.82173400000"
},
"geometry":{
"type":"Point",
"coordinates":[
139.821734,
35.682349
]
}
},
{
"type":"Feature",
"properties":{
"Name":"墨田工業高等学校",
"Jusho":"東京都江東区森下5-1-17",
"Capacity":"620",
"la":"35.68490500000",
"ln":"139.80701500000"
},
"geometry":{
"type":"Point",
"coordinates":[
139.807015,
35.684905
]
}
},
{
"type":"Feature",
"properties":{
"Name":"毛利保育園",
"Jusho":"東京都江東区毛利2-1-14",
"Capacity":"210",
"la":"35.69065399910",
"ln":"139.81620700000"
},
"geometry":{
"type":"Point",
"coordinates":[
139.816207,
35.6906539991
]
}
},
{
"type":"Feature",
"properties":{
"Name":"ＪＲアパート・品川区役所一帯",
"Jusho":"東京都品川区",
"Capacity":"38800",
"la":"35.60882200000",
"ln":"139.73100900000"
},
"geometry":{
"type":"Point",
"coordinates":[
139.731009,
35.608822
]
}
},
{
"type":"Feature",
"properties":{
"Name":"高輪三丁目・四丁目・御殿山地区",
"Jusho":"東京都品川区",
"Capacity":"85500",
"la":"35.63159300000",
"ln":"139.73343400000"
},
"geometry":{
"type":"Point",
"coordinates":[
139.733434,
35.631593
]
}
},
{
"type":"Feature",
"properties":{
"Name":"自然教育園・聖心女子学院一帯",
"Jusho":"東京都品川区",
"Capacity":"63500",
"la":"35.63916200000",
"ln":"139.72103100000"
},
"geometry":{
"type":"Point",
"coordinates":[
139.721031,
35.639162
]
}
},
{
"type":"Feature",
"properties":{
"Name":"大井ふ頭一帯",
"Jusho":"東京都品川区",
"Capacity":"33900",
"la":"35.59298329620",
"ln":"139.74968936400"
},
"geometry":{
"type":"Point",
"coordinates":[
139.749689364,
35.5929832962
]
}
},
{
"type":"Feature",
"properties":{
"Name":"天王洲アイル周辺",
"Jusho":"東京都品川区",
"Capacity":"52500",
"la":"35.62041800000",
"ln":"139.75053500000"
},
"geometry":{
"type":"Point",
"coordinates":[
139.750535,
35.620418
]
}
},
{
"type":"Feature",
"properties":{
"Name":"東京工業大学",
"Jusho":"東京都品川区",
"Capacity":"95500",
"la":"35.60457800000",
"ln":"139.68410900000"
},
"geometry":{
"type":"Point",
"coordinates":[
139.684109,
35.604578
]
}
},
{
"type":"Feature",
"properties":{
"Name":"ウェルカムセンター原",
"Jusho":"東京都品川区西大井2-15-121",
"Capacity":"860",
"la":"35.59912099910",
"ln":"139.72148100000"
},
"geometry":{
"type":"Point",
"coordinates":[
139.721481,
35.5991209991
]
}
},
{
"type":"Feature",
"properties":{
"Name":"ゆたかシルバーセンター",
"Jusho":"東京都品川区豊町3-12-15",
"Capacity":"65",
"la":"35.60832800000",
"ln":"139.71960600000"
},
"geometry":{
"type":"Point",
"coordinates":[
139.719606,
35.608328
]
}
},
{
"type":"Feature",
"properties":{
"Name":"ゆたか児童センター",
"Jusho":"東京都品川区豊町1-18-15",
"Capacity":"298",
"la":"35.61152199910",
"ln":"139.72271700000"
},
"geometry":{
"type":"Point",
"coordinates":[
139.722717,
35.6115219991
]
}
},
{
"type":"Feature",
"properties":{
"Name":"伊藤学園",
"Jusho":"東京都品川区大井5-1-137",
"Capacity":"2916",
"la":"35.60005100000",
"ln":"139.72596700000"
},
"geometry":{
"type":"Point",
"coordinates":[
139.725967,
35.600051
]
}
},
{
"type":"Feature",
"properties":{
"Name":"伊藤児童センター",
"Jusho":"東京都品川区西大井6-13-1",
"Capacity":"110",
"la":"35.60055700000",
"ln":"139.71754000000"
},
"geometry":{
"type":"Point",
"coordinates":[
139.71754,
35.600557
]
}
},
{
"type":"Feature",
"properties":{
"Name":"一本橋児童センター",
"Jusho":"東京都品川区大井2-125-1",
"Capacity":"118",
"la":"35.60457800000",
"ln":"139.72982800000"
},
"geometry":{
"type":"Point",
"coordinates":[
139.729828,
35.604578
]
}
},
{
"type":"Feature",
"properties":{
"Name":"荏原文化センター",
"Jusho":"東京都品川区中延1-19-15",
"Capacity":"600",
"la":"35.61216400000",
"ln":"139.71054600000"
},
"geometry":{
"type":"Point",
"coordinates":[
139.710546,
35.612164
]
}
},
{
"type":"Feature",
"properties":{
"Name":"関ヶ原シルバーセンター",
"Jusho":"東京都品川区東大井6-11-11",
"Capacity":"70",
"la":"35.60188500000",
"ln":"139.73649400000"
},
"geometry":{
"type":"Point",
"coordinates":[
139.736494,
35.601885
]
}
},
{
"type":"Feature",
"properties":{
"Name":"旗の台シルバーセンター",
"Jusho":"東京都品川区旗の台4-13-1",
"Capacity":"62",
"la":"35.60257800000",
"ln":"139.70466300000"
},
"geometry":{
"type":"Point",
"coordinates":[
139.704663,
35.602578
]
}
},
{
"type":"Feature",
"properties":{
"Name":"旗の台児童センター",
"Jusho":"東京都品川区旗の台5-19-15",
"Capacity":"194",
"la":"35.60385600000",
"ln":"139.70044100000"
},
"geometry":{
"type":"Point",
"coordinates":[
139.700441,
35.603856
]
}
},
{
"type":"Feature",
"properties":{
"Name":"旗の台文化センター",
"Jusho":"東京都品川区旗の台5-19-15",
"Capacity":"165",
"la":"35.60375600000",
"ln":"139.70045300000"
},
"geometry":{
"type":"Point",
"coordinates":[
139.700453,
35.603756
]
}
},
{
"type":"Feature",
"properties":{
"Name":"教育センター・五反田文化センター",
"Jusho":"東京都品川区西五反田6-15-1",
"Capacity":"237",
"la":"35.62265500000",
"ln":"139.71664200000"
},
"geometry":{
"type":"Point",
"coordinates":[
139.716642,
35.622655
]
}
},
{
"type":"Feature",
"properties":{
"Name":"戸越体育館",
"Jusho":"東京都品川区豊町2-1-17",
"Capacity":"500",
"la":"35.61083900000",
"ln":"139.72058900000"
},
"geometry":{
"type":"Point",
"coordinates":[
139.720589,
35.610839
]
}
},
{
"type":"Feature",
"properties":{
"Name":"戸越台特養ホーム",
"Jusho":"東京都品川区戸越1-15-123",
"Capacity":"200",
"la":"35.61562899910",
"ln":"139.71755100000"
},
"geometry":{
"type":"Point",
"coordinates":[
139.717551,
35.6156289991
]
}
},
{
"type":"Feature",
"properties":{
"Name":"五反田シルバーセンター",
"Jusho":"東京都品川区東五反田2-15-16",
"Capacity":"34",
"la":"35.62196500000",
"ln":"139.72938300000"
},
"geometry":{
"type":"Point",
"coordinates":[
139.729383,
35.621965
]
}
},
{
"type":"Feature",
"properties":{
"Name":"後地シルバーセンター",
"Jusho":"東京都品川区小山2-19-19",
"Capacity":"68",
"la":"35.62059500000",
"ln":"139.70913100000"
},
"geometry":{
"type":"Point",
"coordinates":[
139.709131,
35.620595
]
}
},
{
"type":"Feature",
"properties":{
"Name":"後地児童センター",
"Jusho":"東京都品川区小山2-19-19",
"Capacity":"191",
"la":"35.62062629620",
"ln":"139.70912816100"
},
"geometry":{
"type":"Point",
"coordinates":[
139.709128161,
35.6206262962
]
}
},
{
"type":"Feature",
"properties":{
"Name":"攻玉社学園",
"Jusho":"東京都品川区西五反田5-14-12",
"Capacity":"750",
"la":"35.62446500000",
"ln":"139.71319000000"
},
"geometry":{
"type":"Point",
"coordinates":[
139.71319,
35.624465
]
}
},
{
"type":"Feature",
"properties":{
"Name":"香蘭女学校",
"Jusho":"東京都品川区旗の台6-122-121",
"Capacity":"1000",
"la":"35.60774400000",
"ln":"139.70133000000"
},
"geometry":{
"type":"Point",
"coordinates":[
139.70133,
35.607744
]
}
},
{
"type":"Feature",
"properties":{
"Name":"三木児童センター",
"Jusho":"東京都品川区西品川2-16-13",
"Capacity":"146",
"la":"35.61399399910",
"ln":"139.72643900000"
},
"geometry":{
"type":"Point",
"coordinates":[
139.726439,
35.6139939991
]
}
},
{
"type":"Feature",
"properties":{
"Name":"小関児童センター",
"Jusho":"東京都品川区北品川5-18-15",
"Capacity":"229",
"la":"35.62011895190",
"ln":"139.73247391900"
},
"geometry":{
"type":"Point",
"coordinates":[
139.732473919,
35.6201189519
]
}
},
{
"type":"Feature",
"properties":{
"Name":"小山シルバーセンター",
"Jusho":"東京都品川区小山5-17-18",
"Capacity":"50",
"la":"35.61482700000",
"ln":"139.70138500000"
},
"geometry":{
"type":"Point",
"coordinates":[
139.701385,
35.614827
]
}
},
{
"type":"Feature",
"properties":{
"Name":"小野学園",
"Jusho":"東京都品川区西大井1-16-13",
"Capacity":"600",
"la":"35.60249500000",
"ln":"139.72624500000"
},
"geometry":{
"type":"Point",
"coordinates":[
139.726245,
35.602495
]
}
},
{
"type":"Feature",
"properties":{
"Name":"上大崎シルバーセンター",
"Jusho":"東京都品川区上大崎1-13-12",
"Capacity":"56",
"la":"35.63460300000",
"ln":"139.72202200000"
},
"geometry":{
"type":"Point",
"coordinates":[
139.722022,
35.634603
]
}
},
{
"type":"Feature",
"properties":{
"Name":"心身障害者福祉会館",
"Jusho":"東京都品川区旗の台5-12-12",
"Capacity":"188",
"la":"35.60482800000",
"ln":"139.70058000000"
},
"geometry":{
"type":"Point",
"coordinates":[
139.70058,
35.604828
]
}
},
{
"type":"Feature",
"properties":{
"Name":"新総合体育館",
"Jusho":"東京都品川区東五反田2-11-12",
"Capacity":"2800",
"la":"35.62406776580",
"ln":"139.72815113200"
},
"geometry":{
"type":"Point",
"coordinates":[
139.728151132,
35.6240677658
]
}
},
{
"type":"Feature",
"properties":{
"Name":"水神児童センター",
"Jusho":"東京都品川区南大井5-13-19",
"Capacity":"192",
"la":"35.59544100000",
"ln":"139.73413300000"
},
"geometry":{
"type":"Point",
"coordinates":[
139.734133,
35.595441
]
}
},
{
"type":"Feature",
"properties":{
"Name":"杉野学園",
"Jusho":"東京都品川区上大崎4-16-19",
"Capacity":"1170",
"la":"35.63074200000",
"ln":"139.71585600000"
},
"geometry":{
"type":"Point",
"coordinates":[
139.715856,
35.630742
]
}
},
{
"type":"Feature",
"properties":{
"Name":"星薬科大学",
"Jusho":"東京都品川区荏原2-14-141",
"Capacity":"1000",
"la":"35.61935400000",
"ln":"139.71132900000"
},
"geometry":{
"type":"Point",
"coordinates":[
139.711329,
35.619354
]
}
},
{
"type":"Feature",
"properties":{
"Name":"清泉女子大学",
"Jusho":"東京都品川区東五反田3-16-121",
"Capacity":"1000",
"la":"35.62715900000",
"ln":"139.72843800000"
},
"geometry":{
"type":"Point",
"coordinates":[
139.728438,
35.627159
]
}
},
{
"type":"Feature",
"properties":{
"Name":"西五反田シルバーセンター",
"Jusho":"東京都品川区西五反田3-19-10",
"Capacity":"44",
"la":"35.62653400000",
"ln":"139.71689900000"
},
"geometry":{
"type":"Point",
"coordinates":[
139.716899,
35.626534
]
}
},
{
"type":"Feature",
"properties":{
"Name":"西大井シルバーセンター",
"Jusho":"東京都品川区西大井1-18-17",
"Capacity":"60",
"la":"35.60088400000",
"ln":"139.72307800000"
},
"geometry":{
"type":"Point",
"coordinates":[
139.723078,
35.600884
]
}
},
{
"type":"Feature",
"properties":{
"Name":"西中延児童センター",
"Jusho":"東京都品川区西中延3-18-15",
"Capacity":"145",
"la":"35.60721600000",
"ln":"139.70816300000"
},
"geometry":{
"type":"Point",
"coordinates":[
139.708163,
35.607216
]
}
},
{
"type":"Feature",
"properties":{
"Name":"総合区民会館（きゅりあん）",
"Jusho":"東京都品川区東大井5-18-1",
"Capacity":"2000",
"la":"35.60617700000",
"ln":"139.73583600000"
},
"geometry":{
"type":"Point",
"coordinates":[
139.735836,
35.606177
]
}
},
{
"type":"Feature",
"properties":{
"Name":"大井競馬場",
"Jusho":"東京都品川区勝島2-1-12",
"Capacity":"3126",
"la":"35.59361381340",
"ln":"139.74349533100"
},
"geometry":{
"type":"Point",
"coordinates":[
139.743495331,
35.5936138134
]
}
},
{
"type":"Feature",
"properties":{
"Name":"大井倉田児童センター",
"Jusho":"東京都品川区大井4-11-134",
"Capacity":"189",
"la":"35.60210700000",
"ln":"139.73371600000"
},
"geometry":{
"type":"Point",
"coordinates":[
139.733716,
35.602107
]
}
},
{
"type":"Feature",
"properties":{
"Name":"大原児童センター",
"Jusho":"東京都品川区戸越6-16-1",
"Capacity":"201",
"la":"35.60732800000",
"ln":"139.71546800000"
},
"geometry":{
"type":"Point",
"coordinates":[
139.715468,
35.607328
]
}
},
{
"type":"Feature",
"properties":{
"Name":"大崎シルバーセンター",
"Jusho":"東京都品川区大崎2-17-13",
"Capacity":"62",
"la":"35.61671600000",
"ln":"139.72585500000"
},
"geometry":{
"type":"Point",
"coordinates":[
139.725855,
35.616716
]
}
},
{
"type":"Feature",
"properties":{
"Name":"滝王子児童センター",
"Jusho":"東京都品川区大井5-19-14",
"Capacity":"250",
"la":"35.59830099910",
"ln":"139.72857800000"
},
"geometry":{
"type":"Point",
"coordinates":[
139.728578,
35.5983009991
]
}
},
{
"type":"Feature",
"properties":{
"Name":"中延児童センター",
"Jusho":"東京都品川区西中延1-16-16",
"Capacity":"159",
"la":"35.61252899910",
"ln":"139.70853800000"
},
"geometry":{
"type":"Point",
"coordinates":[
139.708538,
35.6125289991
]
}
},
{
"type":"Feature",
"properties":{
"Name":"中延特養ホーム",
"Jusho":"東京都品川区中延6-16-18",
"Capacity":"200",
"la":"35.60166299910",
"ln":"139.71157800000"
},
"geometry":{
"type":"Point",
"coordinates":[
139.711578,
35.6016629991
]
}
},
{
"type":"Feature",
"properties":{
"Name":"中原児童センター",
"Jusho":"東京都品川区小山1-14-1",
"Capacity":"560",
"la":"35.62207800000",
"ln":"139.71279200000"
},
"geometry":{
"type":"Point",
"coordinates":[
139.712792,
35.622078
]
}
},
{
"type":"Feature",
"properties":{
"Name":"都立産業技術高等専門学校",
"Jusho":"東京都品川区東大井1-10-140",
"Capacity":"3000",
"la":"35.60649600000",
"ln":"139.74888200000"
},
"geometry":{
"type":"Point",
"coordinates":[
139.748882,
35.606496
]
}
},
{
"type":"Feature",
"properties":{
"Name":"都立小山台高等学校",
"Jusho":"東京都品川区小山3-13-132",
"Capacity":"2000",
"la":"35.62118700000",
"ln":"139.70357900000"
},
"geometry":{
"type":"Point",
"coordinates":[
139.703579,
35.621187
]
}
},
{
"type":"Feature",
"properties":{
"Name":"都立大崎高等学校",
"Jusho":"東京都品川区豊町2-1-17",
"Capacity":"1000",
"la":"35.60971600000",
"ln":"139.72057800000"
},
"geometry":{
"type":"Point",
"coordinates":[
139.720578,
35.609716
]
}
},
{
"type":"Feature",
"properties":{
"Name":"都立大塚ろう学校品川分校",
"Jusho":"東京都品川区南品川6-15-120",
"Capacity":"1221",
"la":"35.60969800000",
"ln":"139.73813800000"
},
"geometry":{
"type":"Point",
"coordinates":[
139.738138,
35.609698
]
}
},
{
"type":"Feature",
"properties":{
"Name":"都立八潮高等学校",
"Jusho":"東京都品川区東品川3-127-122",
"Capacity":"2000",
"la":"35.61188400000",
"ln":"139.74699300000"
},
"geometry":{
"type":"Point",
"coordinates":[
139.746993,
35.611884
]
}
},
{
"type":"Feature",
"properties":{
"Name":"東五反田児童センター",
"Jusho":"東京都品川区東五反田5-124-1",
"Capacity":"52",
"la":"35.62801099910",
"ln":"139.72327900000"
},
"geometry":{
"type":"Point",
"coordinates":[
139.723279,
35.6280109991
]
}
},
{
"type":"Feature",
"properties":{
"Name":"東大井児童センター",
"Jusho":"東京都品川区東大井1-122-16",
"Capacity":"232",
"la":"35.60347799910",
"ln":"139.74141900000"
},
"geometry":{
"type":"Point",
"coordinates":[
139.741419,
35.6034779991
]
}
},
{
"type":"Feature",
"properties":{
"Name":"東中延児童センター",
"Jusho":"東京都品川区東中延2-15-10",
"Capacity":"223",
"la":"35.60788699910",
"ln":"139.71396600000"
},
"geometry":{
"type":"Point",
"coordinates":[
139.713966,
35.6078869991
]
}
},
{
"type":"Feature",
"properties":{
"Name":"東品川シルバーセンター",
"Jusho":"東京都品川区東品川3-132-10",
"Capacity":"150",
"la":"35.61434518020",
"ln":"139.75088031700"
},
"geometry":{
"type":"Point",
"coordinates":[
139.750880317,
35.6143451802
]
}
},
{
"type":"Feature",
"properties":{
"Name":"東品川児童センター",
"Jusho":"東京都品川区東品川1-134-19",
"Capacity":"210",
"la":"35.61913299910",
"ln":"139.74607600000"
},
"geometry":{
"type":"Point",
"coordinates":[
139.746076,
35.6191329991
]
}
},
{
"type":"Feature",
"properties":{
"Name":"南ゆたか児童センター",
"Jusho":"東京都品川区豊町4-17-121",
"Capacity":"120",
"la":"35.60666100000",
"ln":"139.72110600000"
},
"geometry":{
"type":"Point",
"coordinates":[
139.721106,
35.606661
]
}
},
{
"type":"Feature",
"properties":{
"Name":"南大井シルバーセンター",
"Jusho":"東京都品川区南大井3-17-13",
"Capacity":"72",
"la":"35.59173699910",
"ln":"139.73430700000"
},
"geometry":{
"type":"Point",
"coordinates":[
139.734307,
35.5917369991
]
}
},
{
"type":"Feature",
"properties":{
"Name":"南大井児童センター",
"Jusho":"東京都品川区南大井3-17-13",
"Capacity":"147",
"la":"35.59177499910",
"ln":"139.73441100000"
},
"geometry":{
"type":"Point",
"coordinates":[
139.734411,
35.5917749991
]
}
},
{
"type":"Feature",
"properties":{
"Name":"南品川シルバーセンター",
"Jusho":"東京都品川区南品川5-10-13",
"Capacity":"28",
"la":"35.61021035080",
"ln":"139.73977629900"
},
"geometry":{
"type":"Point",
"coordinates":[
139.739776299,
35.6102103508
]
}
},
{
"type":"Feature",
"properties":{
"Name":"南品川児童センター",
"Jusho":"東京都品川区南品川4-15-128",
"Capacity":"220",
"la":"35.61360500000",
"ln":"139.73877100000"
},
"geometry":{
"type":"Point",
"coordinates":[
139.738771,
35.613605
]
}
},
{
"type":"Feature",
"properties":{
"Name":"日野学園",
"Jusho":"東京都品川区東五反田2-11-1",
"Capacity":"2966",
"la":"35.62455812940",
"ln":"139.72790458200"
},
"geometry":{
"type":"Point",
"coordinates":[
139.727904582,
35.6245581294
]
}
},
{
"type":"Feature",
"properties":{
"Name":"八潮児童センター",
"Jusho":"東京都品川区八潮5-10-127",
"Capacity":"697",
"la":"35.60012582330",
"ln":"139.75146490000"
},
"geometry":{
"type":"Point",
"coordinates":[
139.7514649,
35.6001258233
]
}
},
{
"type":"Feature",
"properties":{
"Name":"八潮地域センター１階広間",
"Jusho":"東京都品川区八潮5-10-127",
"Capacity":"120",
"la":"35.60015300000",
"ln":"139.75125500000"
},
"geometry":{
"type":"Point",
"coordinates":[
139.751255,
35.600153
]
}
},
{
"type":"Feature",
"properties":{
"Name":"品川エトワール女子高等学校",
"Jusho":"東京都品川区南品川5-12-14",
"Capacity":"800",
"la":"35.60888400000",
"ln":"139.74074300000"
},
"geometry":{
"type":"Point",
"coordinates":[
139.740743,
35.608884
]
}
},
{
"type":"Feature",
"properties":{
"Name":"品川女子学院",
"Jusho":"東京都品川区北品川3-13-12",
"Capacity":"797",
"la":"35.62082700000",
"ln":"139.73932600000"
},
"geometry":{
"type":"Point",
"coordinates":[
139.739326,
35.620827
]
}
},
{
"type":"Feature",
"properties":{
"Name":"冨士見台児童センター",
"Jusho":"東京都品川区西大井6-1-18",
"Capacity":"202",
"la":"35.60129118860",
"ln":"139.71433827700"
},
"geometry":{
"type":"Point",
"coordinates":[
139.714338277,
35.6012911886
]
}
},
{
"type":"Feature",
"properties":{
"Name":"平塚シルバーセンター",
"Jusho":"東京都品川区平塚2-10-120",
"Capacity":"60",
"la":"35.61691400000",
"ln":"139.71396200000"
},
"geometry":{
"type":"Point",
"coordinates":[
139.713962,
35.616914
]
}
},
{
"type":"Feature",
"properties":{
"Name":"平塚橋シルバーセンター",
"Jusho":"東京都品川区西中延1-12-18",
"Capacity":"98",
"la":"35.61440000000",
"ln":"139.70996500000"
},
"geometry":{
"type":"Point",
"coordinates":[
139.709965,
35.6144
]
}
},
{
"type":"Feature",
"properties":{
"Name":"平塚児童センター",
"Jusho":"東京都品川区平塚2-12-13",
"Capacity":"291",
"la":"35.61879900000",
"ln":"139.71743900000"
},
"geometry":{
"type":"Point",
"coordinates":[
139.717439,
35.618799
]
}
},
{
"type":"Feature",
"properties":{
"Name":"朋優学院高等学校",
"Jusho":"東京都品川区西大井6-1-123",
"Capacity":"750",
"la":"35.60055100000",
"ln":"139.71446800000"
},
"geometry":{
"type":"Point",
"coordinates":[
139.714468,
35.600551
]
}
},
{
"type":"Feature",
"properties":{
"Name":"北品川シルバーセンター",
"Jusho":"東京都品川区北品川1-129-12",
"Capacity":"64",
"la":"35.62053300000",
"ln":"139.74177100000"
},
"geometry":{
"type":"Point",
"coordinates":[
139.741771,
35.620533
]
}
},
{
"type":"Feature",
"properties":{
"Name":"北品川児童センター",
"Jusho":"東京都品川区北品川2-17-121",
"Capacity":"147",
"la":"35.61893799910",
"ln":"139.74424300000"
},
"geometry":{
"type":"Point",
"coordinates":[
139.744243,
35.6189379991
]
}
},
{
"type":"Feature",
"properties":{
"Name":"立正大学",
"Jusho":"東京都品川区大崎4-12-16",
"Capacity":"8500",
"la":"35.62091000000",
"ln":"139.72330000000"
},
"geometry":{
"type":"Point",
"coordinates":[
139.7233,
35.62091
]
}
},
{
"type":"Feature",
"properties":{
"Name":"かみよん工房",
"Jusho":"東京都目黒区",
"Capacity":"－",
"la":"35.64192500000",
"ln":"139.69226800000"
},
"geometry":{
"type":"Point",
"coordinates":[
139.692268,
35.641925
]
}
},
{
"type":"Feature",
"properties":{
"Name":"ひまわりプラザ",
"Jusho":"東京都目黒区",
"Capacity":"－",
"la":"35.63083900000",
"ln":"139.69092300000"
},
"geometry":{
"type":"Point",
"coordinates":[
139.690923,
35.630839
]
}
},
{
"type":"Feature",
"properties":{
"Name":"めぐろ学校サポートセンター",
"Jusho":"東京都目黒区",
"Capacity":"－",
"la":"35.63931217090",
"ln":"139.70262816000"
},
"geometry":{
"type":"Point",
"coordinates":[
139.70262816,
35.6393121709
]
}
},
{
"type":"Feature",
"properties":{
"Name":"烏森住区センター",
"Jusho":"東京都目黒区上目黒三丁目44番2号",
"Capacity":"－",
"la":"35.64393200000",
"ln":"139.69164400000"
},
"geometry":{
"type":"Point",
"coordinates":[
139.691644,
35.643932
]
}
},
{
"type":"Feature",
"properties":{
"Name":"屋雲住区センター",
"Jusho":"東京都目黒区八雲一丁目10番5号",
"Capacity":"－",
"la":"35.61870899910",
"ln":"139.67228000000"
},
"geometry":{
"type":"Point",
"coordinates":[
139.67228,
35.6187089991
]
}
},
{
"type":"Feature",
"properties":{
"Name":"下目黒住区センター",
"Jusho":"東京都目黒区下目黒二丁目20番19号",
"Capacity":"－",
"la":"35.63294200000",
"ln":"139.70990400000"
},
"geometry":{
"type":"Point",
"coordinates":[
139.709904,
35.632942
]
}
},
{
"type":"Feature",
"properties":{
"Name":"下目黒福祉工房",
"Jusho":"東京都目黒区下目黒3-10-12",
"Capacity":"－",
"la":"35.62785300000",
"ln":"139.71146700000"
},
"geometry":{
"type":"Point",
"coordinates":[
139.711467,
35.627853
]
}
},
{
"type":"Feature",
"properties":{
"Name":"駒場住区センター",
"Jusho":"東京都目黒区駒場一丁目22番4号",
"Capacity":"－",
"la":"35.65634400000",
"ln":"139.68655500000"
},
"geometry":{
"type":"Point",
"coordinates":[
139.686555,
35.656344
]
}
},
{
"type":"Feature",
"properties":{
"Name":"月光原住区センター",
"Jusho":"東京都目黒区目黒本町四丁目16番18号",
"Capacity":"－",
"la":"35.62207300000",
"ln":"139.69468600000"
},
"geometry":{
"type":"Point",
"coordinates":[
139.694686,
35.622073
]
}
},
{
"type":"Feature",
"properties":{
"Name":"原町住区センター",
"Jusho":"東京都目黒区南一丁目8番9号",
"Capacity":"－",
"la":"35.61510000000",
"ln":"139.68935200000"
},
"geometry":{
"type":"Point",
"coordinates":[
139.689352,
35.6151
]
}
},
{
"type":"Feature",
"properties":{
"Name":"五本木住区センター",
"Jusho":"東京都目黒区中央町二丁目17番2号",
"Capacity":"－",
"la":"35.63303900000",
"ln":"139.68925800000"
},
"geometry":{
"type":"Point",
"coordinates":[
139.689258,
35.633039
]
}
},
{
"type":"Feature",
"properties":{
"Name":"向原住区センター",
"Jusho":"東京都目黒区目黒本町五丁目22番11号",
"Capacity":"－",
"la":"35.61871800000",
"ln":"139.69862200000"
},
"geometry":{
"type":"Point",
"coordinates":[
139.698622,
35.618718
]
}
},
{
"type":"Feature",
"properties":{
"Name":"自由が丘住区センター",
"Jusho":"東京都目黒区自由が丘一丁目24番12号",
"Capacity":"－",
"la":"35.60991300000",
"ln":"139.66916100000"
},
"geometry":{
"type":"Point",
"coordinates":[
139.669161,
35.609913
]
}
},
{
"type":"Feature",
"properties":{
"Name":"自由が丘住区センター宮前分室",
"Jusho":"東京都目黒区八雲三丁目22番15号",
"Capacity":"－",
"la":"35.61564000000",
"ln":"139.66540300000"
},
"geometry":{
"type":"Point",
"coordinates":[
139.665403,
35.61564
]
}
},
{
"type":"Feature",
"properties":{
"Name":"上目黒住区センター",
"Jusho":"東京都目黒区祐天寺二丁目6番6号",
"Capacity":"－",
"la":"35.63708300000",
"ln":"139.69376600000"
},
"geometry":{
"type":"Point",
"coordinates":[
139.693766,
35.637083
]
}
},
{
"type":"Feature",
"properties":{
"Name":"上目黒福祉工房",
"Jusho":"東京都目黒区上目黒3-10-18",
"Capacity":"－",
"la":"35.64360800000",
"ln":"139.69722700000"
},
"geometry":{
"type":"Point",
"coordinates":[
139.697227,
35.643608
]
}
},
{
"type":"Feature",
"properties":{
"Name":"心身障害者センターあいアイ館",
"Jusho":"東京都目黒区八雲1-1-18",
"Capacity":"－",
"la":"35.62029800000",
"ln":"139.67288700000"
},
"geometry":{
"type":"Point",
"coordinates":[
139.672887,
35.620298
]
}
},
{
"type":"Feature",
"properties":{
"Name":"菅刈住区センター",
"Jusho":"東京都目黒区青葉台二丁目10番18号",
"Capacity":"－",
"la":"35.64980100000",
"ln":"139.69561300000"
},
"geometry":{
"type":"Point",
"coordinates":[
139.695613,
35.649801
]
}
},
{
"type":"Feature",
"properties":{
"Name":"大岡山西住区センター",
"Jusho":"東京都目黒区平町一丁目15番12号",
"Capacity":"－",
"la":"35.61586300000",
"ln":"139.67922600000"
},
"geometry":{
"type":"Point",
"coordinates":[
139.679226,
35.615863
]
}
},
{
"type":"Feature",
"properties":{
"Name":"大岡山東住区センター",
"Jusho":"東京都目黒区碑文谷三丁目15番5号",
"Capacity":"－",
"la":"35.61784900000",
"ln":"139.68421200000"
},
"geometry":{
"type":"Point",
"coordinates":[
139.684212,
35.617849
]
}
},
{
"type":"Feature",
"properties":{
"Name":"大橋えのき園",
"Jusho":"東京都目黒区大橋2-19-138",
"Capacity":"－",
"la":"35.65534900000",
"ln":"139.68196900000"
},
"geometry":{
"type":"Point",
"coordinates":[
139.681969,
35.655349
]
}
},
{
"type":"Feature",
"properties":{
"Name":"第六中学跡地",
"Jusho":"東京都目黒区中央町二丁目32番5号",
"Capacity":"－",
"la":"35.63138514540",
"ln":"139.68868460900"
},
"geometry":{
"type":"Point",
"coordinates":[
139.688684609,
35.6313851454
]
}
},
{
"type":"Feature",
"properties":{
"Name":"鷹番住区センター",
"Jusho":"東京都目黒区鷹番三丁目17番20号",
"Capacity":"－",
"la":"35.62822500000",
"ln":"139.68315900000"
},
"geometry":{
"type":"Point",
"coordinates":[
139.683159,
35.628225
]
}
},
{
"type":"Feature",
"properties":{
"Name":"中根住区センター",
"Jusho":"東京都目黒区大岡山一丁目37番2号",
"Capacity":"－",
"la":"35.61269600000",
"ln":"139.67954900000"
},
"geometry":{
"type":"Point",
"coordinates":[
139.679549,
35.612696
]
}
},
{
"type":"Feature",
"properties":{
"Name":"中目黒スクエア",
"Jusho":"東京都目黒区",
"Capacity":"－",
"la":"35.64040699910",
"ln":"139.70305100000"
},
"geometry":{
"type":"Point",
"coordinates":[
139.703051,
35.6404069991
]
}
},
{
"type":"Feature",
"properties":{
"Name":"田道ふれあい館",
"Jusho":"東京都目黒区",
"Capacity":"－",
"la":"35.63673299910",
"ln":"139.70820100000"
},
"geometry":{
"type":"Point",
"coordinates":[
139.708201,
35.6367329991
]
}
},
{
"type":"Feature",
"properties":{
"Name":"田道住区センター三田分室",
"Jusho":"東京都目黒区三田二丁目10番33号",
"Capacity":"－",
"la":"35.63881900000",
"ln":"139.71248700000"
},
"geometry":{
"type":"Point",
"coordinates":[
139.712487,
35.638819
]
}
},
{
"type":"Feature",
"properties":{
"Name":"都立駒場高校",
"Jusho":"東京都目黒区大橋2-18-1",
"Capacity":"－",
"la":"35.65518300000",
"ln":"139.68527400000"
},
"geometry":{
"type":"Point",
"coordinates":[
139.685274,
35.655183
]
}
},
{
"type":"Feature",
"properties":{
"Name":"都立芸術高校",
"Jusho":"東京都目黒区大橋2-18-158",
"Capacity":"－",
"la":"35.65454400000",
"ln":"139.68449700000"
},
"geometry":{
"type":"Point",
"coordinates":[
139.684497,
35.654544
]
}
},
{
"type":"Feature",
"properties":{
"Name":"都立国際高校",
"Jusho":"東京都目黒区駒場2-19-159",
"Capacity":"－",
"la":"35.65915399910",
"ln":"139.67896900000"
},
"geometry":{
"type":"Point",
"coordinates":[
139.678969,
35.6591539991
]
}
},
{
"type":"Feature",
"properties":{
"Name":"都立大附属高校及びめぐろ区民キャンパス",
"Jusho":"東京都目黒区",
"Capacity":"－",
"la":"35.62112855420",
"ln":"139.67208783100"
},
"geometry":{
"type":"Point",
"coordinates":[
139.672087831,
35.6211285542
]
}
},
{
"type":"Feature",
"properties":{
"Name":"都立目黒高校",
"Jusho":"東京都目黒区祐天寺2-17-15",
"Capacity":"－",
"la":"35.63737899910",
"ln":"139.69477400000"
},
"geometry":{
"type":"Point",
"coordinates":[
139.694774,
35.6373789991
]
}
},
{
"type":"Feature",
"properties":{
"Name":"東根住区センター",
"Jusho":"東京都目黒区東が丘一丁目7番14号",
"Capacity":"－",
"la":"35.62727200000",
"ln":"139.66999600000"
},
"geometry":{
"type":"Point",
"coordinates":[
139.669996,
35.627272
]
}
},
{
"type":"Feature",
"properties":{
"Name":"東山住区センター",
"Jusho":"東京都目黒区東山三丁目19番18号",
"Capacity":"－",
"la":"35.64867000000",
"ln":"139.68713300000"
},
"geometry":{
"type":"Point",
"coordinates":[
139.687133,
35.64867
]
}
},
{
"type":"Feature",
"properties":{
"Name":"東山地区センター",
"Jusho":"東京都目黒区",
"Capacity":"－",
"la":"35.64793400000",
"ln":"139.68541300000"
},
"geometry":{
"type":"Point",
"coordinates":[
139.685413,
35.647934
]
}
},
{
"type":"Feature",
"properties":{
"Name":"特別養護老人ホーム駒場苑",
"Jusho":"東京都目黒区大橋2-19-1",
"Capacity":"－",
"la":"35.65543121610",
"ln":"139.68295963800"
},
"geometry":{
"type":"Point",
"coordinates":[
139.682959638,
35.6554312161
]
}
},
{
"type":"Feature",
"properties":{
"Name":"特別養護老人ホーム清徳苑",
"Jusho":"東京都目黒区",
"Capacity":"－",
"la":"35.62276685560",
"ln":"139.69809672500"
},
"geometry":{
"type":"Point",
"coordinates":[
139.698096725,
35.6227668556
]
}
},
{
"type":"Feature",
"properties":{
"Name":"特別養護老人ホーム青葉台さくら苑",
"Jusho":"東京都目黒区青葉台3-121-16",
"Capacity":"－",
"la":"35.64948900000",
"ln":"139.69205200000"
},
"geometry":{
"type":"Point",
"coordinates":[
139.692052,
35.649489
]
}
},
{
"type":"Feature",
"properties":{
"Name":"特別養護老人ホーム中目黒",
"Jusho":"東京都目黒区中目黒5-17-135",
"Capacity":"－",
"la":"35.63609953360",
"ln":"139.70089795500"
},
"geometry":{
"type":"Point",
"coordinates":[
139.700897955,
35.6360995336
]
}
},
{
"type":"Feature",
"properties":{
"Name":"特別養護老人ホーム東が丘",
"Jusho":"東京都目黒区東が丘1-16-14",
"Capacity":"－",
"la":"35.62632499910",
"ln":"139.67052600000"
},
"geometry":{
"type":"Point",
"coordinates":[
139.670526,
35.6263249991
]
}
},
{
"type":"Feature",
"properties":{
"Name":"特別養護老人ホーム東山",
"Jusho":"東京都目黒区東山3-124-16",
"Capacity":"－",
"la":"35.64730700000",
"ln":"139.68591000000"
},
"geometry":{
"type":"Point",
"coordinates":[
139.68591,
35.647307
]
}
},
{
"type":"Feature",
"properties":{
"Name":"南部地区センター",
"Jusho":"東京都目黒区",
"Capacity":"－",
"la":"35.62527700000",
"ln":"139.69521500000"
},
"geometry":{
"type":"Point",
"coordinates":[
139.695215,
35.625277
]
}
},
{
"type":"Feature",
"properties":{
"Name":"碑住区センター",
"Jusho":"東京都目黒区碑文谷二丁目16番6号",
"Capacity":"－",
"la":"35.62076800000",
"ln":"139.68766700000"
},
"geometry":{
"type":"Point",
"coordinates":[
139.687667,
35.620768
]
}
},
{
"type":"Feature",
"properties":{
"Name":"不動住区センター",
"Jusho":"東京都目黒区下目黒六丁目8番23号",
"Capacity":"－",
"la":"35.62640900000",
"ln":"139.70103800000"
},
"geometry":{
"type":"Point",
"coordinates":[
139.701038,
35.626409
]
}
},
{
"type":"Feature",
"properties":{
"Name":"目黒区区民センター",
"Jusho":"東京都目黒区",
"Capacity":"－",
"la":"35.63551199910",
"ln":"139.70846900000"
},
"geometry":{
"type":"Point",
"coordinates":[
139.708469,
35.6355119991
]
}
},
{
"type":"Feature",
"properties":{
"Name":"油面住区センター",
"Jusho":"東京都目黒区中町一丁目6番23号",
"Capacity":"－",
"la":"35.63137500000",
"ln":"139.69976900000"
},
"geometry":{
"type":"Point",
"coordinates":[
139.699769,
35.631375
]
}
},
{
"type":"Feature",
"properties":{
"Name":"緑が丘コミュニティーセンター（別館）",
"Jusho":"東京都目黒区緑が丘二丁目7番20号",
"Capacity":"－",
"la":"35.60943799910",
"ln":"139.67430400000"
},
"geometry":{
"type":"Point",
"coordinates":[
139.674304,
35.6094379991
]
}
},
{
"type":"Feature",
"properties":{
"Name":"緑が丘コミュニティーセンター（本館）",
"Jusho":"東京都目目黒区緑が丘二丁目14番23号",
"Capacity":"－",
"la":"35.60936200000",
"ln":"139.67330900000"
},
"geometry":{
"type":"Point",
"coordinates":[
139.673309,
35.609362
]
}
},
{
"type":"Feature",
"properties":{
"Name":"うめのき園（本園）",
"Jusho":"東京都大田区東糀谷5-17-14-101",
"Capacity":"－",
"la":"35.55747400000",
"ln":"139.74452400000"
},
"geometry":{
"type":"Point",
"coordinates":[
139.744524,
35.557474
]
}
},
{
"type":"Feature",
"properties":{
"Name":"くすのき園",
"Jusho":"東京都大田区南六郷3-123-19",
"Capacity":"－",
"la":"35.54133700000",
"ln":"139.71449900000"
},
"geometry":{
"type":"Point",
"coordinates":[
139.714499,
35.541337
]
}
},
{
"type":"Feature",
"properties":{
"Name":"こども発達センターわかばの家",
"Jusho":"東京都大田区千鳥3-17-15",
"Capacity":"－",
"la":"35.57302700000",
"ln":"139.69036100000"
},
"geometry":{
"type":"Point",
"coordinates":[
139.690361,
35.573027
]
}
},
{
"type":"Feature",
"properties":{
"Name":"コミュニティセンター羽田旭",
"Jusho":"東京都大田区羽田旭町7-1",
"Capacity":"－",
"la":"35.55364800000",
"ln":"139.74727200000"
},
"geometry":{
"type":"Point",
"coordinates":[
139.747272,
35.553648
]
}
},
{
"type":"Feature",
"properties":{
"Name":"こらぼ大森",
"Jusho":"東京都大田区大森西2-16-12",
"Capacity":"－",
"la":"35.57681600000",
"ln":"139.73005200000"
},
"geometry":{
"type":"Point",
"coordinates":[
139.730052,
35.576816
]
}
},
{
"type":"Feature",
"properties":{
"Name":"しいのき園",
"Jusho":"東京都大田区西糀谷2-19-12",
"Capacity":"－",
"la":"35.56033222750",
"ln":"139.73755560800"
},
"geometry":{
"type":"Point",
"coordinates":[
139.737555608,
35.5603322275
]
}
},
{
"type":"Feature",
"properties":{
"Name":"ふれあいはすぬま",
"Jusho":"東京都大田区西蒲田3-19-1",
"Capacity":"－",
"la":"35.56817000000",
"ln":"139.70786600000"
},
"geometry":{
"type":"Point",
"coordinates":[
139.707866,
35.56817
]
}
},
{
"type":"Feature",
"properties":{
"Name":"蒲田電車区一帯",
"Jusho":"東京都大田区",
"Capacity":"56800",
"la":"35.55717299600",
"ln":"139.71354166200"
},
"geometry":{
"type":"Point",
"coordinates":[
139.713541662,
35.557172996
]
}
},
{
"type":"Feature",
"properties":{
"Name":"久が原福祉園",
"Jusho":"東京都大田区久が原1-12-15",
"Capacity":"－",
"la":"35.58736200000",
"ln":"139.69299300000"
},
"geometry":{
"type":"Point",
"coordinates":[
139.692993,
35.587362
]
}
},
{
"type":"Feature",
"properties":{
"Name":"昭和島野球場一帯",
"Jusho":"東京都大田区",
"Capacity":"21200",
"la":"35.57070800000",
"ln":"139.74745600000"
},
"geometry":{
"type":"Point",
"coordinates":[
139.747456,
35.570708
]
}
},
{
"type":"Feature",
"properties":{
"Name":"上池台障害者福祉会館",
"Jusho":"東京都大田区上池台5-15-1",
"Capacity":"－",
"la":"35.59555100000",
"ln":"139.70160800000"
},
"geometry":{
"type":"Point",
"coordinates":[
139.701608,
35.595551
]
}
},
{
"type":"Feature",
"properties":{
"Name":"新井宿福祉園",
"Jusho":"東京都大田区中央2-13-12",
"Capacity":"－",
"la":"35.57841500000",
"ln":"139.71974600000"
},
"geometry":{
"type":"Point",
"coordinates":[
139.719746,
35.578415
]
}
},
{
"type":"Feature",
"properties":{
"Name":"新蒲田福祉センター",
"Jusho":"東京都大田区新蒲田1-18-123",
"Capacity":"－",
"la":"35.55744600000",
"ln":"139.71095300000"
},
"geometry":{
"type":"Point",
"coordinates":[
139.710953,
35.557446
]
}
},
{
"type":"Feature",
"properties":{
"Name":"多摩川河川敷・ガス橋一帯",
"Jusho":"東京都大田区",
"Capacity":"225300",
"la":"35.57478755470",
"ln":"139.67437780400"
},
"geometry":{
"type":"Point",
"coordinates":[
139.674377804,
35.5747875547
]
}
},
{
"type":"Feature",
"properties":{
"Name":"多摩川河川敷・田園調布先一帯",
"Jusho":"東京都大田区",
"Capacity":"91000",
"la":"35.61924062540",
"ln":"139.59878143000"
},
"geometry":{
"type":"Point",
"coordinates":[
139.59878143,
35.6192406254
]
}
},
{
"type":"Feature",
"properties":{
"Name":"多摩川河川敷・六郷橋一帯",
"Jusho":"東京都大田区",
"Capacity":"74500",
"la":"35.54156274200",
"ln":"139.70074129700"
},
"geometry":{
"type":"Point",
"coordinates":[
139.700741297,
35.541562742
]
}
},
{
"type":"Feature",
"properties":{
"Name":"大森東福祉園",
"Jusho":"東京都大田区大森東1-136-17",
"Capacity":"－",
"la":"35.57586224620",
"ln":"139.74018830900"
},
"geometry":{
"type":"Point",
"coordinates":[
139.740188309,
35.5758622462
]
}
},
{
"type":"Feature",
"properties":{
"Name":"大田生活実習所",
"Jusho":"東京都大田区萩中2-10-11",
"Capacity":"－",
"la":"35.55078000000",
"ln":"139.73046900000"
},
"geometry":{
"type":"Point",
"coordinates":[
139.730469,
35.55078
]
}
},
{
"type":"Feature",
"properties":{
"Name":"大田福祉作業所（本場）",
"Jusho":"東京都大田区大森西3-13-19",
"Capacity":"－",
"la":"35.57463799910",
"ln":"139.73041200000"
},
"geometry":{
"type":"Point",
"coordinates":[
139.730412,
35.5746379991
]
}
},
{
"type":"Feature",
"properties":{
"Name":"大田翔裕園",
"Jusho":"東京都大田区東六郷1-12-12",
"Capacity":"－",
"la":"35.55355337460",
"ln":"139.72006955500"
},
"geometry":{
"type":"Point",
"coordinates":[
139.720069555,
35.5535533746
]
}
},
{
"type":"Feature",
"properties":{
"Name":"池上福祉園",
"Jusho":"東京都大田区池上6-140-13",
"Capacity":"－",
"la":"35.56780500000",
"ln":"139.70558200000"
},
"geometry":{
"type":"Point",
"coordinates":[
139.705582,
35.567805
]
}
},
{
"type":"Feature",
"properties":{
"Name":"池上本門寺一帯",
"Jusho":"東京都大田区",
"Capacity":"56700",
"la":"35.57967400000",
"ln":"139.70519500000"
},
"geometry":{
"type":"Point",
"coordinates":[
139.705195,
35.579674
]
}
},
{
"type":"Feature",
"properties":{
"Name":"都立城南特別支援学校",
"Jusho":"東京都大田区東六郷2-18-19",
"Capacity":"－",
"la":"35.54775200000",
"ln":"139.71649800000"
},
"geometry":{
"type":"Point",
"coordinates":[
139.716498,
35.547752
]
}
},
{
"type":"Feature",
"properties":{
"Name":"都立田園調布特別支援学校",
"Jusho":"東京都大田区田園調布5-143-16",
"Capacity":"－",
"la":"35.59538400000",
"ln":"139.65489000000"
},
"geometry":{
"type":"Point",
"coordinates":[
139.65489,
35.595384
]
}
},
{
"type":"Feature",
"properties":{
"Name":"都立矢口特別支援学校",
"Jusho":"東京都大田区矢口1-126-10",
"Capacity":"－",
"la":"35.56508299910",
"ln":"139.69441700000"
},
"geometry":{
"type":"Point",
"coordinates":[
139.694417,
35.5650829991
]
}
},
{
"type":"Feature",
"properties":{
"Name":"東京国際空港",
"Jusho":"東京都大田区",
"Capacity":"28800",
"la":"35.54837000000",
"ln":"139.78395900000"
},
"geometry":{
"type":"Point",
"coordinates":[
139.783959,
35.54837
]
}
},
{
"type":"Feature",
"properties":{
"Name":"特別養護老人ホームたまがわ",
"Jusho":"東京都大田区下丸子4-123-1",
"Capacity":"－",
"la":"35.57086000000",
"ln":"139.67919600000"
},
"geometry":{
"type":"Point",
"coordinates":[
139.679196,
35.57086
]
}
},
{
"type":"Feature",
"properties":{
"Name":"特別養護老人ホーム羽田",
"Jusho":"東京都大田区本羽田3-123-145",
"Capacity":"－",
"la":"35.54578600000",
"ln":"139.73580900000"
},
"geometry":{
"type":"Point",
"coordinates":[
139.735809,
35.545786
]
}
},
{
"type":"Feature",
"properties":{
"Name":"特別養護老人ホーム蒲田",
"Jusho":"東京都大田区蒲田2-18-18",
"Capacity":"－",
"la":"35.56603400000",
"ln":"139.72738100000"
},
"geometry":{
"type":"Point",
"coordinates":[
139.727381,
35.566034
]
}
},
{
"type":"Feature",
"properties":{
"Name":"特別養護老人ホーム大森",
"Jusho":"東京都大田区大森西1-16-18",
"Capacity":"－",
"la":"35.57535100000",
"ln":"139.72544200000"
},
"geometry":{
"type":"Point",
"coordinates":[
139.725442,
35.575351
]
}
},
{
"type":"Feature",
"properties":{
"Name":"特別養護老人ホーム池上",
"Jusho":"東京都大田区仲池上2-124-18",
"Capacity":"－",
"la":"35.58462899910",
"ln":"139.69780000000"
},
"geometry":{
"type":"Point",
"coordinates":[
139.6978,
35.5846289991
]
}
},
{
"type":"Feature",
"properties":{
"Name":"特別養護老人ホーム糀谷",
"Jusho":"東京都大田区西糀谷2-12-1",
"Capacity":"－",
"la":"35.55939400000",
"ln":"139.73754600000"
},
"geometry":{
"type":"Point",
"coordinates":[
139.737546,
35.559394
]
}
},
{
"type":"Feature",
"properties":{
"Name":"南六郷福祉園",
"Jusho":"東京都大田区南六郷3-123-18",
"Capacity":"－",
"la":"35.54172600000",
"ln":"139.71433200000"
},
"geometry":{
"type":"Point",
"coordinates":[
139.714332,
35.541726
]
}
},