var k={
"type":"FeatureCollection",
"features":[
{
"type":"Feature",
"properties":{
"Name":"クリーン池田台１号公園",
"Jusho":"宮崎県宮崎市",
"Capacity":"－",
"la":"31.87979494000",
"ln":"131.39471921000"
},
"geometry":{
"type":"Point",
"coordinates":[
131.39471921,
31.87979494
]
}
},
{
"type":"Feature",
"properties":{
"Name":"クリーン池田台２号公園",
"Jusho":"宮崎県宮崎市",
"Capacity":"－",
"la":"31.88108861000",
"ln":"131.39222546000"
},
"geometry":{
"type":"Point",
"coordinates":[
131.39222546,
31.88108861
]
}
},
{
"type":"Feature",
"properties":{
"Name":"クリーン池田台３号公園",
"Jusho":"宮崎県宮崎市",
"Capacity":"－",
"la":"31.88084256000",
"ln":"131.38856647000"
},
"geometry":{
"type":"Point",
"coordinates":[
131.38856647,
31.88084256
]
}
},
{
"type":"Feature",
"properties":{
"Name":"クリーン池田台４号公園",
"Jusho":"宮崎県宮崎市",
"Capacity":"－",
"la":"31.87796657000",
"ln":"131.39025807000"
},
"geometry":{
"type":"Point",
"coordinates":[
131.39025807,
31.87796657
]
}
},
{
"type":"Feature",
"properties":{
"Name":"テクノ中央公園",
"Jusho":"宮崎県宮崎市",
"Capacity":"－",
"la":"32.03561608000",
"ln":"131.42211305000"
},
"geometry":{
"type":"Point",
"coordinates":[
131.42211305,
32.03561608
]
}
},
{
"type":"Feature",
"properties":{
"Name":"まなび野中央公園",
"Jusho":"宮崎県宮崎市",
"Capacity":"－",
"la":"31.86202210000",
"ln":"131.41852254000"
},
"geometry":{
"type":"Point",
"coordinates":[
131.41852254,
31.8620221
]
}
},
{
"type":"Feature",
"properties":{
"Name":"愛宕山公園",
"Jusho":"宮崎県宮崎市",
"Capacity":"－",
"la":"31.90631170000",
"ln":"131.40676284000"
},
"geometry":{
"type":"Point",
"coordinates":[
131.40676284,
31.9063117
]
}
},
{
"type":"Feature",
"properties":{
"Name":"稲荷山公園",
"Jusho":"宮崎県宮崎市",
"Capacity":"－",
"la":"31.88299678000",
"ln":"131.42477416000"
},
"geometry":{
"type":"Point",
"coordinates":[
131.42477416,
31.88299678
]
}
},
{
"type":"Feature",
"properties":{
"Name":"瓜生野街区公園",
"Jusho":"宮崎県宮崎市",
"Capacity":"－",
"la":"31.96897633000",
"ln":"131.38900313000"
},
"geometry":{
"type":"Point",
"coordinates":[
131.38900313,
31.96897633
]
}
},
{
"type":"Feature",
"properties":{
"Name":"下原街区公園",
"Jusho":"宮崎県宮崎市",
"Capacity":"－",
"la":"31.92206475000",
"ln":"131.43313797000"
},
"geometry":{
"type":"Point",
"coordinates":[
131.43313797,
31.92206475
]
}
},
{
"type":"Feature",
"properties":{
"Name":"加納公園",
"Jusho":"宮崎県宮崎市",
"Capacity":"－",
"la":"31.87658668000",
"ln":"131.39449699000"
},
"geometry":{
"type":"Point",
"coordinates":[
131.39449699,
31.87658668
]
}
},
{
"type":"Feature",
"properties":{
"Name":"花ケ崎街区公園",
"Jusho":"宮崎県宮崎市",
"Capacity":"－",
"la":"31.94729804920",
"ln":"131.43999199000"
},
"geometry":{
"type":"Point",
"coordinates":[
131.43999199,
31.9472980492
]
}
},
{
"type":"Feature",
"properties":{
"Name":"丸山団地公園内",
"Jusho":"宮崎県宮崎市",
"Capacity":"－",
"la":"31.96304039850",
"ln":"131.30467109100"
},
"geometry":{
"type":"Point",
"coordinates":[
131.304671091,
31.9630403985
]
}
},
{
"type":"Feature",
"properties":{
"Name":"雁ケ音街区公園",
"Jusho":"宮崎県宮崎市",
"Capacity":"－",
"la":"31.94600884920",
"ln":"131.43904247000"
},
"geometry":{
"type":"Point",
"coordinates":[
131.43904247,
31.9460088492
]
}
},
{
"type":"Feature",
"properties":{
"Name":"祇園街区公園",
"Jusho":"宮崎県宮崎市",
"Capacity":"－",
"la":"31.93815803000",
"ln":"131.41231028000"
},
"geometry":{
"type":"Point",
"coordinates":[
131.41231028,
31.93815803
]
}
},
{
"type":"Feature",
"properties":{
"Name":"祇園台第一街区公園",
"Jusho":"宮崎県宮崎市",
"Capacity":"－",
"la":"31.93304465000",
"ln":"131.33512468000"
},
"geometry":{
"type":"Point",
"coordinates":[
131.33512468,
31.93304465
]
}
},
{
"type":"Feature",
"properties":{
"Name":"祇園台第三街区公園",
"Jusho":"宮崎県宮崎市",
"Capacity":"－",
"la":"31.93118117000",
"ln":"131.33292711000"
},
"geometry":{
"type":"Point",
"coordinates":[
131.33292711,
31.93118117
]
}
},
{
"type":"Feature",
"properties":{
"Name":"祇園台第二街区公園",
"Jusho":"宮崎県宮崎市",
"Capacity":"－",
"la":"31.93311280000",
"ln":"131.33272147000"
},
"geometry":{
"type":"Point",
"coordinates":[
131.33272147,
31.9331128
]
}
},
{
"type":"Feature",
"properties":{
"Name":"宮園前街区公園",
"Jusho":"宮崎県宮崎市",
"Capacity":"－",
"la":"31.89638339000",
"ln":"131.42516247000"
},
"geometry":{
"type":"Point",
"coordinates":[
131.42516247,
31.89638339
]
}
},
{
"type":"Feature",
"properties":{
"Name":"宮崎県総合運動公園",
"Jusho":"宮崎県宮崎市大字熊野2206-1",
"Capacity":"1160",
"la":"31.82571138000",
"ln":"131.44934883000"
},
"geometry":{
"type":"Point",
"coordinates":[
131.44934883,
31.82571138
]
}
},
{
"type":"Feature",
"properties":{
"Name":"宮崎県総合運動公園テニスコート管理棟",
"Jusho":"宮崎県宮崎市大字熊野1443-12",
"Capacity":"－",
"la":"31.82424749790",
"ln":"131.44507902800"
},
"geometry":{
"type":"Point",
"coordinates":[
131.445079028,
31.8242474979
]
}
},
{
"type":"Feature",
"properties":{
"Name":"宮崎県総合文化公園",
"Jusho":"宮崎県宮崎市",
"Capacity":"－",
"la":"31.93427148000",
"ln":"131.41877144000"
},
"geometry":{
"type":"Point",
"coordinates":[
131.41877144,
31.93427148
]
}
},
{
"type":"Feature",
"properties":{
"Name":"宮崎市久峰総合公園",
"Jusho":"宮崎県宮崎市",
"Capacity":"－",
"la":"32.02208401000",
"ln":"131.46118581000"
},
"geometry":{
"type":"Point",
"coordinates":[
131.46118581,
32.02208401
]
}
},
{
"type":"Feature",
"properties":{
"Name":"宮崎中央公園",
"Jusho":"宮崎県宮崎市",
"Capacity":"－",
"la":"31.91328663000",
"ln":"131.43476829000"
},
"geometry":{
"type":"Point",
"coordinates":[
131.43476829,
31.91328663
]
}
},
{
"type":"Feature",
"properties":{
"Name":"宮本街区公園",
"Jusho":"宮崎県宮崎市",
"Capacity":"－",
"la":"32.03740560000",
"ln":"131.47097559000"
},
"geometry":{
"type":"Point",
"coordinates":[
131.47097559,
32.0374056
]
}
},
{
"type":"Feature",
"properties":{
"Name":"郡司分公園",
"Jusho":"宮崎県宮崎市",
"Capacity":"－",
"la":"31.84923685000",
"ln":"131.42650306000"
},
"geometry":{
"type":"Point",
"coordinates":[
131.42650306,
31.84923685
]
}
},
{
"type":"Feature",
"properties":{
"Name":"県総合文化公園",
"Jusho":"宮崎県宮崎市船塚3丁目",
"Capacity":"－",
"la":"31.93163400000",
"ln":"131.41733800000"
},
"geometry":{
"type":"Point",
"coordinates":[
131.417338,
31.931634
]
}
},
{
"type":"Feature",
"properties":{
"Name":"原ノ久保児童公園",
"Jusho":"宮崎県宮崎市",
"Capacity":"－",
"la":"31.84994512000",
"ln":"131.39018848000"
},
"geometry":{
"type":"Point",
"coordinates":[
131.39018848,
31.84994512
]
}
},
{
"type":"Feature",
"properties":{
"Name":"光陽台中央街区公園",
"Jusho":"宮崎県宮崎市",
"Capacity":"－",
"la":"32.01657059000",
"ln":"131.46142294000"
},
"geometry":{
"type":"Point",
"coordinates":[
131.46142294,
32.01657059
]
}
},
{
"type":"Feature",
"properties":{
"Name":"広瀬台街区公園",
"Jusho":"宮崎県宮崎市",
"Capacity":"－",
"la":"32.02125603000",
"ln":"131.47397008000"
},
"geometry":{
"type":"Point",
"coordinates":[
131.47397008,
32.02125603
]
}
},
{
"type":"Feature",
"properties":{
"Name":"紅葉ヶ丘街区公園",
"Jusho":"宮崎県宮崎市",
"Capacity":"－",
"la":"31.92462283000",
"ln":"131.39780994000"
},
"geometry":{
"type":"Point",
"coordinates":[
131.39780994,
31.92462283
]
}
},
{
"type":"Feature",
"properties":{
"Name":"高千穂街区公園",
"Jusho":"宮崎県宮崎市",
"Capacity":"－",
"la":"31.92013452000",
"ln":"131.41455666000"
},
"geometry":{
"type":"Point",
"coordinates":[
131.41455666,
31.92013452
]
}
},
{
"type":"Feature",
"properties":{
"Name":"山の神公園",
"Jusho":"宮崎県宮崎市",
"Capacity":"－",
"la":"32.02747588000",
"ln":"131.43954093000"
},
"geometry":{
"type":"Point",
"coordinates":[
131.43954093,
32.02747588
]
}
},
{
"type":"Feature",
"properties":{
"Name":"住吉公園",
"Jusho":"宮崎県宮崎市",
"Capacity":"－",
"la":"31.98102194000",
"ln":"131.44998435000"
},
"geometry":{
"type":"Point",
"coordinates":[
131.44998435,
31.98102194
]
}
},
{
"type":"Feature",
"properties":{
"Name":"春田台街区公園",
"Jusho":"宮崎県宮崎市",
"Capacity":"－",
"la":"32.02265383000",
"ln":"131.47272081000"
},
"geometry":{
"type":"Point",
"coordinates":[
131.47272081,
32.02265383
]
}
},
{
"type":"Feature",
"properties":{
"Name":"小松台公園",
"Jusho":"宮崎県宮崎市",
"Capacity":"－",
"la":"31.93092613000",
"ln":"131.39246231000"
},
"geometry":{
"type":"Point",
"coordinates":[
131.39246231,
31.93092613
]
}
},
{
"type":"Feature",
"properties":{
"Name":"小松台南街区公園",
"Jusho":"宮崎県宮崎市",
"Capacity":"－",
"la":"31.92748929000",
"ln":"131.39162630000"
},
"geometry":{
"type":"Point",
"coordinates":[
131.3916263,
31.92748929
]
}
},
{
"type":"Feature",
"properties":{
"Name":"小牧台キリン街区公園",
"Jusho":"宮崎県宮崎市",
"Capacity":"－",
"la":"32.01950434000",
"ln":"131.46680767000"
},
"geometry":{
"type":"Point",
"coordinates":[
131.46680767,
32.01950434
]
}
},
{
"type":"Feature",
"properties":{
"Name":"小牧台中央三角街区公園",
"Jusho":"宮崎県宮崎市",
"Capacity":"－",
"la":"32.01741848000",
"ln":"131.46836714000"
},
"geometry":{
"type":"Point",
"coordinates":[
131.46836714,
32.01741848
]
}
},
{
"type":"Feature",
"properties":{
"Name":"上恒久１号街区公園",
"Jusho":"宮崎県宮崎市",
"Capacity":"－",
"la":"31.89322106000",
"ln":"131.39867813000"
},
"geometry":{
"type":"Point",
"coordinates":[
131.39867813,
31.89322106
]
}
},
{
"type":"Feature",
"properties":{
"Name":"上恒久２号街区公園",
"Jusho":"宮崎県宮崎市",
"Capacity":"－",
"la":"31.88977554000",
"ln":"131.40053278000"
},
"geometry":{
"type":"Point",
"coordinates":[
131.40053278,
31.88977554
]
}
},
{
"type":"Feature",
"properties":{
"Name":"上恒久３号街区公園",
"Jusho":"宮崎県宮崎市",
"Capacity":"－",
"la":"31.89034981000",
"ln":"131.40252391000"
},
"geometry":{
"type":"Point",
"coordinates":[
131.40252391,
31.89034981
]
}
},
{
"type":"Feature",
"properties":{
"Name":"城山公園",
"Jusho":"宮崎県宮崎市",
"Capacity":"－",
"la":"31.79267222920",
"ln":"131.47634610000"
},
"geometry":{
"type":"Point",
"coordinates":[
131.4763461,
31.7926722292
]
}
},
{
"type":"Feature",
"properties":{
"Name":"信成町公園",
"Jusho":"宮崎県宮崎市",
"Capacity":"－",
"la":"32.02805917000",
"ln":"131.42965685000"
},
"geometry":{
"type":"Point",
"coordinates":[
131.42965685,
32.02805917
]
}
},
{
"type":"Feature",
"properties":{
"Name":"新川街区公園",
"Jusho":"宮崎県宮崎市",
"Capacity":"－",
"la":"31.85551719140",
"ln":"131.39135286400"
},
"geometry":{
"type":"Point",
"coordinates":[
131.391352864,
31.8555171914
]
}
},
{
"type":"Feature",
"properties":{
"Name":"正手１号児童公園",
"Jusho":"宮崎県宮崎市",
"Capacity":"－",
"la":"31.86034503000",
"ln":"131.38613475000"
},
"geometry":{
"type":"Point",
"coordinates":[
131.38613475,
31.86034503
]
}
},
{
"type":"Feature",
"properties":{
"Name":"清武総合運動公園",
"Jusho":"宮崎県宮崎市",
"Capacity":"－",
"la":"31.84675216000",
"ln":"131.36951110000"
},
"geometry":{
"type":"Point",
"coordinates":[
131.3695111,
31.84675216
]
}
},
{
"type":"Feature",
"properties":{
"Name":"生目の杜運動公園",
"Jusho":"宮崎県宮崎市",
"Capacity":"3481",
"la":"31.94440084920",
"ln":"131.37532733000"
},
"geometry":{
"type":"Point",
"coordinates":[
131.37532733,
31.9444008492
]
}
},
{
"type":"Feature",
"properties":{
"Name":"生目台公園",
"Jusho":"宮崎県宮崎市",
"Capacity":"－",
"la":"31.90611547000",
"ln":"131.37461048000"
},
"geometry":{
"type":"Point",
"coordinates":[
131.37461048,
31.90611547
]
}
},
{
"type":"Feature",
"properties":{
"Name":"跡江公園",
"Jusho":"宮崎県宮崎市",
"Capacity":"－",
"la":"31.95492030000",
"ln":"131.39135066000"
},
"geometry":{
"type":"Point",
"coordinates":[
131.39135066,
31.9549203
]
}
},
{
"type":"Feature",
"properties":{
"Name":"前牟田街区公園",
"Jusho":"宮崎県宮崎市",
"Capacity":"－",
"la":"32.00499534610",
"ln":"131.47439364000"
},
"geometry":{
"type":"Point",
"coordinates":[
131.47439364,
32.0049953461
]
}
},
{
"type":"Feature",
"properties":{
"Name":"曽我公園",
"Jusho":"宮崎県宮崎市",
"Capacity":"－",
"la":"32.03942884000",
"ln":"131.45445242000"
},
"geometry":{
"type":"Point",
"coordinates":[
131.45445242,
32.03942884
]
}
},
{
"type":"Feature",
"properties":{
"Name":"倉岡ニュータウン街区公園",
"Jusho":"宮崎県宮崎市",
"Capacity":"－",
"la":"31.96068140000",
"ln":"131.36604481000"
},
"geometry":{
"type":"Point",
"coordinates":[
131.36604481,
31.9606814
]
}
},
{
"type":"Feature",
"properties":{
"Name":"大塚台３号街区公園",
"Jusho":"宮崎県宮崎市",
"Capacity":"－",
"la":"31.91622498000",
"ln":"131.38318934000"
},
"geometry":{
"type":"Point",
"coordinates":[
131.38318934,
31.91622498
]
}
},
{
"type":"Feature",
"properties":{
"Name":"大塚台公園",
"Jusho":"宮崎県宮崎市",
"Capacity":"－",
"la":"31.91395871000",
"ln":"131.38657286000"
},
"geometry":{
"type":"Point",
"coordinates":[
131.38657286,
31.91395871
]
}
},
{
"type":"Feature",
"properties":{
"Name":"大坪１号街区公園",
"Jusho":"宮崎県宮崎市",
"Capacity":"－",
"la":"31.90360520000",
"ln":"131.40625263000"
},
"geometry":{
"type":"Point",
"coordinates":[
131.40625263,
31.9036052
]
}
},
{
"type":"Feature",
"properties":{
"Name":"大坪２号街区公園",
"Jusho":"宮崎県宮崎市",
"Capacity":"－",
"la":"31.90016445000",
"ln":"131.39523417000"
},
"geometry":{
"type":"Point",
"coordinates":[
131.39523417,
31.90016445
]
}
},
{
"type":"Feature",
"properties":{
"Name":"大坪３号街区公園",
"Jusho":"宮崎県宮崎市",
"Capacity":"－",
"la":"31.90241858000",
"ln":"131.39761172000"
},
"geometry":{
"type":"Point",
"coordinates":[
131.39761172,
31.90241858
]
}
},
{
"type":"Feature",
"properties":{
"Name":"大坪４号街区公園",
"Jusho":"宮崎県宮崎市",
"Capacity":"－",
"la":"31.90300723000",
"ln":"131.40267033000"
},
"geometry":{
"type":"Point",
"coordinates":[
131.40267033,
31.90300723
]
}
},
{
"type":"Feature",
"properties":{
"Name":"大坪池公園",
"Jusho":"宮崎県宮崎市",
"Capacity":"－",
"la":"31.89965312000",
"ln":"131.40035893000"
},
"geometry":{
"type":"Point",
"coordinates":[
131.40035893,
31.89965312
]
}
},
{
"type":"Feature",
"properties":{
"Name":"大淀街区公園",
"Jusho":"宮崎県宮崎市",
"Capacity":"－",
"la":"31.89948349000",
"ln":"131.41552958000"
},
"geometry":{
"type":"Point",
"coordinates":[
131.41552958,
31.89948349
]
}
},
{
"type":"Feature",
"properties":{
"Name":"大淀台街区公園",
"Jusho":"宮崎県宮崎市",
"Capacity":"－",
"la":"31.90934152000",
"ln":"131.40026603000"
},
"geometry":{
"type":"Point",
"coordinates":[
131.40026603,
31.90934152
]
}
},
{
"type":"Feature",
"properties":{
"Name":"第２次池田台団地１号公園",
"Jusho":"宮崎県宮崎市",
"Capacity":"－",
"la":"31.87572967000",
"ln":"131.39668972000"
},
"geometry":{
"type":"Point",
"coordinates":[
131.39668972,
31.87572967
]
}
},
{
"type":"Feature",
"properties":{
"Name":"第３次池田台団地１号公園",
"Jusho":"宮崎県宮崎市",
"Capacity":"－",
"la":"31.87803858000",
"ln":"131.38957716000"
},
"geometry":{
"type":"Point",
"coordinates":[
131.38957716,
31.87803858
]
}
},
{
"type":"Feature",
"properties":{
"Name":"第３次池田台団地４号公園",
"Jusho":"宮崎県宮崎市",
"Capacity":"－",
"la":"31.87785132000",
"ln":"131.39249700000"
},
"geometry":{
"type":"Point",
"coordinates":[
131.392497,
31.87785132
]
}
},
{
"type":"Feature",
"properties":{
"Name":"中鶴街区公園",
"Jusho":"宮崎県宮崎市",
"Capacity":"－",
"la":"31.93336875000",
"ln":"131.41058342000"
},
"geometry":{
"type":"Point",
"coordinates":[
131.41058342,
31.93336875
]
}
},
{
"type":"Feature",
"properties":{
"Name":"天ヶ城公園",
"Jusho":"宮崎県宮崎市高岡町内山2007",
"Capacity":"836",
"la":"31.96093111920",
"ln":"131.29273010000"
},
"geometry":{
"type":"Point",
"coordinates":[
131.2927301,
31.9609311192
]
}
},
{
"type":"Feature",
"properties":{
"Name":"天神山公園",
"Jusho":"宮崎県宮崎市",
"Capacity":"－",
"la":"31.90277523000",
"ln":"131.41206033000"
},
"geometry":{
"type":"Point",
"coordinates":[
131.41206033,
31.90277523
]
}
},
{
"type":"Feature",
"properties":{
"Name":"田野運動公園",
"Jusho":"宮崎県宮崎市",
"Capacity":"－",
"la":"31.84356946000",
"ln":"131.30731474000"
},
"geometry":{
"type":"Point",
"coordinates":[
131.30731474,
31.84356946
]
}
},
{
"type":"Feature",
"properties":{
"Name":"東町街区公園",
"Jusho":"宮崎県宮崎市",
"Capacity":"－",
"la":"31.95694753000",
"ln":"131.41493257000"
},
"geometry":{
"type":"Point",
"coordinates":[
131.41493257,
31.95694753
]
}
},
{
"type":"Feature",
"properties":{
"Name":"二葉街区公園",
"Jusho":"宮崎県宮崎市",
"Capacity":"－",
"la":"31.91778457000",
"ln":"131.42194654000"
},
"geometry":{
"type":"Point",
"coordinates":[
131.42194654,
31.91778457
]
}
},
{
"type":"Feature",
"properties":{
"Name":"萩の台公園",
"Jusho":"宮崎県宮崎市",
"Capacity":"－",
"la":"31.99469066000",
"ln":"131.43196715000"
},
"geometry":{
"type":"Point",
"coordinates":[
131.43196715,
31.99469066
]
}
},
{
"type":"Feature",
"properties":{
"Name":"平原公園",
"Jusho":"宮崎県宮崎市大島町四反田623-2",
"Capacity":"－",
"la":"31.93816433000",
"ln":"131.44272775000"
},
"geometry":{
"type":"Point",
"coordinates":[
131.44272775,
31.93816433
]
}
},
{
"type":"Feature",
"properties":{
"Name":"平和が丘公園",
"Jusho":"宮崎県宮崎市平和が丘西町20-6外",
"Capacity":"－",
"la":"31.95714671000",
"ln":"131.41340819000"
},
"geometry":{
"type":"Point",
"coordinates":[
131.41340819,
31.95714671
]
}
},
{
"type":"Feature",
"properties":{
"Name":"宝塔山公園",
"Jusho":"宮崎県宮崎市",
"Capacity":"－",
"la":"32.04585137000",
"ln":"131.43335069000"
},
"geometry":{
"type":"Point",
"coordinates":[
131.43335069,
32.04585137
]
}
},
{
"type":"Feature",
"properties":{
"Name":"本郷北方街区公園",
"Jusho":"宮崎県宮崎市",
"Capacity":"－",
"la":"31.87043482000",
"ln":"131.42546194000"
},
"geometry":{
"type":"Point",
"coordinates":[
131.42546194,
31.87043482
]
}
},
{
"type":"Feature",
"properties":{
"Name":"霧島街区公園",
"Jusho":"宮崎県宮崎市",
"Capacity":"－",
"la":"31.92725402000",
"ln":"131.41667795000"
},
"geometry":{
"type":"Point",
"coordinates":[
131.41667795,
31.92725402
]
}
},
{
"type":"Feature",
"properties":{
"Name":"木花公園",
"Jusho":"宮崎県宮崎市",
"Capacity":"－",
"la":"31.82900965000",
"ln":"131.42850995000"
},
"geometry":{
"type":"Point",
"coordinates":[
131.42850995,
31.82900965
]
}
},
{
"type":"Feature",
"properties":{
"Name":"木原公園",
"Jusho":"宮崎県宮崎市",
"Capacity":"－",
"la":"31.83493144000",
"ln":"131.40691592000"
},
"geometry":{
"type":"Point",
"coordinates":[
131.40691592,
31.83493144
]
}
},
{
"type":"Feature",
"properties":{
"Name":"矢の先街区公園",
"Jusho":"宮崎県宮崎市",
"Capacity":"－",
"la":"31.93940862970",
"ln":"131.41860278800"
},
"geometry":{
"type":"Point",
"coordinates":[
131.418602788,
31.9394086297
]
}
},
{
"type":"Feature",
"properties":{
"Name":"和知川原街区公園",
"Jusho":"宮崎県宮崎市",
"Capacity":"－",
"la":"31.92324962000",
"ln":"131.41238009000"
},
"geometry":{
"type":"Point",
"coordinates":[
131.41238009,
31.92324962
]
}
},
{
"type":"Feature",
"properties":{
"Name":"和田山街区公園",
"Jusho":"宮崎県宮崎市",
"Capacity":"－",
"la":"32.01028635000",
"ln":"131.47376064000"
},
"geometry":{
"type":"Point",
"coordinates":[
131.47376064,
32.01028635
]
}
},
{
"type":"Feature",
"properties":{
"Name":"早水公園体育文化センター",
"Jusho":"宮崎県都城市早水町3867",
"Capacity":"2500",
"la":"31.73920103940",
"ln":"131.09335124600"
},
"geometry":{
"type":"Point",
"coordinates":[
131.093351246,
31.7392010394
]
}
},
{
"type":"Feature",
"properties":{
"Name":"高城運動公園総合体育館",
"Jusho":"宮崎県都城市高城町穂満坊2492",
"Capacity":"2000",
"la":"31.81294308060",
"ln":"131.13160224600"
},
"geometry":{
"type":"Point",
"coordinates":[
131.131602246,
31.8129430806
]
}
},
{
"type":"Feature",
"properties":{
"Name":"鵜之木地区防災公園",
"Jusho":"宮崎県日南市",
"Capacity":"－",
"la":"31.67433675280",
"ln":"131.37761638600"
},
"geometry":{
"type":"Point",
"coordinates":[
131.377616386,
31.6743367528
]
}
},
{
"type":"Feature",
"properties":{
"Name":"乙姫ニュータウン公園",
"Jusho":"宮崎県日南市",
"Capacity":"－",
"la":"31.58326536870",
"ln":"131.39968536800"
},
"geometry":{
"type":"Point",
"coordinates":[
131.399685368,
31.5832653687
]
}
},
{
"type":"Feature",
"properties":{
"Name":"海田街区公園",
"Jusho":"宮崎県日南市中平野1丁目9-6",
"Capacity":"－",
"la":"31.59015008000",
"ln":"131.38951922000"
},
"geometry":{
"type":"Point",
"coordinates":[
131.38951922,
31.59015008
]
}
},
{
"type":"Feature",
"properties":{
"Name":"岩崎街区公園",
"Jusho":"宮崎県日南市瀬西1丁目157-1",
"Capacity":"－",
"la":"31.58497367000",
"ln":"131.39950179000"
},
"geometry":{
"type":"Point",
"coordinates":[
131.39950179,
31.58497367
]
}
},
{
"type":"Feature",
"properties":{
"Name":"宮之前街区公園",
"Jusho":"宮崎県日南市大字星倉4丁目12-3",
"Capacity":"－",
"la":"31.61646260000",
"ln":"131.37148116000"
},
"geometry":{
"type":"Point",
"coordinates":[
131.37148116,
31.6164626
]
}
},
{
"type":"Feature",
"properties":{
"Name":"今町街区公園",
"Jusho":"宮崎県日南市今町2丁目15-1",
"Capacity":"－",
"la":"31.63086859000",
"ln":"131.36646348000"
},
"geometry":{
"type":"Point",
"coordinates":[
131.36646348,
31.63086859
]
}
},
{
"type":"Feature",
"properties":{
"Name":"前鶴街区公園",
"Jusho":"宮崎県日南市飫肥6丁目3846-1",
"Capacity":"－",
"la":"31.82342756000",
"ln":"131.41326647000"
},
"geometry":{
"type":"Point",
"coordinates":[
131.41326647,
31.82342756
]
}
},
{
"type":"Feature",
"properties":{
"Name":"中央街区公園",
"Jusho":"宮崎県日南市大字川北4890",
"Capacity":"－",
"la":"31.60110273000",
"ln":"131.37954918000"
},
"geometry":{
"type":"Point",
"coordinates":[
131.37954918,
31.60110273
]
}
},
{
"type":"Feature",
"properties":{
"Name":"中央公園",
"Jusho":"宮崎県日南市",
"Capacity":"－",
"la":"31.54203910000",
"ln":"131.37358050000"
},
"geometry":{
"type":"Point",
"coordinates":[
131.3735805,
31.5420391
]
}
},
{
"type":"Feature",
"properties":{
"Name":"中央児童公園",
"Jusho":"宮崎県日南市大字戸高1021-2",
"Capacity":"－",
"la":"31.60467632000",
"ln":"131.37367953000"
},
"geometry":{
"type":"Point",
"coordinates":[
131.37367953,
31.60467632
]
}
},
{
"type":"Feature",
"properties":{
"Name":"坪子池公園",
"Jusho":"宮崎県日南市",
"Capacity":"－",
"la":"31.49882675830",
"ln":"131.35843487800"
},
"geometry":{
"type":"Point",
"coordinates":[
131.358434878,
31.4988267583
]
}
},
{
"type":"Feature",
"properties":{
"Name":"天福球場・天福公園",
"Jusho":"宮崎県日南市天福2丁目6001",
"Capacity":"－",
"la":"31.58345337000",
"ln":"131.39633885000"
},
"geometry":{
"type":"Point",
"coordinates":[
131.39633885,
31.58345337
]
}
},
{
"type":"Feature",
"properties":{
"Name":"日南総合運動公園",
"Jusho":"宮崎県日南市大字殿所2200",
"Capacity":"－",
"la":"31.61630796000",
"ln":"131.38245856000"
},
"geometry":{
"type":"Point",
"coordinates":[
131.38245856,
31.61630796
]
}
},
{
"type":"Feature",
"properties":{
"Name":"農村公園",
"Jusho":"宮崎県日南市",
"Capacity":"－",
"la":"31.67621190510",
"ln":"131.36917568300"
},
"geometry":{
"type":"Point",
"coordinates":[
131.369175683,
31.6762119051
]
}
},
{
"type":"Feature",
"properties":{
"Name":"飛ヶ峯街区公園",
"Jusho":"宮崎県日南市今町2丁目22-1",
"Capacity":"－",
"la":"31.63141961000",
"ln":"131.36151838000"
},
"geometry":{
"type":"Point",
"coordinates":[
131.36151838,
31.63141961
]
}
},
{
"type":"Feature",
"properties":{
"Name":"平野街区公園",
"Jusho":"宮崎県日南市上平野2丁目9-1",
"Capacity":"－",
"la":"31.59521579000",
"ln":"131.38530106000"
},
"geometry":{
"type":"Point",
"coordinates":[
131.38530106,
31.59521579
]
}
},
{
"type":"Feature",
"properties":{
"Name":"蜂之巣公園",
"Jusho":"宮崎県日南市北郷町郷之原甲3853-1",
"Capacity":"－",
"la":"31.69633271520",
"ln":"131.36653056300"
},
"geometry":{
"type":"Point",
"coordinates":[
131.366530563,
31.6963327152
]
}
},
{
"type":"Feature",
"properties":{
"Name":"木山街区公園",
"Jusho":"宮崎県日南市木山2丁目29-5",
"Capacity":"－",
"la":"31.59304365000",
"ln":"131.39877259000"
},
"geometry":{
"type":"Point",
"coordinates":[
131.39877259,
31.59304365
]
}
},
{
"type":"Feature",
"properties":{
"Name":"目井津ヶ丘児童公園",
"Jusho":"宮崎県日南市",
"Capacity":"－",
"la":"31.54326124000",
"ln":"131.38297976000"
},
"geometry":{
"type":"Point",
"coordinates":[
131.38297976,
31.54326124
]
}
},
{
"type":"Feature",
"properties":{
"Name":"小林総合運動公園",
"Jusho":"宮崎県小林市南西方2085",
"Capacity":"－",
"la":"32.00125757000",
"ln":"130.95264142000"
},
"geometry":{
"type":"Point",
"coordinates":[
130.95264142,
32.00125757
]
}
},
{
"type":"Feature",
"properties":{
"Name":"永江児童公園",
"Jusho":"宮崎県日向市永江町2-20",
"Capacity":"－",
"la":"32.42459430000",
"ln":"131.63832685000"
},
"geometry":{
"type":"Point",
"coordinates":[
131.63832685,
32.4245943
]
}
},
{
"type":"Feature",
"properties":{
"Name":"塩見農村公園",
"Jusho":"宮崎県日向市塩見4605",
"Capacity":"－",
"la":"32.41389262120",
"ln":"131.60261439000"
},
"geometry":{
"type":"Point",
"coordinates":[
131.60261439,
32.4138926212
]
}
},
{
"type":"Feature",
"properties":{
"Name":"亀崎近隣公園",
"Jusho":"宮崎県日向市亀崎3-16",
"Capacity":"－",
"la":"32.43418526000",
"ln":"131.63189022000"
},
"geometry":{
"type":"Point",
"coordinates":[
131.63189022,
32.43418526
]
}
},
{
"type":"Feature",
"properties":{
"Name":"櫛の山公園",
"Jusho":"宮崎県日向市日知屋1400-78",
"Capacity":"－",
"la":"32.41470108830",
"ln":"131.64399793600"
},
"geometry":{
"type":"Point",
"coordinates":[
131.643997936,
32.4147010883
]
}
},
{
"type":"Feature",
"properties":{
"Name":"権現崎公園",
"Jusho":"宮崎県日向市幸脇17-5",
"Capacity":"－",
"la":"32.33979900000",
"ln":"131.61777100000"
},
"geometry":{
"type":"Point",
"coordinates":[
131.617771,
32.339799
]
}
},
{
"type":"Feature",
"properties":{
"Name":"原町児童公園",
"Jusho":"宮崎県日向市原町2-13",
"Capacity":"－",
"la":"32.42431151000",
"ln":"131.63340802000"
},
"geometry":{
"type":"Point",
"coordinates":[
131.63340802,
32.42431151
]
}
},
{
"type":"Feature",
"properties":{
"Name":"御鉾ヶ浦公園",
"Jusho":"宮崎県日向市細島93-1",
"Capacity":"－",
"la":"32.42248690000",
"ln":"131.67429911000"
},
"geometry":{
"type":"Point",
"coordinates":[
131.67429911,
32.4224869
]
}
},
{
"type":"Feature",
"properties":{
"Name":"向江第一児童公園",
"Jusho":"宮崎県日向市向江町1-85",
"Capacity":"－",
"la":"32.43010423910",
"ln":"131.63292223000"
},
"geometry":{
"type":"Point",
"coordinates":[
131.63292223,
32.4301042391
]
}
},
{
"type":"Feature",
"properties":{
"Name":"江良近隣公園",
"Jusho":"宮崎県日向市江良町2-81",
"Capacity":"－",
"la":"32.42188180000",
"ln":"131.64034535000"
},
"geometry":{
"type":"Point",
"coordinates":[
131.64034535,
32.4218818
]
}
},
{
"type":"Feature",
"properties":{
"Name":"高砂児童公園",
"Jusho":"宮崎県日向市高砂町199",
"Capacity":"－",
"la":"32.42048004910",
"ln":"131.62879269000"
},
"geometry":{
"type":"Point",
"coordinates":[
131.62879269,
32.4204800491
]
}
},
{
"type":"Feature",
"properties":{
"Name":"若宮近隣公園",
"Jusho":"宮崎県日向市富高6982",
"Capacity":"－",
"la":"32.42620925000",
"ln":"131.62186744000"
},
"geometry":{
"type":"Point",
"coordinates":[
131.62186744,
32.42620925
]
}
},
{
"type":"Feature",
"properties":{
"Name":"新生児童公園",
"Jusho":"宮崎県日向市新生町1-48",
"Capacity":"－",
"la":"32.42068928000",
"ln":"131.63328968000"
},
"geometry":{
"type":"Point",
"coordinates":[
131.63328968,
32.42068928
]
}
},
{
"type":"Feature",
"properties":{
"Name":"西前山児童公園",
"Jusho":"宮崎県日向市原町3-47",
"Capacity":"－",
"la":"32.42193286910",
"ln":"131.63333366000"
},
"geometry":{
"type":"Point",
"coordinates":[
131.63333366,
32.4219328691
]
}
},
{
"type":"Feature",
"properties":{
"Name":"大王谷運動公園野球場",
"Jusho":"宮崎県日向市日知屋12106",
"Capacity":"－",
"la":"32.44383430460",
"ln":"131.63719251700"
},
"geometry":{
"type":"Point",
"coordinates":[
131.637192517,
32.4438343046
]
}
},
{
"type":"Feature",
"properties":{
"Name":"鶴町児童公園",
"Jusho":"宮崎県日向市鶴町2-34",
"Capacity":"－",
"la":"32.42735660000",
"ln":"131.63156723000"
},
"geometry":{
"type":"Point",
"coordinates":[
131.63156723,
32.4273566
]
}
},
{
"type":"Feature",
"properties":{
"Name":"幡浦公園",
"Jusho":"宮崎県日向市日知屋5770-1",
"Capacity":"－",
"la":"32.43164690980",
"ln":"131.65377569200"
},
"geometry":{
"type":"Point",
"coordinates":[
131.653775692,
32.4316469098
]
}
},
{
"type":"Feature",
"properties":{
"Name":"飯谷農村公園",
"Jusho":"宮崎県日向市幸脇1724-乙",
"Capacity":"－",
"la":"32.34978057830",
"ln":"131.59488603400"
},
"geometry":{
"type":"Point",
"coordinates":[
131.594886034,
32.3497805783
]
}
},
{
"type":"Feature",
"properties":{
"Name":"蛭子児童公園",
"Jusho":"宮崎県日向市原町1-65",
"Capacity":"－",
"la":"32.42274512000",
"ln":"131.62953175000"
},
"geometry":{
"type":"Point",
"coordinates":[
131.62953175,
32.42274512
]
}
},
{
"type":"Feature",
"properties":{
"Name":"平岩農村公園",
"Jusho":"宮崎県日向市平岩360-3",
"Capacity":"－",
"la":"32.37237267290",
"ln":"131.62675658300"
},
"geometry":{
"type":"Point",
"coordinates":[
131.626756583,
32.3723726729
]
}
},
{
"type":"Feature",
"properties":{
"Name":"市総合運動公園",
"Jusho":"宮崎県串間市大字西方9080-1",
"Capacity":"－",
"la":"31.46825750000",
"ln":"131.21922976000"
},
"geometry":{
"type":"Point",
"coordinates":[
131.21922976,
31.4682575
]
}
},
{
"type":"Feature",
"properties":{
"Name":"西都原運動公園屋内練習場",
"Jusho":"宮崎県西都市大字三宅字上宮",
"Capacity":"－",
"la":"32.10725392000",
"ln":"131.39138081000"
},
"geometry":{
"type":"Point",
"coordinates":[
131.39138081,
32.10725392
]
}
},
{
"type":"Feature",
"properties":{
"Name":"永山運動公園",
"Jusho":"宮崎県えびの市大字永山785番地",
"Capacity":"－",
"la":"32.05338639000",
"ln":"130.80633014000"
},
"geometry":{
"type":"Point",
"coordinates":[
130.80633014,
32.05338639
]
}
},
{
"type":"Feature",
"properties":{
"Name":"王子原運動公園",
"Jusho":"宮崎県えびの市大字島内2044番地",
"Capacity":"－",
"la":"32.04545136260",
"ln":"130.78056053100"
},
"geometry":{
"type":"Point",
"coordinates":[
130.780560531,
32.0454513626
]
}
},
{
"type":"Feature",
"properties":{
"Name":"神社原運動公園",
"Jusho":"宮崎県えびの市大字原田2000番地",
"Capacity":"－",
"la":"32.02886187000",
"ln":"130.86945346000"
},
"geometry":{
"type":"Point",
"coordinates":[
130.86945346,
32.02886187
]
}
},
{
"type":"Feature",
"properties":{
"Name":"ひえだ公園",
"Jusho":"宮崎県北諸県郡三股町",
"Capacity":"－",
"la":"31.72990159000",
"ln":"131.10888463000"
},
"geometry":{
"type":"Point",
"coordinates":[
131.10888463,
31.72990159
]
}
},
{
"type":"Feature",
"properties":{
"Name":"旭ケ丘運動公園",
"Jusho":"宮崎県北諸県郡三股町",
"Capacity":"－",
"la":"31.75383778000",
"ln":"131.11649882000"
},
"geometry":{
"type":"Point",
"coordinates":[
131.11649882,
31.75383778
]
}
},
{
"type":"Feature",
"properties":{
"Name":"一町田公園",
"Jusho":"宮崎県北諸県郡三股町",
"Capacity":"－",
"la":"31.70887243000",
"ln":"131.12093290000"
},
"geometry":{
"type":"Point",
"coordinates":[
131.1209329,
31.70887243
]
}
},
{
"type":"Feature",
"properties":{
"Name":"上米公園",
"Jusho":"宮崎県北諸県郡三股町",
"Capacity":"－",
"la":"31.72559943000",
"ln":"131.13690709000"
},
"geometry":{
"type":"Point",
"coordinates":[
131.13690709,
31.72559943
]
}
},
{
"type":"Feature",
"properties":{
"Name":"植木公園",
"Jusho":"宮崎県北諸県郡三股町",
"Capacity":"－",
"la":"31.72289760000",
"ln":"131.10879746000"
},
"geometry":{
"type":"Point",
"coordinates":[
131.10879746,
31.7228976
]
}
},
{
"type":"Feature",
"properties":{
"Name":"新馬場公園",
"Jusho":"宮崎県北諸県郡三股町",
"Capacity":"－",
"la":"31.74003817000",
"ln":"131.11308088000"
},
"geometry":{
"type":"Point",
"coordinates":[
131.11308088,
31.74003817
]
}
},
{
"type":"Feature",
"properties":{
"Name":"椎八重公園",
"Jusho":"宮崎県北諸県郡三股町",
"Capacity":"－",
"la":"31.74723813270",
"ln":"131.21234626900"
},
"geometry":{
"type":"Point",
"coordinates":[
131.212346269,
31.7472381327
]
}
},
{
"type":"Feature",
"properties":{
"Name":"蓼池公園",
"Jusho":"宮崎県北諸県郡三股町",
"Capacity":"－",
"la":"31.76280984000",
"ln":"131.12034563000"
},
"geometry":{
"type":"Point",
"coordinates":[
131.12034563,
31.76280984
]
}
},
{
"type":"Feature",
"properties":{
"Name":"割付ふれあい公園",
"Jusho":"宮崎県東諸県郡綾町大字北俣2986-1",
"Capacity":"－",
"la":"32.01080985180",
"ln":"131.23466026500"
},
"geometry":{
"type":"Point",
"coordinates":[
131.234660265,
32.0108098518
]
}
},
{
"type":"Feature",
"properties":{
"Name":"宮原ふれあい公園",
"Jusho":"宮崎県東諸県郡綾町大字南俣4748-2",
"Capacity":"－",
"la":"32.00775300000",
"ln":"131.27278300000"
},
"geometry":{
"type":"Point",
"coordinates":[
131.272783,
32.007753
]
}
},
{
"type":"Feature",
"properties":{
"Name":"宮谷ふれあい公園",
"Jusho":"宮崎県東諸県郡綾町大字南俣4375",
"Capacity":"－",
"la":"31.99090800000",
"ln":"131.24426000000"
},
"geometry":{
"type":"Point",
"coordinates":[
131.24426,
31.990908
]
}
},
{
"type":"Feature",
"properties":{
"Name":"錦原運動公園",
"Jusho":"宮崎県東諸県郡綾町大字南俣2868",
"Capacity":"－",
"la":"32.00189908000",
"ln":"131.24718259000"
},
"geometry":{
"type":"Point",
"coordinates":[
131.24718259,
32.00189908
]
}
},
{
"type":"Feature",
"properties":{
"Name":"古屋ふれあい公園",
"Jusho":"宮崎県東諸県郡綾町大字入野1785",
"Capacity":"－",
"la":"31.98812621660",
"ln":"131.25658527400"
},
"geometry":{
"type":"Point",
"coordinates":[
131.256585274,
31.9881262166
]
}
},
{
"type":"Feature",
"properties":{
"Name":"四枝ふれあい公園",
"Jusho":"宮崎県東諸県郡綾町大字南俣2019-2",
"Capacity":"－",
"la":"31.99740700000",
"ln":"131.23317800000"
},
"geometry":{
"type":"Point",
"coordinates":[
131.233178,
31.997407
]
}
},
{
"type":"Feature",
"properties":{
"Name":"自然休養村公園（小田爪）",
"Jusho":"宮崎県東諸県郡綾町大字北俣3739",
"Capacity":"－",
"la":"32.01677808420",
"ln":"131.24422388400"
},
"geometry":{
"type":"Point",
"coordinates":[
131.244223884,
32.0167780842
]
}
},
{
"type":"Feature",
"properties":{
"Name":"上畑ふれあい公園",
"Jusho":"宮崎県東諸県郡綾町大字入野4-3",
"Capacity":"－",
"la":"32.00010100000",
"ln":"131.22526100000"
},
"geometry":{
"type":"Point",
"coordinates":[
131.225261,
32.000101
]
}
},
{
"type":"Feature",
"properties":{
"Name":"神下ふれあい公園",
"Jusho":"宮崎県東諸県郡綾町大字南俣192-3",
"Capacity":"－",
"la":"31.99700319610",
"ln":"131.26390701400"
},
"geometry":{
"type":"Point",
"coordinates":[
131.263907014,
31.9970031961
]
}
},
{
"type":"Feature",
"properties":{
"Name":"陣之尾ふれあい公園",
"Jusho":"宮崎県東諸県郡綾町大字南俣5511-158",
"Capacity":"－",
"la":"31.99984000000",
"ln":"131.21176600000"
},
"geometry":{
"type":"Point",
"coordinates":[
131.211766,
31.99984
]
}
},
{
"type":"Feature",
"properties":{
"Name":"西中坪ふれあい公園",
"Jusho":"宮崎県東諸県郡綾町大字北俣402-2",
"Capacity":"－",
"la":"31.99993622440",
"ln":"131.25819348200"
},
"geometry":{
"type":"Point",
"coordinates":[
131.258193482,
31.9999362244
]
}
},
{
"type":"Feature",
"properties":{
"Name":"中央ふれあい公園",
"Jusho":"宮崎県東諸県郡綾町大字南俣530",
"Capacity":"－",
"la":"31.99982915720",
"ln":"131.25247980100"
},
"geometry":{
"type":"Point",
"coordinates":[
131.252479801,
31.9998291572
]
}
},
{
"type":"Feature",
"properties":{
"Name":"中坪ふれあい公園",
"Jusho":"宮崎県東諸県郡綾町大字南俣333",
"Capacity":"－",
"la":"31.99771262350",
"ln":"131.25671049200"
},
"geometry":{
"type":"Point",
"coordinates":[
131.256710492,
31.9977126235
]
}
},
{
"type":"Feature",
"properties":{
"Name":"中堂ふれあい公園",
"Jusho":"宮崎県東諸県郡綾町大字南俣2534-1",
"Capacity":"－",
"la":"31.99787335740",
"ln":"131.24026100000"
},
"geometry":{
"type":"Point",
"coordinates":[
131.240261,
31.9978733574
]
}
},
{
"type":"Feature",
"properties":{
"Name":"中堂運動公園",
"Jusho":"宮崎県東諸県郡綾町大字南俣2432",
"Capacity":"－",
"la":"32.00062020760",
"ln":"131.23788332400"
},
"geometry":{
"type":"Point",
"coordinates":[
131.237883324,
32.0006202076
]
}
},
{
"type":"Feature",
"properties":{
"Name":"東中坪ふれあい公園",
"Jusho":"宮崎県東諸県郡綾町大字入野1216-3",
"Capacity":"－",
"la":"31.99776761290",
"ln":"131.26108870200"
},
"geometry":{
"type":"Point",
"coordinates":[
131.261088702,
31.9977676129
]
}
},
{
"type":"Feature",
"properties":{
"Name":"二反野ふれあい公園",
"Jusho":"宮崎県東諸県郡綾町大字南俣5176-48",
"Capacity":"－",
"la":"31.98210999630",
"ln":"131.22743024400"
},
"geometry":{
"type":"Point",
"coordinates":[
131.227430244,
31.9821099963
]
}
},
{
"type":"Feature",
"properties":{
"Name":"入野ふれあい公園",
"Jusho":"宮崎県東諸県郡綾町大字入野4133-3",
"Capacity":"－",
"la":"32.00423000000",
"ln":"131.26896300000"
},
"geometry":{
"type":"Point",
"coordinates":[
131.268963,
32.00423
]
}
},
{
"type":"Feature",
"properties":{
"Name":"尾立ふれあい公園",
"Jusho":"宮崎県東諸県郡綾町大字北俣4926-5",
"Capacity":"－",
"la":"32.01802321430",
"ln":"131.22140495700"
},
"geometry":{
"type":"Point",
"coordinates":[
131.221404957,
32.0180232143
]
}
},
{
"type":"Feature",
"properties":{
"Name":"杢道ふれあい公園",
"Jusho":"宮崎県東諸県郡綾町大字北俣2139",
"Capacity":"－",
"la":"32.01403181390",
"ln":"131.23861019700"
},
"geometry":{
"type":"Point",
"coordinates":[
131.238610197,
32.0140318139
]
}
},
{
"type":"Feature",
"properties":{
"Name":"揚ふれあい公園",
"Jusho":"宮崎県東諸県郡綾町大字南俣1093",
"Capacity":"－",
"la":"31.99654600000",
"ln":"131.24526000000"
},
"geometry":{
"type":"Point",
"coordinates":[
131.24526,
31.996546
]
}
},
{
"type":"Feature",
"properties":{
"Name":"立町ふれあい公園",
"Jusho":"宮崎県東諸県郡綾町大字南俣796",
"Capacity":"－",
"la":"31.99697689150",
"ln":"131.25141618700"
},
"geometry":{
"type":"Point",
"coordinates":[
131.251416187,
31.9969768915
]
}
},
{
"type":"Feature",
"properties":{
"Name":"麓ふれあい公園",
"Jusho":"宮崎県東諸県郡綾町大字北俣926-1",
"Capacity":"－",
"la":"32.00415526210",
"ln":"131.25265555600"
},
"geometry":{
"type":"Point",
"coordinates":[
131.252655556,
32.0041552621
]
}
},
{
"type":"Feature",
"properties":{
"Name":"さくら南公園",
"Jusho":"宮崎県児湯郡新富町",
"Capacity":"－",
"la":"32.06845423000",
"ln":"131.48984373000"
},
"geometry":{
"type":"Point",
"coordinates":[
131.48984373,
32.06845423
]
}
},
{
"type":"Feature",
"properties":{
"Name":"湖水ヶ池公園",
"Jusho":"宮崎県児湯郡新富町大字日置820-6",
"Capacity":"－",
"la":"32.07910451000",
"ln":"131.51222538000"
},
"geometry":{
"type":"Point",
"coordinates":[
131.51222538,
32.07910451
]
}
},
{
"type":"Feature",
"properties":{
"Name":"南２号公園",
"Jusho":"宮崎県児湯郡新富町",
"Capacity":"－",
"la":"32.06603913000",
"ln":"131.49242166000"
},
"geometry":{
"type":"Point",
"coordinates":[
131.49242166,
32.06603913
]
}
},
{
"type":"Feature",
"properties":{
"Name":"南３号公園",
"Jusho":"宮崎県児湯郡新富町",
"Capacity":"－",
"la":"32.06524341000",
"ln":"131.48654588000"
},
"geometry":{
"type":"Point",
"coordinates":[
131.48654588,
32.06524341
]
}
},
{
"type":"Feature",
"properties":{
"Name":"南４号公園",
"Jusho":"宮崎県児湯郡新富町",
"Capacity":"－",
"la":"32.06336339000",
"ln":"131.48905584000"
},
"geometry":{
"type":"Point",
"coordinates":[
131.48905584,
32.06336339
]
}
},
{
"type":"Feature",
"properties":{
"Name":"南５号公園",
"Jusho":"宮崎県児湯郡新富町",
"Capacity":"－",
"la":"32.06660670000",
"ln":"131.48907745000"
},
"geometry":{
"type":"Point",
"coordinates":[
131.48907745,
32.0666067
]
}
},
{
"type":"Feature",
"properties":{
"Name":"平田児童公園",
"Jusho":"宮崎県児湯郡新富町",
"Capacity":"－",
"la":"32.06969925000",
"ln":"131.48757122000"
},
"geometry":{
"type":"Point",
"coordinates":[
131.48757122,
32.06969925
]
}
},
{
"type":"Feature",
"properties":{
"Name":"北２号公園",
"Jusho":"宮崎県児湯郡新富町",
"Capacity":"－",
"la":"32.07160119000",
"ln":"131.49464762000"
},
"geometry":{
"type":"Point",
"coordinates":[
131.49464762,
32.07160119
]
}
},
{
"type":"Feature",
"properties":{
"Name":"北３号公園",
"Jusho":"宮崎県児湯郡新富町",
"Capacity":"－",
"la":"32.07257097000",
"ln":"131.49533825000"
},
"geometry":{
"type":"Point",
"coordinates":[
131.49533825,
32.07257097
]
}
},
{
"type":"Feature",
"properties":{
"Name":"北４号公園",
"Jusho":"宮崎県児湯郡新富町",
"Capacity":"－",
"la":"32.06868327000",
"ln":"131.49601127000"
},
"geometry":{
"type":"Point",
"coordinates":[
131.49601127,
32.06868327
]
}
},
{
"type":"Feature",
"properties":{
"Name":"城山公園",
"Jusho":"宮崎県児湯郡木城町大字高城3760番地1",
"Capacity":"500",
"la":"32.16782678080",
"ln":"131.47486349900"
},
"geometry":{
"type":"Point",
"coordinates":[
131.474863499,
32.1678267808
]
}
},
{
"type":"Feature",
"properties":{
"Name":"山本農村公園",
"Jusho":"宮崎県児湯郡川南町大字川南26907番地10",
"Capacity":"－",
"la":"32.23419765270",
"ln":"131.49897545300"
},
"geometry":{
"type":"Point",
"coordinates":[
131.498975453,
32.2341976527
]
}
},
{
"type":"Feature",
"properties":{
"Name":"十文字農村公園",
"Jusho":"宮崎県児湯郡川南町大字川南1568番地",
"Capacity":"－",
"la":"32.18681797040",
"ln":"131.48125323400"
},
"geometry":{
"type":"Point",
"coordinates":[
131.481253234,
32.1868179704
]
}
},
{
"type":"Feature",
"properties":{
"Name":"川南町運動公園",
"Jusho":"宮崎県児湯郡川南町",
"Capacity":"－",
"la":"32.19212470000",
"ln":"131.53199821000"
},
"geometry":{
"type":"Point",
"coordinates":[
131.53199821,
32.1921247
]
}
},
{
"type":"Feature",
"properties":{
"Name":"通山農村公園",
"Jusho":"宮崎県児湯郡川南町大字平田6655番地1",
"Capacity":"－",
"la":"32.17005101510",
"ln":"131.53287878100"
},
"geometry":{
"type":"Point",
"coordinates":[
131.532878781,
32.1700510151
]
}
},
{
"type":"Feature",
"properties":{
"Name":"東地区運動公園",
"Jusho":"宮崎県児湯郡川南町大字川南9361番地1",
"Capacity":"－",
"la":"32.23001760450",
"ln":"131.55929095800"
},
"geometry":{
"type":"Point",
"coordinates":[
131.559290958,
32.2300176045
]
}
},
{
"type":"Feature",
"properties":{
"Name":"一の宮公園",
"Jusho":"宮崎県児湯郡都農町",
"Capacity":"－",
"la":"32.26273548000",
"ln":"131.55939575000"
},
"geometry":{
"type":"Point",
"coordinates":[
131.55939575,
32.26273548
]
}
},
{
"type":"Feature",
"properties":{
"Name":"新町街区公園",
"Jusho":"宮崎県児湯郡都農町大字川北4733-2",
"Capacity":"－",
"la":"32.25247411000",
"ln":"131.55789543000"
},
"geometry":{
"type":"Point",
"coordinates":[
131.55789543,
32.25247411
]
}
},
{
"type":"Feature",
"properties":{
"Name":"中央街区公園",
"Jusho":"宮崎県児湯郡都農町大字川北4890",
"Capacity":"－",
"la":"32.25515033910",
"ln":"131.56106549000"
},
"geometry":{
"type":"Point",
"coordinates":[
131.56106549,
32.2551503391
]
}
},
{
"type":"Feature",
"properties":{
"Name":"中町街区公園",
"Jusho":"宮崎県児湯郡都農町大字川北4918-1",
"Capacity":"－",
"la":"32.25645195910",
"ln":"131.56029768000"
},
"geometry":{
"type":"Point",
"coordinates":[
131.56029768,
32.2564519591
]
}
},
{
"type":"Feature",
"properties":{
"Name":"藤見公園",
"Jusho":"宮崎県児湯郡都農町",
"Capacity":"－",
"la":"32.26677563000",
"ln":"131.55673777000"
},
"geometry":{
"type":"Point",
"coordinates":[
131.55673777,
32.26677563
]
}
},
{
"type":"Feature",
"properties":{
"Name":"総合運動公園体育館",
"Jusho":"宮崎県東臼杵郡椎葉村下福良54-2",
"Capacity":"250",
"la":"32.45507526380",
"ln":"131.14773521600"
},
"geometry":{
"type":"Point",
"coordinates":[
131.147735216,
32.4550752638
]
}
},
{
"type":"Feature",
"properties":{
"Name":"旭ケ丘第１街区公園",
"Jusho":"宮崎県延岡市",
"Capacity":"－",
"la":"32.52325203000",
"ln":"131.68176556000"
},
"geometry":{
"type":"Point",
"coordinates":[
131.68176556,
32.52325203
]
}
},
{
"type":"Feature",
"properties":{
"Name":"旭ケ丘第２街区公園",
"Jusho":"宮崎県延岡市旭ケ丘",
"Capacity":"－",
"la":"32.52982108000",
"ln":"131.68044487000"
},
"geometry":{
"type":"Point",
"coordinates":[
131.68044487,
32.52982108
]
}
},
{
"type":"Feature",
"properties":{
"Name":"伊達街区公園",
"Jusho":"宮崎県延岡市伊達町",
"Capacity":"－",
"la":"32.56129966000",
"ln":"131.67551588000"
},
"geometry":{
"type":"Point",
"coordinates":[
131.67551588,
32.56129966
]
}
},
{
"type":"Feature",
"properties":{
"Name":"一ケ岡第１街区公園",
"Jusho":"宮崎県延岡市北一ケ岡",
"Capacity":"－",
"la":"32.52689673910",
"ln":"131.67612448000"
},
"geometry":{
"type":"Point",
"coordinates":[
131.67612448,
32.5268967391
]
}
},
{
"type":"Feature",
"properties":{
"Name":"一ケ岡第２街区公園",
"Jusho":"宮崎県延岡市南一ケ岡",
"Capacity":"－",
"la":"32.52292266910",
"ln":"131.67995613000"
},
"geometry":{
"type":"Point",
"coordinates":[
131.67995613,
32.5229226691
]
}
},
{
"type":"Feature",
"properties":{
"Name":"一ケ岡第３街区公園",
"Jusho":"宮崎県延岡市南一ケ岡",
"Capacity":"－",
"la":"32.52125970400",
"ln":"131.67764936000"
},
"geometry":{
"type":"Point",
"coordinates":[
131.67764936,
32.521259704
]
}
},
{
"type":"Feature",
"properties":{
"Name":"一ケ岡第４街区公園",
"Jusho":"宮崎県延岡市南一ケ岡",
"Capacity":"－",
"la":"32.51809640000",
"ln":"131.67883776000"
},
"geometry":{
"type":"Point",
"coordinates":[
131.67883776,
32.5180964
]
}
},
{
"type":"Feature",
"properties":{
"Name":"一ケ岡中央公園",
"Jusho":"宮崎県延岡市北一ケ岡",
"Capacity":"－",
"la":"32.52398527000",
"ln":"131.67653688000"
},
"geometry":{
"type":"Point",
"coordinates":[
131.67653688,
32.52398527
]
}
},
{
"type":"Feature",
"properties":{
"Name":"一ヶ岡中央公園（伊福形神社山）",
"Jusho":"宮崎県延岡市新浜町1・2丁目",
"Capacity":"－",
"la":"32.52445727770",
"ln":"131.67535037900"
},
"geometry":{
"type":"Point",
"coordinates":[
131.675350379,
32.5244572777
]
}
},
{
"type":"Feature",
"properties":{
"Name":"塩浜第１街区公園",
"Jusho":"宮崎県延岡市塩浜町",
"Capacity":"－",
"la":"32.54135969000",
"ln":"131.67435194000"
},
"geometry":{
"type":"Point",
"coordinates":[
131.67435194,
32.54135969
]
}
},
{
"type":"Feature",
"properties":{
"Name":"塩浜第４街区（児童）公園",
"Jusho":"宮崎県延岡市塩浜町",
"Capacity":"－",
"la":"32.54089903000",
"ln":"131.67047938000"
},
"geometry":{
"type":"Point",
"coordinates":[
131.67047938,
32.54089903
]
}
},
{
"type":"Feature",
"properties":{
"Name":"塩浜緑地公園",
"Jusho":"宮崎県延岡市塩浜町",
"Capacity":"－",
"la":"32.54146531910",
"ln":"131.67344412000"
},
"geometry":{
"type":"Point",
"coordinates":[
131.67344412,
32.5414653191
]
}
},
{
"type":"Feature",
"properties":{
"Name":"岡富公園墓地",
"Jusho":"宮崎県延岡市北小路",
"Capacity":"－",
"la":"32.58663391020",
"ln":"131.66310093100"
},
"geometry":{
"type":"Point",
"coordinates":[
131.663100931,
32.5866339102
]
}
},
{
"type":"Feature",
"properties":{
"Name":"沖田第１街区公園",
"Jusho":"宮崎県延岡市沖田町",
"Capacity":"－",
"la":"32.54883265000",
"ln":"131.66806024000"
},
"geometry":{
"type":"Point",
"coordinates":[
131.66806024,
32.54883265
]
}
},
{
"type":"Feature",
"properties":{
"Name":"今山公園",
"Jusho":"宮崎県延岡市祇園町",
"Capacity":"－",
"la":"32.58783754910",
"ln":"131.66840146000"
},
"geometry":{
"type":"Point",
"coordinates":[
131.66840146,
32.5878375491
]
}
},
{
"type":"Feature",
"properties":{
"Name":"紺屋町街区公園",
"Jusho":"宮崎県延岡市紺屋町",
"Capacity":"－",
"la":"32.58432262000",
"ln":"131.67227597000"
},
"geometry":{
"type":"Point",
"coordinates":[
131.67227597,
32.58432262
]
}
},
{
"type":"Feature",
"properties":{
"Name":"桜ケ丘ふれあい公園",
"Jusho":"宮崎県延岡市桜ケ丘",
"Capacity":"－",
"la":"32.61472390000",
"ln":"131.66967624000"
},
"geometry":{
"type":"Point",
"coordinates":[
131.66967624,
32.6147239
]
}
},
{
"type":"Feature",
"properties":{
"Name":"三松緑地公園",
"Jusho":"宮崎県延岡市妙見町",
"Capacity":"－",
"la":"32.50794085000",
"ln":"131.68483117000"
},
"geometry":{
"type":"Point",
"coordinates":[
131.68483117,
32.50794085
]
}
},
{
"type":"Feature",
"properties":{
"Name":"市営土々呂団地北側公園",
"Jusho":"宮崎県延岡市土々呂町",
"Capacity":"－",
"la":"32.50702500000",
"ln":"131.67037000000"
},
"geometry":{
"type":"Point",
"coordinates":[
131.67037,
32.507025
]
}
},
{
"type":"Feature",
"properties":{
"Name":"出北第１街区公園",
"Jusho":"宮崎県延岡市浜砂",
"Capacity":"－",
"la":"32.58159913000",
"ln":"131.68284039000"
},
"geometry":{
"type":"Point",
"coordinates":[
131.68284039,
32.58159913
]
}
},
{
"type":"Feature",
"properties":{
"Name":"出北第２街区（児童）公園",
"Jusho":"宮崎県延岡市惣領町",
"Capacity":"－",
"la":"32.58052583000",
"ln":"131.68011891000"
},
"geometry":{
"type":"Point",
"coordinates":[
131.68011891,
32.58052583
]
}
},
{
"type":"Feature",
"properties":{
"Name":"出北第３街区公園",
"Jusho":"宮崎県延岡市浜砂",
"Capacity":"－",
"la":"32.57885229000",
"ln":"131.68434654000"
},
"geometry":{
"type":"Point",
"coordinates":[
131.68434654,
32.57885229
]
}
},
{
"type":"Feature",
"properties":{
"Name":"出北第４街区公園",
"Jusho":"宮崎県延岡市出北",
"Capacity":"－",
"la":"32.57716019000",
"ln":"131.67831553000"
},
"geometry":{
"type":"Point",
"coordinates":[
131.67831553,
32.57716019
]
}
},
{
"type":"Feature",
"properties":{
"Name":"出北第５街区公園",
"Jusho":"宮崎県延岡市出北",
"Capacity":"－",
"la":"32.57702737000",
"ln":"131.68226777000"
},
"geometry":{
"type":"Point",
"coordinates":[
131.68226777,
32.57702737
]
}
},
{
"type":"Feature",
"properties":{
"Name":"出北第６街区（児童）公園",
"Jusho":"宮崎県延岡市出北",
"Capacity":"－",
"la":"32.57542764000",
"ln":"131.68559472000"
},
"geometry":{
"type":"Point",
"coordinates":[
131.68559472,
32.57542764
]
}
},
{
"type":"Feature",
"properties":{
"Name":"出北第７街区（児童）公園",
"Jusho":"宮崎県延岡市出北",
"Capacity":"－",
"la":"32.57487029000",
"ln":"131.68200341000"
},
"geometry":{
"type":"Point",
"coordinates":[
131.68200341,
32.57487029
]
}
},
{
"type":"Feature",
"properties":{
"Name":"出北第８街区（児童）公園",
"Jusho":"宮崎県延岡市出北",
"Capacity":"－",
"la":"32.57216175000",
"ln":"131.68070070000"
},
"geometry":{
"type":"Point",
"coordinates":[
131.6807007,
32.57216175
]
}
},
{
"type":"Feature",
"properties":{
"Name":"出北第９街区（児童）公園",
"Jusho":"宮崎県延岡市出北",
"Capacity":"－",
"la":"32.57351586000",
"ln":"131.67755870000"
},
"geometry":{
"type":"Point",
"coordinates":[
131.6775587,
32.57351586
]
}
},
{
"type":"Feature",
"properties":{
"Name":"新小路街区（児童）公園",
"Jusho":"宮崎県延岡市新小路",
"Capacity":"－",
"la":"32.57035622910",
"ln":"131.66505199000"
},
"geometry":{
"type":"Point",
"coordinates":[
131.66505199,
32.5703562291
]
}
},
{
"type":"Feature",
"properties":{
"Name":"西階公園",
"Jusho":"宮崎県延岡市西階町",
"Capacity":"－",
"la":"32.57015346000",
"ln":"131.63873203000"
},
"geometry":{
"type":"Point",
"coordinates":[
131.63873203,
32.57015346
]
}
},
{
"type":"Feature",
"properties":{
"Name":"千代ケ丘第１街区（児童）公園",
"Jusho":"宮崎県延岡市桜ケ丘",
"Capacity":"－",
"la":"32.60830835000",
"ln":"131.67343844000"
},
"geometry":{
"type":"Point",
"coordinates":[
131.67343844,
32.60830835
]
}
},
{
"type":"Feature",
"properties":{
"Name":"船倉街区公園",
"Jusho":"宮崎県延岡市船倉町",
"Capacity":"－",
"la":"32.58246570000",
"ln":"131.67414073000"
},
"geometry":{
"type":"Point",
"coordinates":[
131.67414073,
32.5824657
]
}
},
{
"type":"Feature",
"properties":{
"Name":"大貫町第１街区（児童）公園",
"Jusho":"宮崎県延岡市大貫町",
"Capacity":"－",
"la":"32.57372653910",
"ln":"131.65456811000"
},
"geometry":{
"type":"Point",
"coordinates":[
131.65456811,
32.5737265391
]
}
},
{
"type":"Feature",
"properties":{
"Name":"大瀬町街区（児童）公園",
"Jusho":"宮崎県延岡市",
"Capacity":"－",
"la":"32.57231746910",
"ln":"131.66592322000"
},
"geometry":{
"type":"Point",
"coordinates":[
131.66592322,
32.5723174691
]
}
},
{
"type":"Feature",
"properties":{
"Name":"大武公園グラウンド",
"Jusho":"宮崎県延岡市",
"Capacity":"－",
"la":"32.59551768000",
"ln":"131.68896508000"
},
"geometry":{
"type":"Point",
"coordinates":[
131.68896508,
32.59551768
]
}
},
{
"type":"Feature",
"properties":{
"Name":"大福良第１街区公園",
"Jusho":"宮崎県延岡市伊形町",
"Capacity":"－",
"la":"32.53220205000",
"ln":"131.67370754000"
},
"geometry":{
"type":"Point",
"coordinates":[
131.67370754,
32.53220205
]
}
},
{
"type":"Feature",
"properties":{
"Name":"大福良第２街区（児童）公園",
"Jusho":"宮崎県延岡市伊形町",
"Capacity":"－",
"la":"32.53071610000",
"ln":"131.67341767000"
},
"geometry":{
"type":"Point",
"coordinates":[
131.67341767,
32.5307161
]
}
},
{
"type":"Feature",
"properties":{
"Name":"中島街区公園",
"Jusho":"宮崎県延岡市中島町",
"Capacity":"－",
"la":"32.57780682000",
"ln":"131.67522309000"
},
"geometry":{
"type":"Point",
"coordinates":[
131.67522309,
32.57780682
]
}
},
{
"type":"Feature",
"properties":{
"Name":"長浜街区公園",
"Jusho":"宮崎県延岡市長浜町",
"Capacity":"－",
"la":"32.57266373050",
"ln":"131.69302777300"
},
"geometry":{
"type":"Point",
"coordinates":[
131.693027773,
32.5726637305
]
}
},
{
"type":"Feature",
"properties":{
"Name":"鶴ケ丘街区公園",
"Jusho":"宮崎県延岡市鶴ケ丘",
"Capacity":"－",
"la":"32.54502656910",
"ln":"131.67257389000"
},
"geometry":{
"type":"Point",
"coordinates":[
131.67257389,
32.5450265691
]
}
},
{
"type":"Feature",
"properties":{
"Name":"島野浦神社公園",
"Jusho":"宮崎県延岡市",
"Capacity":"－",
"la":"32.66614692620",
"ln":"131.81586448600"
},
"geometry":{
"type":"Point",
"coordinates":[
131.815864486,
32.6661469262
]
}
},
{
"type":"Feature",
"properties":{
"Name":"日の出第１街区（児童）公園",
"Jusho":"宮崎県延岡市昭和町",
"Capacity":"－",
"la":"32.58506569000",
"ln":"131.67512399000"
},
"geometry":{
"type":"Point",
"coordinates":[
131.67512399,
32.58506569
]
}
},
{
"type":"Feature",
"properties":{
"Name":"日の出第２街区公園",
"Jusho":"宮崎県延岡市昭和町",
"Capacity":"－",
"la":"32.58668478000",
"ln":"131.67497569000"
},
"geometry":{
"type":"Point",
"coordinates":[
131.67497569,
32.58668478
]
}
},
{
"type":"Feature",
"properties":{
"Name":"日の出第３街区公園",
"Jusho":"宮崎県延岡市昭和町",
"Capacity":"－",
"la":"32.58923704000",
"ln":"131.67427816000"
},
"geometry":{
"type":"Point",
"coordinates":[
131.67427816,
32.58923704
]
}
},
{
"type":"Feature",
"properties":{
"Name":"日の出第４街区（児童）公園",
"Jusho":"宮崎県延岡市昭和町",
"Capacity":"－",
"la":"32.59206649000",
"ln":"131.67462631000"
},
"geometry":{
"type":"Point",
"coordinates":[
131.67462631,
32.59206649
]
}
},
{
"type":"Feature",
"properties":{
"Name":"富美山第１街区（児童）公園",
"Jusho":"宮崎県延岡市富美山町",
"Capacity":"－",
"la":"32.59723574000",
"ln":"131.66280044000"
},
"geometry":{
"type":"Point",
"coordinates":[
131.66280044,
32.59723574
]
}
},
{
"type":"Feature",
"properties":{
"Name":"富美山第２街区（児童）公園",
"Jusho":"宮崎県延岡市富美山町",
"Capacity":"－",
"la":"32.59482261000",
"ln":"131.66080008000"
},
"geometry":{
"type":"Point",
"coordinates":[
131.66080008,
32.59482261
]
}
},
{
"type":"Feature",
"properties":{
"Name":"富美山第３街区（児童）公園",
"Jusho":"宮崎県延岡市富美山町",
"Capacity":"－",
"la":"32.59874799000",
"ln":"131.66024896000"
},
"geometry":{
"type":"Point",
"coordinates":[
131.66024896,
32.59874799
]
}
},
{
"type":"Feature",
"properties":{
"Name":"平原町街区公園",
"Jusho":"宮崎県延岡市平原町",
"Capacity":"－",
"la":"32.55419947000",
"ln":"131.67459034000"
},
"geometry":{
"type":"Point",
"coordinates":[
131.67459034,
32.55419947
]
}
},
{
"type":"Feature",
"properties":{
"Name":"方平街区（児童）公園",
"Jusho":"宮崎県延岡市旭町",
"Capacity":"－",
"la":"32.57582957910",
"ln":"131.67100619000"
},
"geometry":{
"type":"Point",
"coordinates":[
131.67100619,
32.5758295791
]
}
},
{
"type":"Feature",
"properties":{
"Name":"北城山街区公園",
"Jusho":"宮崎県延岡市本小路",
"Capacity":"－",
"la":"32.58226417000",
"ln":"131.66304254000"
},
"geometry":{
"type":"Point",
"coordinates":[
131.66304254,
32.58226417
]
}
},
{
"type":"Feature",
"properties":{
"Name":"北川運動公園グラウンド",
"Jusho":"宮崎県延岡市",
"Capacity":"－",
"la":"32.69386128400",
"ln":"131.68992613200"
},
"geometry":{
"type":"Point",
"coordinates":[
131.689926132,
32.693861284
]
}
},
{
"type":"Feature",
"properties":{
"Name":"本小路街区公園",
"Jusho":"宮崎県延岡市東本小路",
"Capacity":"－",
"la":"32.58104655000",
"ln":"131.66533723000"
},
"geometry":{
"type":"Point",
"coordinates":[
131.66533723,
32.58104655
]
}
},
{
"type":"Feature",
"properties":{
"Name":"妙田公園グラウンド",
"Jusho":"宮崎県延岡市東浜砂町",
"Capacity":"－",
"la":"32.57654795910",
"ln":"131.69652647000"
},
"geometry":{
"type":"Point",
"coordinates":[
131.69652647,
32.5765479591
]
}
},
{
"type":"Feature",
"properties":{
"Name":"緑ケ丘第１街区公園",
"Jusho":"宮崎県延岡市緑ケ丘",
"Capacity":"－",
"la":"32.54735751000",
"ln":"131.68184656000"
},
"geometry":{
"type":"Point",
"coordinates":[
131.68184656,
32.54735751
]
}
},
{
"type":"Feature",
"properties":{
"Name":"緑ケ丘第２街区公園",
"Jusho":"宮崎県延岡市緑ケ丘",
"Capacity":"－",
"la":"32.55010397000",
"ln":"131.68050952000"
},
"geometry":{
"type":"Point",
"coordinates":[
131.68050952,
32.55010397
]
}
},
{
"type":"Feature",
"properties":{
"Name":"緑ケ丘第３街区（児童）公園",
"Jusho":"宮崎県延岡市緑ケ丘",
"Capacity":"－",
"la":"32.55190302000",
"ln":"131.68099082000"
},
"geometry":{
"type":"Point",
"coordinates":[
131.68099082,
32.55190302
]
}
},
{
"type":"Feature",
"properties":{
"Name":"緑ケ丘第４街区（児童）公園",
"Jusho":"宮崎県延岡市緑ケ丘",
"Capacity":"－",
"la":"32.55397844000",
"ln":"131.68402191000"
},
"geometry":{
"type":"Point",
"coordinates":[
131.68402191,
32.55397844
]
}
},
{
"type":"Feature",
"properties":{
"Name":"緑ケ丘第５街区公園",
"Jusho":"宮崎県延岡市緑ケ丘",
"Capacity":"－",
"la":"32.55722207000",
"ln":"131.68443648000"
},
"geometry":{
"type":"Point",
"coordinates":[
131.68443648,
32.55722207
]
}
},
{
"type":"Feature",
"properties":{
"Name":"緑ケ丘第６街区公園",
"Jusho":"宮崎県延岡市緑ケ丘",
"Capacity":"－",
"la":"32.56100882910",
"ln":"131.68362825000"
},
"geometry":{
"type":"Point",
"coordinates":[
131.68362825,
32.5610088291
]
}
}
]
};