var st={
"type":"FeatureCollection",
"features":[
{
"type":"Feature",
"properties":{
"Name":"基町小学校",
"Jusho":"広島県広島市中区基町20-2",
"Capacity":"967",
"la":"34.40249200000",
"ln":"132.45675800000"
},
"geometry":{
"type":"Point",
"coordinates":[
132.456758,
34.402492
]
}
},
{
"type":"Feature",
"properties":{
"Name":"吉島小学校",
"Jusho":"広島県広島市中区吉島西3-4-60",
"Capacity":"829",
"la":"34.37196700000",
"ln":"132.44523200000"
},
"geometry":{
"type":"Point",
"coordinates":[
132.445232,
34.371967
]
}
},
{
"type":"Feature",
"properties":{
"Name":"吉島東小学校",
"Jusho":"広島県広島市中区吉島東3-2-7",
"Capacity":"1090",
"la":"34.36844000000",
"ln":"132.45284300000"
},
"geometry":{
"type":"Point",
"coordinates":[
132.452843,
34.36844
]
}
},
{
"type":"Feature",
"properties":{
"Name":"広瀬小学校",
"Jusho":"広島県広島市中区広瀬町2-8",
"Capacity":"488",
"la":"34.40079800000",
"ln":"132.44687000000"
},
"geometry":{
"type":"Point",
"coordinates":[
132.44687,
34.400798
]
}
},
{
"type":"Feature",
"properties":{
"Name":"江波小学校",
"Jusho":"広島県広島市中区江波南2-2-53",
"Capacity":"1492",
"la":"34.36444000000",
"ln":"132.43298300000"
},
"geometry":{
"type":"Point",
"coordinates":[
132.432983,
34.36444
]
}
},
{
"type":"Feature",
"properties":{
"Name":"舟入小学校",
"Jusho":"広島県広島市中区舟入南2-9-48",
"Capacity":"1316",
"la":"34.37893900000",
"ln":"132.43789900000"
},
"geometry":{
"type":"Point",
"coordinates":[
132.437899,
34.378939
]
}
},
{
"type":"Feature",
"properties":{
"Name":"神崎小学校",
"Jusho":"広島県広島市中区舟入中町1-36",
"Capacity":"836",
"la":"34.38729900000",
"ln":"132.44556500000"
},
"geometry":{
"type":"Point",
"coordinates":[
132.445565,
34.387299
]
}
},
{
"type":"Feature",
"properties":{
"Name":"千田小学校",
"Jusho":"広島県広島市中区東千田町2-1-34",
"Capacity":"1051",
"la":"34.37980000000",
"ln":"132.45953600000"
},
"geometry":{
"type":"Point",
"coordinates":[
132.459536,
34.3798
]
}
},
{
"type":"Feature",
"properties":{
"Name":"袋町小学校",
"Jusho":"広島県広島市中区袋町6-36",
"Capacity":"867",
"la":"34.39138200000",
"ln":"132.45825800000"
},
"geometry":{
"type":"Point",
"coordinates":[
132.458258,
34.391382
]
}
},
{
"type":"Feature",
"properties":{
"Name":"竹屋小学校",
"Jusho":"広島県広島市中区鶴見町8-49",
"Capacity":"813",
"la":"34.38568900000",
"ln":"132.46667400000"
},
"geometry":{
"type":"Point",
"coordinates":[
132.466674,
34.385689
]
}
},
{
"type":"Feature",
"properties":{
"Name":"中島小学校",
"Jusho":"広島県広島市中区加古町10-8",
"Capacity":"795",
"la":"34.38674400000",
"ln":"132.44814800000"
},
"geometry":{
"type":"Point",
"coordinates":[
132.448148,
34.386744
]
}
},
{
"type":"Feature",
"properties":{
"Name":"白島小学校",
"Jusho":"広島県広島市中区西白島町26-3",
"Capacity":"1438",
"la":"34.40440900000",
"ln":"132.46161900000"
},
"geometry":{
"type":"Point",
"coordinates":[
132.461619,
34.404409
]
}
},
{
"type":"Feature",
"properties":{
"Name":"本川小学校",
"Jusho":"広島県広島市中区本川町1-5-39",
"Capacity":"1013",
"la":"34.39599300000",
"ln":"132.45103600000"
},
"geometry":{
"type":"Point",
"coordinates":[
132.451036,
34.395993
]
}
},
{
"type":"Feature",
"properties":{
"Name":"幟町小学校",
"Jusho":"広島県広島市中区幟町3-10",
"Capacity":"813",
"la":"34.39652100000",
"ln":"132.46661900000"
},
"geometry":{
"type":"Point",
"coordinates":[
132.466619,
34.396521
]
}
},
{
"type":"Feature",
"properties":{
"Name":"温品小学校",
"Jusho":"広島県広島市東区温品7-8-8",
"Capacity":"1324",
"la":"34.41588100000",
"ln":"132.51047500000"
},
"geometry":{
"type":"Point",
"coordinates":[
132.510475,
34.415881
]
}
},
{
"type":"Feature",
"properties":{
"Name":"牛田小学校",
"Jusho":"広島県広島市東区牛田旭1-14-45",
"Capacity":"1985",
"la":"34.41299200000",
"ln":"132.47081200000"
},
"geometry":{
"type":"Point",
"coordinates":[
132.470812,
34.412992
]
}
},
{
"type":"Feature",
"properties":{
"Name":"牛田新町小学校",
"Jusho":"広島県広島市東区牛田新町1-15-1",
"Capacity":"905",
"la":"34.41946300000",
"ln":"132.47061700000"
},
"geometry":{
"type":"Point",
"coordinates":[
132.470617,
34.419463
]
}
},
{
"type":"Feature",
"properties":{
"Name":"戸坂小学校",
"Jusho":"広島県広島市東区戸坂出江2-1-1",
"Capacity":"1396",
"la":"34.43493500000",
"ln":"132.48567100000"
},
"geometry":{
"type":"Point",
"coordinates":[
132.485671,
34.434935
]
}
},
{
"type":"Feature",
"properties":{
"Name":"戸坂城山小学校",
"Jusho":"広島県広島市東区戸坂城山町1-2",
"Capacity":"945",
"la":"34.43001800000",
"ln":"132.48869900000"
},
"geometry":{
"type":"Point",
"coordinates":[
132.488699,
34.430018
]
}
},
{
"type":"Feature",
"properties":{
"Name":"上温品小学校",
"Jusho":"広島県広島市東区上温品3-4-1",
"Capacity":"811",
"la":"34.42788000000",
"ln":"132.51669700000"
},
"geometry":{
"type":"Point",
"coordinates":[
132.516697,
34.42788
]
}
},
{
"type":"Feature",
"properties":{
"Name":"早稲田小学校",
"Jusho":"広島県広島市東区牛田早稲田4-9-1",
"Capacity":"992",
"la":"34.41901900000",
"ln":"132.48056100000"
},
"geometry":{
"type":"Point",
"coordinates":[
132.480561,
34.419019
]
}
},
{
"type":"Feature",
"properties":{
"Name":"中山小学校",
"Jusho":"広島県広島市東区中山東1-2-1",
"Capacity":"925",
"la":"34.40960400000",
"ln":"132.50019900000"
},
"geometry":{
"type":"Point",
"coordinates":[
132.500199,
34.409604
]
}
},
{
"type":"Feature",
"properties":{
"Name":"東浄小学校",
"Jusho":"広島県広島市東区中山新町2-8-1",
"Capacity":"1060",
"la":"34.42135300000",
"ln":"132.50005900000"
},
"geometry":{
"type":"Point",
"coordinates":[
132.500059,
34.421353
]
}
},
{
"type":"Feature",
"properties":{
"Name":"尾長小学校",
"Jusho":"広島県広島市東区山根町21-10",
"Capacity":"1428",
"la":"34.39960500000",
"ln":"132.48581100000"
},
"geometry":{
"type":"Point",
"coordinates":[
132.485811,
34.399605
]
}
},
{
"type":"Feature",
"properties":{
"Name":"福木小学校",
"Jusho":"広島県広島市東区馬木9-1-2",
"Capacity":"1278",
"la":"34.44585100000",
"ln":"132.53597200000"
},
"geometry":{
"type":"Point",
"coordinates":[
132.535972,
34.445851
]
}
},
{
"type":"Feature",
"properties":{
"Name":"矢賀小学校",
"Jusho":"広島県広島市東区矢賀2-10-67",
"Capacity":"792",
"la":"34.39857700000",
"ln":"132.49611600000"
},
"geometry":{
"type":"Point",
"coordinates":[
132.496116,
34.398577
]
}
},
{
"type":"Feature",
"properties":{
"Name":"宇品小学校",
"Jusho":"広島県広島市南区宇品御幸4-5-11",
"Capacity":"1442",
"la":"34.36052500000",
"ln":"132.46117600000"
},
"geometry":{
"type":"Point",
"coordinates":[
132.461176,
34.360525
]
}
},
{
"type":"Feature",
"properties":{
"Name":"宇品東小学校",
"Jusho":"広島県広島市南区宇品東7-11-8",
"Capacity":"1280",
"la":"34.35783100000",
"ln":"132.46817500000"
},
"geometry":{
"type":"Point",
"coordinates":[
132.468175,
34.357831
]
}
},
{
"type":"Feature",
"properties":{
"Name":"黄金山小学校",
"Jusho":"広島県広島市南区北大河町35-1",
"Capacity":"806",
"la":"34.37174600000",
"ln":"132.48209000000"
},
"geometry":{
"type":"Point",
"coordinates":[
132.48209,
34.371746
]
}
},
{
"type":"Feature",
"properties":{
"Name":"皆実小学校",
"Jusho":"広島県広島市南区皆実町1-15-32",
"Capacity":"1120",
"la":"34.37860600000",
"ln":"132.46823000000"
},
"geometry":{
"type":"Point",
"coordinates":[
132.46823,
34.378606
]
}
},
{
"type":"Feature",
"properties":{
"Name":"元宇品小学校",
"Jusho":"広島県広島市南区元宇品町7-10",
"Capacity":"453",
"la":"34.34849800000",
"ln":"132.46006500000"
},
"geometry":{
"type":"Point",
"coordinates":[
132.460065,
34.348498
]
}
},
{
"type":"Feature",
"properties":{
"Name":"向洋新町小学校",
"Jusho":"広島県広島市南区向洋新町1-6-2",
"Capacity":"472",
"la":"34.36647000000",
"ln":"132.50903300000"
},
"geometry":{
"type":"Point",
"coordinates":[
132.509033,
34.36647
]
}
},
{
"type":"Feature",
"properties":{
"Name":"荒神町小学校",
"Jusho":"広島県広島市南区西蟹屋3-7-27",
"Capacity":"608",
"la":"34.39280000000",
"ln":"132.47975700000"
},
"geometry":{
"type":"Point",
"coordinates":[
132.479757,
34.3928
]
}
},
{
"type":"Feature",
"properties":{
"Name":"似島小学校",
"Jusho":"広島県広島市南区似島町大黄2410",
"Capacity":"534",
"la":"34.30489200000",
"ln":"132.43776100000"
},
"geometry":{
"type":"Point",
"coordinates":[
132.437761,
34.304892
]
}
},
{
"type":"Feature",
"properties":{
"Name":"仁保小学校",
"Jusho":"広島県広島市南区仁保新町2-8-30",
"Capacity":"1264",
"la":"34.37535700000",
"ln":"132.49478400000"
},
"geometry":{
"type":"Point",
"coordinates":[
132.494784,
34.375357
]
}
},
{
"type":"Feature",
"properties":{
"Name":"翠町小学校",
"Jusho":"広島県広島市南区翠4-10-1",
"Capacity":"1099",
"la":"34.36783000000",
"ln":"132.47418900000"
},
"geometry":{
"type":"Point",
"coordinates":[
132.474189,
34.36783
]
}
},
{
"type":"Feature",
"properties":{
"Name":"青崎小学校",
"Jusho":"広島県広島市南区青崎1-15-51",
"Capacity":"991",
"la":"34.37199700000",
"ln":"132.50594900000"
},
"geometry":{
"type":"Point",
"coordinates":[
132.505949,
34.371997
]
}
},
{
"type":"Feature",
"properties":{
"Name":"大河小学校",
"Jusho":"広島県広島市南区旭1-8-1",
"Capacity":"1160",
"la":"34.37510700000",
"ln":"132.47859100000"
},
"geometry":{
"type":"Point",
"coordinates":[
132.478591,
34.375107
]
}
},
{
"type":"Feature",
"properties":{
"Name":"大州小学校",
"Jusho":"広島県広島市南区大州5-10-12",
"Capacity":"720",
"la":"34.38494000000",
"ln":"132.49725500000"
},
"geometry":{
"type":"Point",
"coordinates":[
132.497255,
34.38494
]
}
},
{
"type":"Feature",
"properties":{
"Name":"段原小学校",
"Jusho":"広島県広島市南区的場町2-4-19",
"Capacity":"814",
"la":"34.39171600000",
"ln":"132.47409000000"
},
"geometry":{
"type":"Point",
"coordinates":[
132.47409,
34.391716
]
}
},
{
"type":"Feature",
"properties":{
"Name":"楠那小学校",
"Jusho":"広島県広島市南区楠那町5-7",
"Capacity":"742",
"la":"34.36277500000",
"ln":"132.48622900000"
},
"geometry":{
"type":"Point",
"coordinates":[
132.486229,
34.362775
]
}
},
{
"type":"Feature",
"properties":{
"Name":"比治山小学校",
"Jusho":"広島県広島市南区上東雲町28-28",
"Capacity":"1366",
"la":"34.38510600000",
"ln":"132.48556200000"
},
"geometry":{
"type":"Point",
"coordinates":[
132.485562,
34.385106
]
}
},
{
"type":"Feature",
"properties":{
"Name":"井口小学校",
"Jusho":"広島県広島市西区井口2-13-1",
"Capacity":"1217",
"la":"34.37213400000",
"ln":"132.38442900000"
},
"geometry":{
"type":"Point",
"coordinates":[
132.384429,
34.372134
]
}
},
{
"type":"Feature",
"properties":{
"Name":"井口台小学校",
"Jusho":"広島県広島市西区井口台3-5-1",
"Capacity":"1039",
"la":"34.38013300000",
"ln":"132.38190200000"
},
"geometry":{
"type":"Point",
"coordinates":[
132.381902,
34.380133
]
}
},
{
"type":"Feature",
"properties":{
"Name":"井口明神小学校",
"Jusho":"広島県広島市西区井口明神1-13-1",
"Capacity":"902",
"la":"34.37243900000",
"ln":"132.39051200000"
},
"geometry":{
"type":"Point",
"coordinates":[
132.390512,
34.372439
]
}
},
{
"type":"Feature",
"properties":{
"Name":"観音小学校",
"Jusho":"広島県広島市西区観音本町2-1-26",
"Capacity":"1349",
"la":"34.39049400000",
"ln":"132.43509300000"
},
"geometry":{
"type":"Point",
"coordinates":[
132.435093,
34.390494
]
}
},
{
"type":"Feature",
"properties":{
"Name":"古田小学校",
"Jusho":"広島県広島市西区古江西町18-43",
"Capacity":"1561",
"la":"34.38699400000",
"ln":"132.40737200000"
},
"geometry":{
"type":"Point",
"coordinates":[
132.407372,
34.386994
]
}
},
{
"type":"Feature",
"properties":{
"Name":"古田台小学校",
"Jusho":"広島県広島市西区古田台1-5-1",
"Capacity":"1104",
"la":"34.39218800000",
"ln":"132.40309500000"
},
"geometry":{
"type":"Point",
"coordinates":[
132.403095,
34.392188
]
}
},
{
"type":"Feature",
"properties":{
"Name":"己斐小学校",
"Jusho":"広島県広島市西区己斐上2-1-1",
"Capacity":"1050",
"la":"34.39990900000",
"ln":"132.42237100000"
},
"geometry":{
"type":"Point",
"coordinates":[
132.422371,
34.399909
]
}
},
{
"type":"Feature",
"properties":{
"Name":"己斐上小学校",
"Jusho":"広島県広島市西区己斐上6-455",
"Capacity":"1459",
"la":"34.41718500000",
"ln":"132.42495400000"
},
"geometry":{
"type":"Point",
"coordinates":[
132.424954,
34.417185
]
}
},
{
"type":"Feature",
"properties":{
"Name":"己斐東小学校",
"Jusho":"広島県広島市西区己斐中3-127",
"Capacity":"416",
"la":"34.40649200000",
"ln":"132.42528700000"
},
"geometry":{
"type":"Point",
"coordinates":[
132.425287,
34.406492
]
}
},
{
"type":"Feature",
"properties":{
"Name":"庚午小学校",
"Jusho":"広島県広島市西区庚午中1-15-1",
"Capacity":"1336",
"la":"34.38332800000",
"ln":"132.41714900000"
},
"geometry":{
"type":"Point",
"coordinates":[
132.417149,
34.383328
]
}
},
{
"type":"Feature",
"properties":{
"Name":"高須小学校",
"Jusho":"広島県広島市西区高須4-16-1",
"Capacity":"364",
"la":"34.39638200000",
"ln":"132.41462200000"
},
"geometry":{
"type":"Point",
"coordinates":[
132.414622,
34.396382
]
}
},
{
"type":"Feature",
"properties":{
"Name":"三篠小学校",
"Jusho":"広島県広島市西区三篠町1-9-25",
"Capacity":"1169",
"la":"34.41226900000",
"ln":"132.45086900000"
},
"geometry":{
"type":"Point",
"coordinates":[
132.450869,
34.412269
]
}
},
{
"type":"Feature",
"properties":{
"Name":"山田小学校",
"Jusho":"広島県広島市西区山田新町2-21-1",
"Capacity":"568",
"la":"34.39813100000",
"ln":"132.38709600000"
},
"geometry":{
"type":"Point",
"coordinates":[
132.387096,
34.398131
]
}
},
{
"type":"Feature",
"properties":{
"Name":"草津小学校",
"Jusho":"広島県広島市西区草津東2-12-1",
"Capacity":"1219",
"la":"34.38149400000",
"ln":"132.40562300000"
},
"geometry":{
"type":"Point",
"coordinates":[
132.405623,
34.381494
]
}
},
{
"type":"Feature",
"properties":{
"Name":"大芝小学校",
"Jusho":"広島県広島市西区大芝1-25-18",
"Capacity":"1149",
"la":"34.41679700000",
"ln":"132.45709100000"
},
"geometry":{
"type":"Point",
"coordinates":[
132.457091,
34.416797
]
}
},
{
"type":"Feature",
"properties":{
"Name":"天満小学校",
"Jusho":"広島県広島市西区天満町1-27",
"Capacity":"1058",
"la":"34.39738200000",
"ln":"132.44175900000"
},
"geometry":{
"type":"Point",
"coordinates":[
132.441759,
34.397382
]
}
},
{
"type":"Feature",
"properties":{
"Name":"南観音小学校",
"Jusho":"広島県広島市西区南観音6-5-45",
"Capacity":"1636",
"la":"34.38221700000",
"ln":"132.42678800000"
},
"geometry":{
"type":"Point",
"coordinates":[
132.426788,
34.382217
]
}
},
{
"type":"Feature",
"properties":{
"Name":"鈴が峰小学校",
"Jusho":"広島県広島市西区鈴が峰町36-2",
"Capacity":"1248",
"la":"34.37999400000",
"ln":"132.39367900000"
},
"geometry":{
"type":"Point",
"coordinates":[
132.393679,
34.379994
]
}
},
{
"type":"Feature",
"properties":{
"Name":"安小学校",
"Jusho":"広島県広島市安佐南区上安2-7-56",
"Capacity":"1045",
"la":"34.47337400000",
"ln":"132.44278400000"
},
"geometry":{
"type":"Point",
"coordinates":[
132.442784,
34.473374
]
}
},
{
"type":"Feature",
"properties":{
"Name":"安西小学校",
"Jusho":"広島県広島市安佐南区高取南2-18-1",
"Capacity":"1215",
"la":"34.46773600000",
"ln":"132.43270200000"
},
"geometry":{
"type":"Point",
"coordinates":[
132.432702,
34.467736
]
}
},
{
"type":"Feature",
"properties":{
"Name":"安東小学校",
"Jusho":"広島県広島市安佐南区安東1-28-1",
"Capacity":"1254",
"la":"34.47443000000",
"ln":"132.45922700000"
},
"geometry":{
"type":"Point",
"coordinates":[
132.459227,
34.47443
]
}
},
{
"type":"Feature",
"properties":{
"Name":"安北小学校",
"Jusho":"広島県広島市安佐南区高取北2-30-1",
"Capacity":"1071",
"la":"34.48092900000",
"ln":"132.43572900000"
},
"geometry":{
"type":"Point",
"coordinates":[
132.435729,
34.480929
]
}
},
{
"type":"Feature",
"properties":{
"Name":"祇園小学校",
"Jusho":"広島県広島市安佐南区祇園3-1-27",
"Capacity":"1178",
"la":"34.44262800000",
"ln":"132.46400500000"
},
"geometry":{
"type":"Point",
"coordinates":[
132.464005,
34.442628
]
}
},
{
"type":"Feature",
"properties":{
"Name":"原小学校",
"Jusho":"広島県広島市安佐南区西原6-29-6",
"Capacity":"1150",
"la":"34.43943399910",
"ln":"132.47031100000"
},
"geometry":{
"type":"Point",
"coordinates":[
132.470311,
34.4394339991
]
}
},
{
"type":"Feature",
"properties":{
"Name":"原南小学校",
"Jusho":"広島県広島市安佐南区西原2-19-23",
"Capacity":"874",
"la":"34.43157300000",
"ln":"132.46703300000"
},
"geometry":{
"type":"Point",
"coordinates":[
132.467033,
34.431573
]
}
},
{
"type":"Feature",
"properties":{
"Name":"古市小学校",
"Jusho":"広島県広島市安佐南区古市2-21-1",
"Capacity":"939",
"la":"34.45432100000",
"ln":"132.47178200000"
},
"geometry":{
"type":"Point",
"coordinates":[
132.471782,
34.454321
]
}
},
{
"type":"Feature",
"properties":{
"Name":"戸山小学校",
"Jusho":"広島県広島市安佐南区沼田町阿戸3722",
"Capacity":"512",
"la":"34.48287100000",
"ln":"132.35390200000"
},
"geometry":{
"type":"Point",
"coordinates":[
132.353902,
34.482871
]
}
},
{
"type":"Feature",
"properties":{
"Name":"山本小学校",
"Jusho":"広島県広島市安佐南区山本3-13-1",
"Capacity":"1235",
"la":"34.43832200000",
"ln":"132.45309000000"
},
"geometry":{
"type":"Point",
"coordinates":[
132.45309,
34.438322
]
}
},
{
"type":"Feature",
"properties":{
"Name":"春日野小学校",
"Jusho":"広島県広島市安佐南区",
"Capacity":"1318",
"la":"34.44172500000",
"ln":"132.43400600000"
},
"geometry":{
"type":"Point",
"coordinates":[
132.434006,
34.441725
]
}
},
{
"type":"Feature",
"properties":{
"Name":"上安小学校",
"Jusho":"広島県広島市安佐南区上安5-21-52",
"Capacity":"939",
"la":"34.48520600000",
"ln":"132.44733900000"
},
"geometry":{
"type":"Point",
"coordinates":[
132.447339,
34.485206
]
}
},
{
"type":"Feature",
"properties":{
"Name":"川内小学校",
"Jusho":"広島県広島市安佐南区川内5-40-1",
"Capacity":"1231",
"la":"34.46448700000",
"ln":"132.48653100000"
},
"geometry":{
"type":"Point",
"coordinates":[
132.486531,
34.464487
]
}
},
{
"type":"Feature",
"properties":{
"Name":"大町小学校",
"Jusho":"広島県広島市安佐南区大町西2-24-1",
"Capacity":"1140",
"la":"34.45729300000",
"ln":"132.46283800000"
},
"geometry":{
"type":"Point",
"coordinates":[
132.462838,
34.457293
]
}
},
{
"type":"Feature",
"properties":{
"Name":"大塚小学校",
"Jusho":"広島県広島市安佐南区大塚西6-1-1",
"Capacity":"1120",
"la":"34.44887600000",
"ln":"132.39270600000"
},
"geometry":{
"type":"Point",
"coordinates":[
132.392706,
34.448876
]
}
},
{
"type":"Feature",
"properties":{
"Name":"中筋小学校",
"Jusho":"広島県広島市安佐南区中筋2-15-5",
"Capacity":"1249",
"la":"34.44946100000",
"ln":"132.47919800000"
},
"geometry":{
"type":"Point",
"coordinates":[
132.479198,
34.449461
]
}
},
{
"type":"Feature",
"properties":{
"Name":"長束小学校",
"Jusho":"広島県広島市安佐南区長束4-15-1",
"Capacity":"1203",
"la":"34.42712900000",
"ln":"132.45472900000"
},
"geometry":{
"type":"Point",
"coordinates":[
132.454729,
34.427129
]
}
},
{
"type":"Feature",
"properties":{
"Name":"長束西小学校",
"Jusho":"広島県広島市安佐南区長束西1-26-1",
"Capacity":"850",
"la":"34.42846200000",
"ln":"132.44873000000"
},
"geometry":{
"type":"Point",
"coordinates":[
132.44873,
34.428462
]
}
},
{
"type":"Feature",
"properties":{
"Name":"東野小学校",
"Jusho":"広島市安佐南区東野一丁目7番1号",
"Capacity":"1030",
"la":"34.44560100000",
"ln":"132.48518200000"
},
"geometry":{
"type":"Point",
"coordinates":[
132.485182,
34.445601
]
}
},
{
"type":"Feature",
"properties":{
"Name":"梅林小学校",
"Jusho":"広島県広島市安佐南区八木3-3-9",
"Capacity":"1074",
"la":"34.48031900000",
"ln":"132.49225200000"
},
"geometry":{
"type":"Point",
"coordinates":[
132.492252,
34.480319
]
}
},
{
"type":"Feature",
"properties":{
"Name":"八木小学校",
"Jusho":"広島県広島市安佐南区八木9-17-1",
"Capacity":"995",
"la":"34.48829000000",
"ln":"132.50672300000"
},
"geometry":{
"type":"Point",
"coordinates":[
132.506723,
34.48829
]
}
},
{
"type":"Feature",
"properties":{
"Name":"伴小学校",
"Jusho":"広島県広島市安佐南区沼田町伴6153",
"Capacity":"1008",
"la":"34.46198499910",
"ln":"132.40717700000"
},
"geometry":{
"type":"Point",
"coordinates":[
132.407177,
34.4619849991
]
}
},
{
"type":"Feature",
"properties":{
"Name":"伴東小学校",
"Jusho":"広島県広島市安佐南区沼田町伴179-1",
"Capacity":"1089",
"la":"34.46276400000",
"ln":"132.42084200000"
},
"geometry":{
"type":"Point",
"coordinates":[
132.420842,
34.462764
]
}
},
{
"type":"Feature",
"properties":{
"Name":"伴南小学校",
"Jusho":"広島県広島市安佐南区伴南1-29-1",
"Capacity":"1317",
"la":"34.45163000000",
"ln":"132.38444700000"
},
"geometry":{
"type":"Point",
"coordinates":[
132.384447,
34.45163
]
}
},
{
"type":"Feature",
"properties":{
"Name":"毘沙門台小学校",
"Jusho":"広島県広島市安佐南区毘沙門台3-1-1",
"Capacity":"969",
"la":"34.47992900000",
"ln":"132.46553200000"
},
"geometry":{
"type":"Point",
"coordinates":[
132.465532,
34.479929
]
}
},
{
"type":"Feature",
"properties":{
"Name":"緑井小学校",
"Jusho":"広島県広島市安佐南区緑井4-31-1",
"Capacity":"1009",
"la":"34.46979200000",
"ln":"132.47289300000"
},
"geometry":{
"type":"Point",
"coordinates":[
132.472893,
34.469792
]
}
},
{
"type":"Feature",
"properties":{
"Name":"井原小学校",
"Jusho":"広島県広島市安佐北区白木町大字井原825",
"Capacity":"429",
"la":"34.58614300000",
"ln":"132.67717900000"
},
"geometry":{
"type":"Point",
"coordinates":[
132.677179,
34.586143
]
}
},
{
"type":"Feature",
"properties":{
"Name":"可部小学校",
"Jusho":"広島県広島市安佐北区可部4-9-1",
"Capacity":"1234",
"la":"34.51859300000",
"ln":"132.50966600000"
},
"geometry":{
"type":"Point",
"coordinates":[
132.509666,
34.518593
]
}
},
{
"type":"Feature",
"properties":{
"Name":"可部南小学校",
"Jusho":"広島県広島市安佐北区可部南2-11-1",
"Capacity":"1120",
"la":"34.50412200000",
"ln":"132.51666600000"
},
"geometry":{
"type":"Point",
"coordinates":[
132.516666,
34.504122
]
}
},
{
"type":"Feature",
"properties":{
"Name":"亀崎小学校",
"Jusho":"広島県広島市安佐北区亀崎4-2-1",
"Capacity":"994",
"la":"34.48334700000",
"ln":"132.52549900000"
},
"geometry":{
"type":"Point",
"coordinates":[
132.525499,
34.483347
]
}
},
{
"type":"Feature",
"properties":{
"Name":"亀山小学校",
"Jusho":"広島県広島市安佐北区亀山5-11-1",
"Capacity":"1122",
"la":"34.52684100000",
"ln":"132.49600100000"
},
"geometry":{
"type":"Point",
"coordinates":[
132.496001,
34.526841
]
}
},
{
"type":"Feature",
"properties":{
"Name":"亀山南小学校",
"Jusho":"広島県広島市安佐北区亀山南3-28-2",
"Capacity":"1231",
"la":"34.52028600000",
"ln":"132.49416800000"
},
"geometry":{
"type":"Point",
"coordinates":[
132.494168,
34.520286
]
}
},
{
"type":"Feature",
"properties":{
"Name":"久地小学校",
"Jusho":"広島県広島市安佐北区安佐町大字久地4477-2",
"Capacity":"572",
"la":"34.52036799910",
"ln":"132.40606400000"
},
"geometry":{
"type":"Point",
"coordinates":[
132.406064,
34.5203679991
]
}
},
{
"type":"Feature",
"properties":{
"Name":"久地南小学校",
"Jusho":"広島県広島市安佐北区安佐町くすの木台55-1",
"Capacity":"909",
"la":"34.49984200000",
"ln":"132.39301000000"
},
"geometry":{
"type":"Point",
"coordinates":[
132.39301,
34.499842
]
}
},
{
"type":"Feature",
"properties":{
"Name":"口田小学校",
"Jusho":"広島県広島市安佐北区口田南2-7-2",
"Capacity":"1002",
"la":"34.45837700000",
"ln":"132.49591900000"
},
"geometry":{
"type":"Point",
"coordinates":[
132.495919,
34.458377
]
}
},
{
"type":"Feature",
"properties":{
"Name":"口田東小学校",
"Jusho":"広島県広島市安佐北区口田2-1-1",
"Capacity":"1171",
"la":"34.46904200000",
"ln":"132.50172400000"
},
"geometry":{
"type":"Point",
"coordinates":[
132.501724,
34.469042
]
}
},
{
"type":"Feature",
"properties":{
"Name":"高南小学校",
"Jusho":"広島県広島市安佐北区白木町大字秋山1188",
"Capacity":"753",
"la":"34.54986900000",
"ln":"132.65898700000"
},
"geometry":{
"type":"Point",
"coordinates":[
132.658987,
34.549869
]
}
},
{
"type":"Feature",
"properties":{
"Name":"三田小学校",
"Jusho":"広島県広島市安佐北区白木町大字三田2649",
"Capacity":"671",
"la":"34.51317900000",
"ln":"132.61154800000"
},
"geometry":{
"type":"Point",
"coordinates":[
132.611548,
34.513179
]
}
},
{
"type":"Feature",
"properties":{
"Name":"三入小学校",
"Jusho":"広島県広島市安佐北区三入3-12-1",
"Capacity":"870",
"la":"34.53931300000",
"ln":"132.52688700000"
},
"geometry":{
"type":"Point",
"coordinates":[
132.526887,
34.539313
]
}
},
{
"type":"Feature",
"properties":{
"Name":"三入東小学校",
"Jusho":"広島県広島市安佐北区三入東1-3-1",
"Capacity":"890",
"la":"34.53559099910",
"ln":"132.53510800000"
},
"geometry":{
"type":"Point",
"coordinates":[
132.535108,
34.5355909991
]
}
},
{
"type":"Feature",
"properties":{
"Name":"志屋小学校",
"Jusho":"広島県広島市安佐北区白木町大字志路3890-1",
"Capacity":"446",
"la":"34.57819800000",
"ln":"132.61785200000"
},
"geometry":{
"type":"Point",
"coordinates":[
132.617852,
34.578198
]
}
},
{
"type":"Feature",
"properties":{
"Name":"狩小川小学校",
"Jusho":"広島県広島市安佐北区上深川町1345",
"Capacity":"625",
"la":"34.48148700000",
"ln":"132.56699600000"
},
"geometry":{
"type":"Point",
"coordinates":[
132.566996,
34.481487
]
}
},
{
"type":"Feature",
"properties":{
"Name":"小河内小学校",
"Jusho":"広島県広島市安佐北区安佐町小河内4734",
"Capacity":"406",
"la":"34.58208300000",
"ln":"132.41778400000"
},
"geometry":{
"type":"Point",
"coordinates":[
132.417784,
34.582083
]
}
},
{
"type":"Feature",
"properties":{
"Name":"深川小学校",
"Jusho":"広島県広島市安佐北区深川5-12-1",
"Capacity":"755",
"la":"34.48231900000",
"ln":"132.53077700000"
},
"geometry":{
"type":"Point",
"coordinates":[
132.530777,
34.482319
]
}
},
{
"type":"Feature",
"properties":{
"Name":"真亀小学校",
"Jusho":"広島県広島市安佐北区真亀5-28-1",
"Capacity":"1171",
"la":"34.48309700000",
"ln":"132.51816700000"
},
"geometry":{
"type":"Point",
"coordinates":[
132.518167,
34.483097
]
}
},
{
"type":"Feature",
"properties":{
"Name":"倉掛小学校",
"Jusho":"広島県広島市安佐北区倉掛1-13-1",
"Capacity":"925",
"la":"34.47301500000",
"ln":"132.52875000000"
},
"geometry":{
"type":"Point",
"coordinates":[
132.52875,
34.473015
]
}
},
{
"type":"Feature",
"properties":{
"Name":"大林小学校",
"Jusho":"広島県広島市安佐北区大林4-14-1",
"Capacity":"463",
"la":"34.55450600000",
"ln":"132.54585800000"
},
"geometry":{
"type":"Point",
"coordinates":[
132.545858,
34.554506
]
}
},
{
"type":"Feature",
"properties":{
"Name":"筒瀬小学校",
"Jusho":"広島県広島市安佐北区安佐町筒瀬1598",
"Capacity":"393",
"la":"34.49662200000",
"ln":"132.47069800000"
},
"geometry":{
"type":"Point",
"coordinates":[
132.470698,
34.496622
]
}
},
{
"type":"Feature",
"properties":{
"Name":"日浦小学校",
"Jusho":"広島県広島市安佐北区あさひが丘7-12-1",
"Capacity":"1290",
"la":"34.50773099910",
"ln":"132.43942300000"
},
"geometry":{
"type":"Point",
"coordinates":[
132.439423,
34.5077309991
]
}
},
{
"type":"Feature",
"properties":{
"Name":"飯室小学校",
"Jusho":"広島県広島市安佐北区安佐町飯室1544",
"Capacity":"648",
"la":"34.55203200000",
"ln":"132.44514300000"
},
"geometry":{
"type":"Point",
"coordinates":[
132.445143,
34.552032
]
}
},
{
"type":"Feature",
"properties":{
"Name":"落合小学校",
"Jusho":"広島県広島市安佐北区落合南2-13-1",
"Capacity":"763",
"la":"34.46679300000",
"ln":"132.51375100000"
},
"geometry":{
"type":"Point",
"coordinates":[
132.513751,
34.466793
]
}
},
{
"type":"Feature",
"properties":{
"Name":"落合東小学校",
"Jusho":"広島県広島市安佐北区落合4-13-1",
"Capacity":"1277",
"la":"34.47545900000",
"ln":"132.51547300000"
},
"geometry":{
"type":"Point",
"coordinates":[
132.515473,
34.475459
]
}
},
{
"type":"Feature",
"properties":{
"Name":"鈴張小学校",
"Jusho":"広島県広島市安佐北区安佐町鈴張1896",
"Capacity":"641",
"la":"34.58405600000",
"ln":"132.46050300000"
},
"geometry":{
"type":"Point",
"coordinates":[
132.460503,
34.584056
]
}
},
{
"type":"Feature",
"properties":{
"Name":"みどり坂小学校",
"Jusho":"広島市安芸区瀬野西一丁目38-1",
"Capacity":"1462",
"la":"34.42694966370",
"ln":"132.58996560700"
},
"geometry":{
"type":"Point",
"coordinates":[
132.589965607,
34.4269496637
]
}
},
{
"type":"Feature",
"properties":{
"Name":"阿戸小学校",
"Jusho":"広島県広島市安芸区阿戸町2862-1",
"Capacity":"183",
"la":"34.38494300000",
"ln":"132.62660500000"
},
"geometry":{
"type":"Point",
"coordinates":[
132.626605,
34.384943
]
}
},
{
"type":"Feature",
"properties":{
"Name":"瀬野小学校",
"Jusho":"広島県広島市安芸区瀬野1-35-32",
"Capacity":"987",
"la":"34.42160500000",
"ln":"132.60674400000"
},
"geometry":{
"type":"Point",
"coordinates":[
132.606744,
34.421605
]
}
},
{
"type":"Feature",
"properties":{
"Name":"船越小学校",
"Jusho":"広島県広島市安芸区船越5-22-11",
"Capacity":"1273",
"la":"34.37463600000",
"ln":"132.52719700000"
},
"geometry":{
"type":"Point",
"coordinates":[
132.527197,
34.374636
]
}
},
{
"type":"Feature",
"properties":{
"Name":"中野小学校",
"Jusho":"広島県広島市安芸区中野4-21-1",
"Capacity":"1060",
"la":"34.39821700000",
"ln":"132.57327600000"
},
"geometry":{
"type":"Point",
"coordinates":[
132.573276,
34.398217
]
}
},
{
"type":"Feature",
"properties":{
"Name":"中野東小学校",
"Jusho":"広島県広島市安芸区中野5-11-1",
"Capacity":"1019",
"la":"34.40380000000",
"ln":"132.58094200000"
},
"geometry":{
"type":"Point",
"coordinates":[
132.580942,
34.4038
]
}
},
{
"type":"Feature",
"properties":{
"Name":"畑賀小学校",
"Jusho":"広島県広島市安芸区畑賀3-28-16",
"Capacity":"714",
"la":"34.39407800000",
"ln":"132.55047300000"
},
"geometry":{
"type":"Point",
"coordinates":[
132.550473,
34.394078
]
}
},
{
"type":"Feature",
"properties":{
"Name":"矢野小学校",
"Jusho":"広島県広島市安芸区矢野西6-11-1",
"Capacity":"1131",
"la":"34.34791700000",
"ln":"132.53536400000"
},
"geometry":{
"type":"Point",
"coordinates":[
132.535364,
34.347917
]
}
},
{
"type":"Feature",
"properties":{
"Name":"矢野西小学校",
"Jusho":"広島県広島市安芸区矢野西4-5-1",
"Capacity":"1006",
"la":"34.35033300000",
"ln":"132.53364200000"
},
"geometry":{
"type":"Point",
"coordinates":[
132.533642,
34.350333
]
}
},
{
"type":"Feature",
"properties":{
"Name":"矢野南小学校",
"Jusho":"広島県広島市安芸区矢野南4-17-1",
"Capacity":"1246",
"la":"34.33808499910",
"ln":"132.53450300000"
},
"geometry":{
"type":"Point",
"coordinates":[
132.534503,
34.3380849991
]
}
},
{
"type":"Feature",
"properties":{
"Name":"河内小学校",
"Jusho":"広島県広島市佐伯区五日市町上河内371",
"Capacity":"797",
"la":"34.41321200000",
"ln":"132.35151600000"
},
"geometry":{
"type":"Point",
"coordinates":[
132.351516,
34.413212
]
}
},
{
"type":"Feature",
"properties":{
"Name":"楽々園小学校",
"Jusho":"広島県広島市佐伯区楽々園6-8-1",
"Capacity":"1181",
"la":"34.35782899910",
"ln":"132.35398700000"
},
"geometry":{
"type":"Point",
"coordinates":[
132.353987,
34.3578289991
]
}
},
{
"type":"Feature",
"properties":{
"Name":"五月が丘小学校",
"Jusho":"広島県広島市佐伯区五月が丘2-22-1",
"Capacity":"1241",
"la":"34.42254500000",
"ln":"132.40548300000"
},
"geometry":{
"type":"Point",
"coordinates":[
132.405483,
34.422545
]
}
},
{
"type":"Feature",
"properties":{
"Name":"五日市観音小学校",
"Jusho":"広島県広島市佐伯区三宅4-10-1",
"Capacity":"1157",
"la":"34.37380000000",
"ln":"132.34940500000"
},
"geometry":{
"type":"Point",
"coordinates":[
132.349405,
34.3738
]
}
},
{
"type":"Feature",
"properties":{
"Name":"五日市観音西小学校",
"Jusho":"広島県広島市佐伯区坪井3-877",
"Capacity":"1063",
"la":"34.38140999910",
"ln":"132.33882300000"
},
"geometry":{
"type":"Point",
"coordinates":[
132.338823,
34.3814099991
]
}
},
{
"type":"Feature",
"properties":{
"Name":"五日市小学校",
"Jusho":"広島県広島市佐伯区五日市3-1-1",
"Capacity":"1293",
"la":"34.36888400000",
"ln":"132.36079200000"
},
"geometry":{
"type":"Point",
"coordinates":[
132.360792,
34.368884
]
}
},
{
"type":"Feature",
"properties":{
"Name":"五日市中央小学校",
"Jusho":"広島県広島市佐伯区五日市中央3-12-1",
"Capacity":"1241",
"la":"34.36907800000",
"ln":"132.35304300000"
},
"geometry":{
"type":"Point",
"coordinates":[
132.353043,
34.369078
]
}
},
{
"type":"Feature",
"properties":{
"Name":"五日市東小学校",
"Jusho":"広島県広島市佐伯区皆賀2-3-1",
"Capacity":"1076",
"la":"34.37555000000",
"ln":"132.36898600000"
},
"geometry":{
"type":"Point",
"coordinates":[
132.368986,
34.37555
]
}
},
{
"type":"Feature",
"properties":{
"Name":"五日市南小学校",
"Jusho":"広島県広島市佐伯区海老園3-18-1",
"Capacity":"1611",
"la":"34.36121800000",
"ln":"132.35726400000"
},
"geometry":{
"type":"Point",
"coordinates":[
132.357264,
34.361218
]
}
},
{
"type":"Feature",
"properties":{
"Name":"彩が丘小学校",
"Jusho":"広島県広島市佐伯区河内南2-10-1",
"Capacity":"1000",
"la":"34.41037800000",
"ln":"132.34401600000"
},
"geometry":{
"type":"Point",
"coordinates":[
132.344016,
34.410378
]
}
},
{
"type":"Feature",
"properties":{
"Name":"石内小学校",
"Jusho":"広島県広島市佐伯区五日市町石内3276",
"Capacity":"567",
"la":"34.41921200000",
"ln":"132.38431800000"
},
"geometry":{
"type":"Point",
"coordinates":[
132.384318,
34.419212
]
}
},
{
"type":"Feature",
"properties":{
"Name":"湯来西小学校",
"Jusho":"広島県広島市佐伯区湯来町多田2419",
"Capacity":"331",
"la":"34.47002800000",
"ln":"132.23392000000"
},
"geometry":{
"type":"Point",
"coordinates":[
132.23392,
34.470028
]
}
},
{
"type":"Feature",
"properties":{
"Name":"湯来東小学校",
"Jusho":"広島県広島市佐伯区湯来町麦谷1803-1",
"Capacity":"354",
"la":"34.52588300000",
"ln":"132.31633500000"
},
"geometry":{
"type":"Point",
"coordinates":[
132.316335,
34.525883
]
}
},
{
"type":"Feature",
"properties":{
"Name":"湯来南小学校",
"Jusho":"広島県広島市佐伯区湯来町白砂3555-1",
"Capacity":"598",
"la":"34.43348800000",
"ln":"132.29016800000"
},
"geometry":{
"type":"Point",
"coordinates":[
132.290168,
34.433488
]
}
},
{
"type":"Feature",
"properties":{
"Name":"藤の木小学校",
"Jusho":"広島県広島市佐伯区藤の木2-2-1",
"Capacity":"1101",
"la":"34.42654400000",
"ln":"132.36409700000"
},
"geometry":{
"type":"Point",
"coordinates":[
132.364097,
34.426544
]
}
},
{
"type":"Feature",
"properties":{
"Name":"八幡小学校",
"Jusho":"広島県広島市佐伯区八幡2-2-1",
"Capacity":"1453",
"la":"34.39213100000",
"ln":"132.35745900000"
},
"geometry":{
"type":"Point",
"coordinates":[
132.357459,
34.392131
]
}
},
{
"type":"Feature",
"properties":{
"Name":"八幡東小学校",
"Jusho":"広島県広島市佐伯区八幡東4-27-1",
"Capacity":"1615",
"la":"34.39393600000",
"ln":"132.36545900000"
},
"geometry":{
"type":"Point",
"coordinates":[
132.365459,
34.393936
]
}
},
{
"type":"Feature",
"properties":{
"Name":"美鈴が丘小学校",
"Jusho":"広島県広島市佐伯区美鈴が丘西1-8-1",
"Capacity":"1574",
"la":"34.39210400000",
"ln":"132.38043000000"
},
"geometry":{
"type":"Point",
"coordinates":[
132.38043,
34.392104
]
}
},
{
"type":"Feature",
"properties":{
"Name":"吉名小学校体育館",
"Jusho":"広島県竹原市吉名町4907-1",
"Capacity":"－",
"la":"34.31995500000",
"ln":"132.86816500000"
},
"geometry":{
"type":"Point",
"coordinates":[
132.868165,
34.319955
]
}
},
{
"type":"Feature",
"properties":{
"Name":"旧田万里小学校体育館",
"Jusho":"広島県竹原市田万里町1229-1",
"Capacity":"－",
"la":"34.40869160270",
"ln":"132.83895583400"
},
"geometry":{
"type":"Point",
"coordinates":[
132.838955834,
34.4086916027
]
}
},
{
"type":"Feature",
"properties":{
"Name":"仁賀小学校体育館",
"Jusho":"広島県竹原市仁賀町1280",
"Capacity":"－",
"la":"34.37597500000",
"ln":"132.84813900000"
},
"geometry":{
"type":"Point",
"coordinates":[
132.848139,
34.375975
]
}
},
{
"type":"Feature",
"properties":{
"Name":"荘野小学校体育館",
"Jusho":"広島県竹原市西野町2025",
"Capacity":"－",
"la":"34.39589000000",
"ln":"132.88724600000"
},
"geometry":{
"type":"Point",
"coordinates":[
132.887246,
34.39589
]
}
},
{
"type":"Feature",
"properties":{
"Name":"大乗小学校体育館",
"Jusho":"広島県竹原市高崎町185-7",
"Capacity":"－",
"la":"34.33781400000",
"ln":"132.94776600000"
},
"geometry":{
"type":"Point",
"coordinates":[
132.947766,
34.337814
]
}
},
{
"type":"Feature",
"properties":{
"Name":"竹原小学校体育館",
"Jusho":"広島県竹原市田ノ浦2-5-1",
"Capacity":"－",
"la":"34.34567400000",
"ln":"132.91524300000"
},
"geometry":{
"type":"Point",
"coordinates":[
132.915243,
34.345674
]
}
},
{
"type":"Feature",
"properties":{
"Name":"竹原西小学校体育館",
"Jusho":"広島県竹原市竹原町2440",
"Capacity":"－",
"la":"34.33400900000",
"ln":"132.89888400000"
},
"geometry":{
"type":"Point",
"coordinates":[
132.898884,
34.334009
]
}
},
{
"type":"Feature",
"properties":{
"Name":"中通小学校体育館",
"Jusho":"広島県竹原市下野町3469",
"Capacity":"－",
"la":"34.35481100000",
"ln":"132.90218900000"
},
"geometry":{
"type":"Point",
"coordinates":[
132.902189,
34.354811
]
}
},
{
"type":"Feature",
"properties":{
"Name":"忠海西小学校体育館",
"Jusho":"広島県竹原市忠海床浦1-5-1",
"Capacity":"－",
"la":"34.33420400000",
"ln":"132.98745600000"
},
"geometry":{
"type":"Point",
"coordinates":[
132.987456,
34.334204
]
}
},
{
"type":"Feature",
"properties":{
"Name":"忠海東小学校体育館",
"Jusho":"広島県竹原市忠海東町5-19-1",
"Capacity":"－",
"la":"34.33533400000",
"ln":"133.00182100000"
},
"geometry":{
"type":"Point",
"coordinates":[
133.001821,
34.335334
]
}
},
{
"type":"Feature",
"properties":{
"Name":"東野小学校体育館",
"Jusho":"広島県竹原市東野町914",
"Capacity":"－",
"la":"34.37253200000",
"ln":"132.88252400000"
},
"geometry":{
"type":"Point",
"coordinates":[
132.882524,
34.372532
]
}
},
{
"type":"Feature",
"properties":{
"Name":"羽和泉小学校",
"Jusho":"広島県三原市久井町羽倉497",
"Capacity":"266",
"la":"34.51986100000",
"ln":"133.00782300000"
},
"geometry":{
"type":"Point",
"coordinates":[
133.007823,
34.519861
]
}
},
{
"type":"Feature",
"properties":{
"Name":"久井小学校",
"Jusho":"広島県三原市久井町下津1397",
"Capacity":"266",
"la":"34.53596200000",
"ln":"133.03579900000"
},
"geometry":{
"type":"Point",
"coordinates":[
133.035799,
34.535962
]
}
},
{
"type":"Feature",
"properties":{
"Name":"久井南小学校",
"Jusho":"広島県三原市久井町坂井原3024",
"Capacity":"237",
"la":"34.48861500000",
"ln":"133.03257700000"
},
"geometry":{
"type":"Point",
"coordinates":[
133.032577,
34.488615
]
}
},
{
"type":"Feature",
"properties":{
"Name":"旧向田小学校（体育館）",
"Jusho":"広島県三原市鷺浦町向田野浦1712",
"Capacity":"161",
"la":"34.32815895100",
"ln":"133.10626058100"
},
"geometry":{
"type":"Point",
"coordinates":[
133.106260581,
34.328158951
]
}
},
{
"type":"Feature",
"properties":{
"Name":"旧鷺浦小学校（体育館）",
"Jusho":"広島県三原市鷺浦町須波1738",
"Capacity":"180",
"la":"34.35300799910",
"ln":"133.11308300000"
},
"geometry":{
"type":"Point",
"coordinates":[
133.113083,
34.3530079991
]
}
},
{
"type":"Feature",
"properties":{
"Name":"旧渡瀬小学校（体育館）",
"Jusho":"広島県三原市幸崎町渡瀬764-1",
"Capacity":"184",
"la":"34.34689546140",
"ln":"133.01351902000"
},
"geometry":{
"type":"Point",
"coordinates":[
133.01351902,
34.3468954614
]
}
},
{
"type":"Feature",
"properties":{
"Name":"幸崎小学校（体育館）",
"Jusho":"広島県三原市幸崎能地三丁目16-2",
"Capacity":"227",
"la":"34.33942499910",
"ln":"133.03639600000"
},
"geometry":{
"type":"Point",
"coordinates":[
133.036396,
34.3394249991
]
}
},
{
"type":"Feature",
"properties":{
"Name":"高坂小学校（体育館）",
"Jusho":"広島県三原市高坂町真良1813-1",
"Capacity":"193",
"la":"34.43552400000",
"ln":"132.99956400000"
},
"geometry":{
"type":"Point",
"coordinates":[
132.999564,
34.435524
]
}
},
{
"type":"Feature",
"properties":{
"Name":"鷺浦小学校（体育館）",
"Jusho":"広島県三原市鷺浦町須波2189",
"Capacity":"187",
"la":"34.35323000000",
"ln":"133.11750000000"
},
"geometry":{
"type":"Point",
"coordinates":[
133.1175,
34.35323
]
}
},
{
"type":"Feature",
"properties":{
"Name":"三原小学校（体育館）",
"Jusho":"広島県三原市館町二丁目3-1",
"Capacity":"290",
"la":"34.40369600000",
"ln":"133.08297300000"
},
"geometry":{
"type":"Point",
"coordinates":[
133.082973,
34.403696
]
}
},
{
"type":"Feature",
"properties":{
"Name":"糸崎小学校（体育館）",
"Jusho":"広島県三原市糸崎五丁目3-1",
"Capacity":"242",
"la":"34.39130900000",
"ln":"133.10933200000"
},
"geometry":{
"type":"Point",
"coordinates":[
133.109332,
34.391309
]
}
},
{
"type":"Feature",
"properties":{
"Name":"小坂小学校（体育館）",
"Jusho":"広島県三原市小坂町3515",
"Capacity":"200",
"la":"34.41344400000",
"ln":"133.01867300000"
},
"geometry":{
"type":"Point",
"coordinates":[
133.018673,
34.413444
]
}
},
{
"type":"Feature",
"properties":{
"Name":"小泉小学校（体育館）",
"Jusho":"広島県三原市小泉町4840-1",
"Capacity":"177",
"la":"34.36900400000",
"ln":"132.98914900000"
},
"geometry":{
"type":"Point",
"coordinates":[
132.989149,
34.369004
]
}
},
{
"type":"Feature",
"properties":{
"Name":"沼田小学校（体育館）",
"Jusho":"広島県三原市沼田二丁目1-32",
"Capacity":"161",
"la":"34.40264000000",
"ln":"133.04203200000"
},
"geometry":{
"type":"Point",
"coordinates":[
133.042032,
34.40264
]
}
},
{
"type":"Feature",
"properties":{
"Name":"沼田西小学校（体育館）",
"Jusho":"広島県三原市沼田西町松江1508",
"Capacity":"177",
"la":"34.39441800000",
"ln":"132.98392700000"
},
"geometry":{
"type":"Point",
"coordinates":[
132.983927,
34.394418
]
}
},
{
"type":"Feature",
"properties":{
"Name":"沼田東小学校（体育館）",
"Jusho":"広島県三原市沼田東町片島273",
"Capacity":"242",
"la":"34.38978000000",
"ln":"133.02059000000"
},
"geometry":{
"type":"Point",
"coordinates":[
133.02059,
34.38978
]
}
},
{
"type":"Feature",
"properties":{
"Name":"深小学校（体育館）",
"Jusho":"広島県三原市深町1589",
"Capacity":"161",
"la":"34.43141600000",
"ln":"133.13599800000"
},
"geometry":{
"type":"Point",
"coordinates":[
133.135998,
34.431416
]
}
},
{
"type":"Feature",
"properties":{
"Name":"神田小学校",
"Jusho":"広島県三原市大和町下徳良1986",
"Capacity":"179",
"la":"34.55184300000",
"ln":"132.94874800000"
},
"geometry":{
"type":"Point",
"coordinates":[
132.948748,
34.551843
]
}
},
{
"type":"Feature",
"properties":{
"Name":"神田東小学校",
"Jusho":"広島県三原市大和町上徳良1121",
"Capacity":"182",
"la":"34.53943200000",
"ln":"132.96686100000"
},
"geometry":{
"type":"Point",
"coordinates":[
132.966861,
34.539432
]
}
},
{
"type":"Feature",
"properties":{
"Name":"須波小学校（体育館）",
"Jusho":"広島県三原市須波一丁目22-1",
"Capacity":"225",
"la":"34.36517300000",
"ln":"133.08339100000"
},
"geometry":{
"type":"Point",
"coordinates":[
133.083391,
34.365173
]
}
},
{
"type":"Feature",
"properties":{
"Name":"西小学校（体育館）",
"Jusho":"広島県三原市西宮二丁目7-1",
"Capacity":"242",
"la":"34.40468300000",
"ln":"133.06607100000"
},
"geometry":{
"type":"Point",
"coordinates":[
133.066071,
34.404683
]
}
},
{
"type":"Feature",
"properties":{
"Name":"船木小学校",
"Jusho":"広島県三原市本郷町船木1972",
"Capacity":"1200",
"la":"34.43284700000",
"ln":"132.96627700000"
},
"geometry":{
"type":"Point",
"coordinates":[
132.966277,
34.432847
]
}
},
{
"type":"Feature",
"properties":{
"Name":"大草小学校",
"Jusho":"広島県三原市大和町大草9061",
"Capacity":"150",
"la":"34.50046100000",
"ln":"132.95670600000"
},
"geometry":{
"type":"Point",
"coordinates":[
132.956706,
34.500461
]
}
},
{
"type":"Feature",
"properties":{
"Name":"地域学習センター（旧久和喜小学校）（体育館）",
"Jusho":"広島県三原市幸崎久和喜3-18",
"Capacity":"184",
"la":"34.34455900000",
"ln":"133.06846800000"
},
"geometry":{
"type":"Point",
"coordinates":[
133.068468,
34.344559
]
}
},
{
"type":"Feature",
"properties":{
"Name":"中之町小学校（体育館）",
"Jusho":"広島県三原市中之町六丁目4-1",
"Capacity":"242",
"la":"34.41875100000",
"ln":"133.10683200000"
},
"geometry":{
"type":"Point",
"coordinates":[
133.106832,
34.418751
]
}
},
{
"type":"Feature",
"properties":{
"Name":"田野浦小学校（体育館）",
"Jusho":"広島県三原市宗郷一丁目10-1",
"Capacity":"310",
"la":"34.38644800000",
"ln":"133.06286400000"
},
"geometry":{
"type":"Point",
"coordinates":[
133.062864,
34.386448
]
}
},
{
"type":"Feature",
"properties":{
"Name":"南小学校（体育館）",
"Jusho":"広島県三原市宮沖三丁目15-1",
"Capacity":"314",
"la":"34.39574300000",
"ln":"133.07305300000"
},
"geometry":{
"type":"Point",
"coordinates":[
133.073053,
34.395743
]
}
},
{
"type":"Feature",
"properties":{
"Name":"南方小学校",
"Jusho":"広島県三原市本郷町南方4003",
"Capacity":"228",
"la":"34.39613400000",
"ln":"132.95641600000"
},
"geometry":{
"type":"Point",
"coordinates":[
132.956416,
34.396134
]
}
},
{
"type":"Feature",
"properties":{
"Name":"八幡小学校（体育館）",
"Jusho":"広島県三原市八幡町宮内277",
"Capacity":"227",
"la":"34.47490999910",
"ln":"133.08455600000"
},
"geometry":{
"type":"Point",
"coordinates":[
133.084556,
34.4749099991
]
}
},
{
"type":"Feature",
"properties":{
"Name":"北方小学校",
"Jusho":"広島県三原市本郷町上北方2922",
"Capacity":"177",
"la":"34.41266800000",
"ln":"132.94342900000"
},
"geometry":{
"type":"Point",
"coordinates":[
132.943429,
34.412668
]
}
},
{
"type":"Feature",
"properties":{
"Name":"本郷小学校",
"Jusho":"広島県三原市本郷北三丁目15-1",
"Capacity":"308",
"la":"34.41119200000",
"ln":"132.98590300000"
},
"geometry":{
"type":"Point",
"coordinates":[
132.985903,
34.411192
]
}
},
{
"type":"Feature",
"properties":{
"Name":"木原小学校（体育館）",
"Jusho":"広島県三原市木原三丁目2-20",
"Capacity":"214",
"la":"34.39264299910",
"ln":"133.14144200000"
},
"geometry":{
"type":"Point",
"coordinates":[
133.141442,
34.3926429991
]
}
},
{
"type":"Feature",
"properties":{
"Name":"和木小学校",
"Jusho":"広島県三原市大和町和木2163-7",
"Capacity":"184",
"la":"34.50714300000",
"ln":"132.92531300000"
},
"geometry":{
"type":"Point",
"coordinates":[
132.925313,
34.507143
]
}
},
{
"type":"Feature",
"properties":{
"Name":"椹梨小学校",
"Jusho":"広島県三原市大和町椋梨2431",
"Capacity":"205",
"la":"34.52988400000",
"ln":"132.89294300000"
},
"geometry":{
"type":"Point",
"coordinates":[
132.892943,
34.529884
]
}
},
{
"type":"Feature",
"properties":{
"Name":"因北小学校",
"Jusho":"広島県尾道市因島中庄町3322",
"Capacity":"－",
"la":"34.32774100000",
"ln":"133.17309700000"
},
"geometry":{
"type":"Point",
"coordinates":[
133.173097,
34.327741
]
}
},
{
"type":"Feature",
"properties":{
"Name":"浦崎小学校",
"Jusho":"広島県尾道市浦崎町甲2246",
"Capacity":"－",
"la":"34.40439300000",
"ln":"133.27573600000"
},
"geometry":{
"type":"Point",
"coordinates":[
133.275736,
34.404393
]
}
},
{
"type":"Feature",
"properties":{
"Name":"吉和小学校",
"Jusho":"広島県尾道市東元町26-3",
"Capacity":"－",
"la":"34.40083700000",
"ln":"133.17016300000"
},
"geometry":{
"type":"Point",
"coordinates":[
133.170163,
34.400837
]
}
},
{
"type":"Feature",
"properties":{
"Name":"久保小学校",
"Jusho":"広島県尾道市東久保町13-19",
"Capacity":"－",
"la":"34.41447500000",
"ln":"133.20757700000"
},
"geometry":{
"type":"Point",
"coordinates":[
133.207577,
34.414475
]
}
},
{
"type":"Feature",
"properties":{
"Name":"旧今津野小学校体育館",
"Jusho":"広島県尾道市御調町津蟹604-1",
"Capacity":"－",
"la":"34.50067213390",
"ln":"133.09473136200"
},
"geometry":{
"type":"Point",
"coordinates":[
133.094731362,
34.5006721339
]
}
},
{
"type":"Feature",
"properties":{
"Name":"旧上川辺小学校体育館",
"Jusho":"広島県尾道市御調町本737-2",
"Capacity":"－",
"la":"34.53509500000",
"ln":"133.17548400000"
},
"geometry":{
"type":"Point",
"coordinates":[
133.175484,
34.535095
]
}
},
{
"type":"Feature",
"properties":{
"Name":"旧大和小学校体育館",
"Jusho":"広島県尾道市御調町大山田1139-2",
"Capacity":"－",
"la":"34.54971317840",
"ln":"133.14647797000"
},
"geometry":{
"type":"Point",
"coordinates":[
133.14647797,
34.5497131784
]
}
},
{
"type":"Feature",
"properties":{
"Name":"栗原小学校",
"Jusho":"広島県尾道市西則末町11-16",
"Capacity":"－",
"la":"34.42283499910",
"ln":"133.18791100000"
},
"geometry":{
"type":"Point",
"coordinates":[
133.187911,
34.4228349991
]
}
},
{
"type":"Feature",
"properties":{
"Name":"栗原北小学校",
"Jusho":"広島県尾道市栗原町11750",
"Capacity":"－",
"la":"34.43788800000",
"ln":"133.19416000000"
},
"geometry":{
"type":"Point",
"coordinates":[
133.19416,
34.437888
]
}
},
{
"type":"Feature",
"properties":{
"Name":"原田小学校",
"Jusho":"広島県尾道市原田町梶山田61",
"Capacity":"－",
"la":"34.49582599910",
"ln":"133.21326600000"
},
"geometry":{
"type":"Point",
"coordinates":[
133.213266,
34.4958259991
]
}
},
{
"type":"Feature",
"properties":{
"Name":"御調西小学校",
"Jusho":"広島県尾道市御調町丸門田21",
"Capacity":"－",
"la":"34.50154600000",
"ln":"133.12310800000"
},
"geometry":{
"type":"Point",
"coordinates":[
133.123108,
34.501546
]
}
},
{
"type":"Feature",
"properties":{
"Name":"御調中央小学校",
"Jusho":"広島県尾道市御調町市1113",
"Capacity":"－",
"la":"34.51399000000",
"ln":"133.14846700000"
},
"geometry":{
"type":"Point",
"coordinates":[
133.148467,
34.51399
]
}
},
{
"type":"Feature",
"properties":{
"Name":"向島中央小学校",
"Jusho":"広島県尾道市向島町5979",
"Capacity":"－",
"la":"34.39266500000",
"ln":"133.19838800000"
},
"geometry":{
"type":"Point",
"coordinates":[
133.198388,
34.392665
]
}
},
{
"type":"Feature",
"properties":{
"Name":"向東小学校",
"Jusho":"広島県尾道市向東町8670",
"Capacity":"－",
"la":"34.39983700000",
"ln":"133.21966000000"
},
"geometry":{
"type":"Point",
"coordinates":[
133.21966,
34.399837
]
}
},
{
"type":"Feature",
"properties":{
"Name":"高見小学校",
"Jusho":"広島県尾道市向島町2116-3",
"Capacity":"－",
"la":"34.37977500000",
"ln":"133.21757700000"
},
"geometry":{
"type":"Point",
"coordinates":[
133.217577,
34.379775
]
}
},
{
"type":"Feature",
"properties":{
"Name":"高須小学校",
"Jusho":"広島県尾道市高須町3493",
"Capacity":"－",
"la":"34.43952800000",
"ln":"133.22740700000"
},
"geometry":{
"type":"Point",
"coordinates":[
133.227407,
34.439528
]
}
},
{
"type":"Feature",
"properties":{
"Name":"三幸小学校",
"Jusho":"広島県尾道市向島町12617",
"Capacity":"－",
"la":"34.38012200000",
"ln":"133.17509900000"
},
"geometry":{
"type":"Point",
"coordinates":[
133.175099,
34.380122
]
}
},
{
"type":"Feature",
"properties":{
"Name":"三庄小学校",
"Jusho":"広島県尾道市因島三庄町1633",
"Capacity":"－",
"la":"34.29458600000",
"ln":"133.19404300000"
},
"geometry":{
"type":"Point",
"coordinates":[
133.194043,
34.294586
]
}
},
{
"type":"Feature",
"properties":{
"Name":"三成小学校",
"Jusho":"広島県尾道市美ノ郷町三成1042-2",
"Capacity":"－",
"la":"34.45174700000",
"ln":"133.19152000000"
},
"geometry":{
"type":"Point",
"coordinates":[
133.19152,
34.451747
]
}
},
{
"type":"Feature",
"properties":{
"Name":"山波小学校",
"Jusho":"広島県尾道市山波町1630",
"Capacity":"－",
"la":"34.41494700000",
"ln":"133.22540800000"
},
"geometry":{
"type":"Point",
"coordinates":[
133.225408,
34.414947
]
}
},
{
"type":"Feature",
"properties":{
"Name":"重井小学校",
"Jusho":"広島県尾道市因島重井町3309-1",
"Capacity":"－",
"la":"34.34149800000",
"ln":"133.14585300000"
},
"geometry":{
"type":"Point",
"coordinates":[
133.145853,
34.341498
]
}
},
{
"type":"Feature",
"properties":{
"Name":"瀬戸田小学校",
"Jusho":"広島県尾道市瀬戸田町沢200-1",
"Capacity":"－",
"la":"34.30691000000",
"ln":"133.09063100000"
},
"geometry":{
"type":"Point",
"coordinates":[
133.090631,
34.30691
]
}
},
{
"type":"Feature",
"properties":{
"Name":"西藤小学校",
"Jusho":"広島県尾道市西藤町1500",
"Capacity":"－",
"la":"34.45580300000",
"ln":"133.22310100000"
},
"geometry":{
"type":"Point",
"coordinates":[
133.223101,
34.455803
]
}
},
{
"type":"Feature",
"properties":{
"Name":"長江小学校",
"Jusho":"広島県尾道市長江二丁目8-12",
"Capacity":"－",
"la":"34.41461400000",
"ln":"133.20052100000"
},
"geometry":{
"type":"Point",
"coordinates":[
133.200521,
34.414614
]
}
},
{
"type":"Feature",
"properties":{
"Name":"田熊小学校",
"Jusho":"広島県尾道市因島田熊町1022-4",
"Capacity":"－",
"la":"34.30009800000",
"ln":"133.17055800000"
},
"geometry":{
"type":"Point",
"coordinates":[
133.170558,
34.300098
]
}
},
{
"type":"Feature",
"properties":{
"Name":"土生小学校",
"Jusho":"広島県尾道市因島土生町1724-1",
"Capacity":"－",
"la":"34.29059400000",
"ln":"133.17729600000"
},
"geometry":{
"type":"Point",
"coordinates":[
133.177296,
34.290594
]
}
},
{
"type":"Feature",
"properties":{
"Name":"土堂小学校",
"Jusho":"広島県尾道市西土堂町6-44",
"Capacity":"－",
"la":"34.40683700000",
"ln":"133.19546700000"
},
"geometry":{
"type":"Point",
"coordinates":[
133.195467,
34.406837
]
}
},
{
"type":"Feature",
"properties":{
"Name":"東生口小学校",
"Jusho":"広島県尾道市因島原町1591-1",
"Capacity":"－",
"la":"34.28495300000",
"ln":"133.13740500000"
},
"geometry":{
"type":"Point",
"coordinates":[
133.137405,
34.284953
]
}
},
{
"type":"Feature",
"properties":{
"Name":"南小学校",
"Jusho":"広島県尾道市瀬戸田町荻2576-1",
"Capacity":"－",
"la":"34.26555400000",
"ln":"133.10591500000"
},
"geometry":{
"type":"Point",
"coordinates":[
133.105915,
34.265554
]
}
},
{
"type":"Feature",
"properties":{
"Name":"日比崎小学校",
"Jusho":"広島県尾道市日比崎町12-1",
"Capacity":"－",
"la":"34.40661400000",
"ln":"133.18621700000"
},
"geometry":{
"type":"Point",
"coordinates":[
133.186217,
34.406614
]
}
},
{
"type":"Feature",
"properties":{
"Name":"木ノ庄西小学校",
"Jusho":"広島県尾道市木ノ庄町木門田1511-1",
"Capacity":"－",
"la":"34.46752400000",
"ln":"133.15786100000"
},
"geometry":{
"type":"Point",
"coordinates":[
133.157861,
34.467524
]
}
},
{
"type":"Feature",
"properties":{
"Name":"木ノ庄東小学校",
"Jusho":"広島県尾道市木ノ庄町木梨696",
"Capacity":"－",
"la":"34.47007800000",
"ln":"133.18052000000"
},
"geometry":{
"type":"Point",
"coordinates":[
133.18052,
34.470078
]
}
},
{
"type":"Feature",
"properties":{
"Name":"木頃小学校",
"Jusho":"広島県尾道市美ノ郷町本郷604",
"Capacity":"－",
"la":"34.45102500000",
"ln":"133.16577300000"
},
"geometry":{
"type":"Point",
"coordinates":[
133.165773,
34.451025
]
}
},
{
"type":"Feature",
"properties":{
"Name":"旭丘小学校",
"Jusho":"広島県福山市引野町南2-17-1",
"Capacity":"1101",
"la":"34.49002400000",
"ln":"133.42638800000"
},
"geometry":{
"type":"Point",
"coordinates":[
133.426388,
34.490024
]
}
},
{
"type":"Feature",
"properties":{
"Name":"旭小学校",
"Jusho":"広島県福山市入船町1-2-1",
"Capacity":"1505",
"la":"34.48927400000",
"ln":"133.37392000000"
},
"geometry":{
"type":"Point",
"coordinates":[
133.37392,
34.489274
]
}
},
{
"type":"Feature",
"properties":{
"Name":"伊勢丘小学校",
"Jusho":"広島県福山市伊勢丘5-7-1",
"Capacity":"1602",
"la":"34.50566100000",
"ln":"133.42049900000"
},
"geometry":{
"type":"Point",
"coordinates":[
133.420499,
34.505661
]
}
},
{
"type":"Feature",
"properties":{
"Name":"引野小学校",
"Jusho":"広島県福山市引野町4032",
"Capacity":"1421",
"la":"34.49146800000",
"ln":"133.41391700000"
},
"geometry":{
"type":"Point",
"coordinates":[
133.413917,
34.491468
]
}
},
{
"type":"Feature",
"properties":{
"Name":"駅家小学校",
"Jusho":"広島県福山市駅家町倉光100",
"Capacity":"1606",
"la":"34.54851700000",
"ln":"133.32622700000"
},
"geometry":{
"type":"Point",
"coordinates":[
133.326227,
34.548517
]
}
},
{
"type":"Feature",
"properties":{
"Name":"駅家西小学校",
"Jusho":"広島県福山市駅家町近田205-1",
"Capacity":"1404",
"la":"34.54418400000",
"ln":"133.31720000000"
},
"geometry":{
"type":"Point",
"coordinates":[
133.3172,
34.544184
]
}
},
{
"type":"Feature",
"properties":{
"Name":"駅家東小学校",
"Jusho":"広島県福山市駅家町法成寺67",
"Capacity":"1253",
"la":"34.55476700000",
"ln":"133.32936600000"
},
"geometry":{
"type":"Point",
"coordinates":[
133.329366,
34.554767
]
}
},
{
"type":"Feature",
"properties":{
"Name":"加茂小学校",
"Jusho":"広島県福山市加茂町中野848",
"Capacity":"1597",
"la":"34.57562600000",
"ln":"133.34764200000"
},
"geometry":{
"type":"Point",
"coordinates":[
133.347642,
34.575626
]
}
},
{
"type":"Feature",
"properties":{
"Name":"霞小学校",
"Jusho":"広島県福山市霞町3-8-1",
"Capacity":"1582",
"la":"34.48263500000",
"ln":"133.36144900000"
},
"geometry":{
"type":"Point",
"coordinates":[
133.361449,
34.482635
]
}
},
{
"type":"Feature",
"properties":{
"Name":"宜山小学校",
"Jusho":"広島県福山市駅家町今岡424",
"Capacity":"1171",
"la":"34.52999100000",
"ln":"133.31584000000"
},
"geometry":{
"type":"Point",
"coordinates":[
133.31584,
34.529991
]
}
},
{
"type":"Feature",
"properties":{
"Name":"久松台小学校",
"Jusho":"広島県福山市久松台1-9-1",
"Capacity":"1310",
"la":"34.50416100000",
"ln":"133.35753200000"
},
"geometry":{
"type":"Point",
"coordinates":[
133.357532,
34.504161
]
}
},
{
"type":"Feature",
"properties":{
"Name":"金江小学校",
"Jusho":"広島県福山市金江町金見3552-1",
"Capacity":"1056",
"la":"34.43291800000",
"ln":"133.28304000000"
},
"geometry":{
"type":"Point",
"coordinates":[
133.28304,
34.432918
]
}
},
{
"type":"Feature",
"properties":{
"Name":"熊野小学校",
"Jusho":"広島県福山市熊野町乙1132",
"Capacity":"1048",
"la":"34.43491800000",
"ln":"133.33489600000"
},
"geometry":{
"type":"Point",
"coordinates":[
133.334896,
34.434918
]
}
},
{
"type":"Feature",
"properties":{
"Name":"戸手小学校",
"Jusho":"広島県福山市新市町戸手1244",
"Capacity":"1212",
"la":"34.55102500000",
"ln":"133.29217200000"
},
"geometry":{
"type":"Point",
"coordinates":[
133.292172,
34.551025
]
}
},
{
"type":"Feature",
"properties":{
"Name":"御幸小学校",
"Jusho":"広島県福山市御幸町森脇140",
"Capacity":"1763",
"la":"34.53726900000",
"ln":"133.35092000000"
},
"geometry":{
"type":"Point",
"coordinates":[
133.35092,
34.537269
]
}
},
{
"type":"Feature",
"properties":{
"Name":"御野小学校",
"Jusho":"広島県福山市神辺町下御領28",
"Capacity":"2259",
"la":"34.56647600000",
"ln":"133.40315000000"
},
"geometry":{
"type":"Point",
"coordinates":[
133.40315,
34.566476
]
}
},
{
"type":"Feature",
"properties":{
"Name":"広瀬小学校",
"Jusho":"広島県福山市加茂町北山714-2",
"Capacity":"580",
"la":"34.61412100000",
"ln":"133.34219700000"
},
"geometry":{
"type":"Point",
"coordinates":[
133.342197,
34.614121
]
}
},
{
"type":"Feature",
"properties":{
"Name":"高島小学校",
"Jusho":"広島県福山市田尻町2248",
"Capacity":"896",
"la":"34.42425400000",
"ln":"133.38694800000"
},
"geometry":{
"type":"Point",
"coordinates":[
133.386948,
34.424254
]
}
},
{
"type":"Feature",
"properties":{
"Name":"今津小学校",
"Jusho":"広島県福山市今津町1561",
"Capacity":"1486",
"la":"34.45391500000",
"ln":"133.24659900000"
},
"geometry":{
"type":"Point",
"coordinates":[
133.246599,
34.453915
]
}
},
{
"type":"Feature",
"properties":{
"Name":"桜丘小学校",
"Jusho":"広島県福山市北吉津町5-6-15",
"Capacity":"1320",
"la":"34.49957800000",
"ln":"133.36800300000"
},
"geometry":{
"type":"Point",
"coordinates":[
133.368003,
34.499578
]
}
},
{
"type":"Feature",
"properties":{
"Name":"山手小学校",
"Jusho":"広島県福山市山手町1-5-1",
"Capacity":"1150",
"la":"34.49080100000",
"ln":"133.33133900000"
},
"geometry":{
"type":"Point",
"coordinates":[
133.331339,
34.490801
]
}
},
{
"type":"Feature",
"properties":{
"Name":"山南小学校",
"Jusho":"広島県福山市沼隈町中山南甲1254",
"Capacity":"1736",
"la":"34.41675100000",
"ln":"133.32337500000"
},
"geometry":{
"type":"Point",
"coordinates":[
133.323375,
34.416751
]
}
},
{
"type":"Feature",
"properties":{
"Name":"山野小学校",
"Jusho":"広島県福山市山野町山野3579",
"Capacity":"592",
"la":"34.65697700000",
"ln":"133.38735800000"
},
"geometry":{
"type":"Point",
"coordinates":[
133.387358,
34.656977
]
}
},
{
"type":"Feature",
"properties":{
"Name":"山野北小学校",
"Jusho":"広島県福山市山野町山野1984",
"Capacity":"433",
"la":"34.67472500000",
"ln":"133.36336000000"
},
"geometry":{
"type":"Point",
"coordinates":[
133.36336,
34.674725
]
}
},
{
"type":"Feature",
"properties":{
"Name":"手城小学校",
"Jusho":"広島県福山市南手城町4-5-10",
"Capacity":"1560",
"la":"34.48399600000",
"ln":"133.39975200000"
},
"geometry":{
"type":"Point",
"coordinates":[
133.399752,
34.483996
]
}
},
{
"type":"Feature",
"properties":{
"Name":"樹徳小学校",
"Jusho":"広島県福山市木之庄町1-1-63",
"Capacity":"1888",
"la":"34.49452300000",
"ln":"133.35672600000"
},
"geometry":{
"type":"Point",
"coordinates":[
133.356726,
34.494523
]
}
},
{
"type":"Feature",
"properties":{
"Name":"春日小学校",
"Jusho":"広島県福山市春日町浦上2002",
"Capacity":"1557",
"la":"34.51735500000",
"ln":"133.41541600000"
},
"geometry":{
"type":"Point",
"coordinates":[
133.415416,
34.517355
]
}
},
{
"type":"Feature",
"properties":{
"Name":"曙小学校",
"Jusho":"広島県福山市曙町5-16-3",
"Capacity":"1405",
"la":"34.46913700000",
"ln":"133.39436400000"
},
"geometry":{
"type":"Point",
"coordinates":[
133.394364,
34.469137
]
}
},
{
"type":"Feature",
"properties":{
"Name":"松永小学校",
"Jusho":"広島県福山市松永町6-7-11-8",
"Capacity":"1492",
"la":"34.44422200000",
"ln":"133.25593100000"
},
"geometry":{
"type":"Point",
"coordinates":[
133.255931,
34.444222
]
}
},
{
"type":"Feature",
"properties":{
"Name":"常金丸小学校",
"Jusho":"広島県福山市新市町金丸684",
"Capacity":"908",
"la":"34.60583600000",
"ln":"133.26038600000"
},
"geometry":{
"type":"Point",
"coordinates":[
133.260386,
34.605836
]
}
},
{
"type":"Feature",
"properties":{
"Name":"常石小学校",
"Jusho":"広島県福山市沼隈町常石984-1",
"Capacity":"842",
"la":"34.38702400000",
"ln":"133.29803700000"
},
"geometry":{
"type":"Point",
"coordinates":[
133.298037,
34.387024
]
}
},
{
"type":"Feature",
"properties":{
"Name":"新涯小学校",
"Jusho":"広島県福山市新涯町3-18-1",
"Capacity":"1860",
"la":"34.45997100000",
"ln":"133.39133700000"
},
"geometry":{
"type":"Point",
"coordinates":[
133.391337,
34.459971
]
}
},
{
"type":"Feature",
"properties":{
"Name":"新市小学校",
"Jusho":"広島県福山市新市町新市852",
"Capacity":"1407",
"la":"34.55723000000",
"ln":"133.27420500000"
},
"geometry":{
"type":"Point",
"coordinates":[
133.274205,
34.55723
]
}
},
{
"type":"Feature",
"properties":{
"Name":"深津小学校",
"Jusho":"広島県福山市東深津町2-5-1",
"Capacity":"1882",
"la":"34.49549600000",
"ln":"133.38914100000"
},
"geometry":{
"type":"Point",
"coordinates":[
133.389141,
34.495496
]
}
},
{
"type":"Feature",
"properties":{
"Name":"神村小学校",
"Jusho":"広島県福山市神村町3369",
"Capacity":"1217",
"la":"34.45699800000",
"ln":"133.26959600000"
},
"geometry":{
"type":"Point",
"coordinates":[
133.269596,
34.456998
]
}
},
{
"type":"Feature",
"properties":{
"Name":"神辺小学校",
"Jusho":"広島県福山市神辺町川南2912-11",
"Capacity":"3308",
"la":"34.53709500000",
"ln":"133.38122900000"
},
"geometry":{
"type":"Point",
"coordinates":[
133.381229,
34.537095
]
}
},
{
"type":"Feature",
"properties":{
"Name":"水呑小学校",
"Jusho":"広島県福山市水呑町1919",
"Capacity":"1462",
"la":"34.44550000000",
"ln":"133.37861500000"
},
"geometry":{
"type":"Point",
"coordinates":[
133.378615,
34.4455
]
}
},
{
"type":"Feature",
"properties":{
"Name":"瀬戸小学校",
"Jusho":"広島県福山市瀬戸町地頭分1377",
"Capacity":"1677",
"la":"34.47185800000",
"ln":"133.32539600000"
},
"geometry":{
"type":"Point",
"coordinates":[
133.325396,
34.471858
]
}
},
{
"type":"Feature",
"properties":{
"Name":"西小学校",
"Jusho":"広島県福山市西町1-14-17",
"Capacity":"1669",
"la":"34.48788500000",
"ln":"133.35564300000"
},
"geometry":{
"type":"Point",
"coordinates":[
133.355643,
34.487885
]
}
},
{
"type":"Feature",
"properties":{
"Name":"西深津小学校",
"Jusho":"広島県福山市西深津町5-1-1",
"Capacity":"1476",
"la":"34.49782800000",
"ln":"133.37683600000"
},
"geometry":{
"type":"Point",
"coordinates":[
133.376836,
34.497828
]
}
},
{
"type":"Feature",
"properties":{
"Name":"赤坂小学校",
"Jusho":"広島県福山市赤坂町赤坂312-1",
"Capacity":"1073",
"la":"34.46592100000",
"ln":"133.29725200000"
},
"geometry":{
"type":"Point",
"coordinates":[
133.297252,
34.465921
]
}
},
{
"type":"Feature",
"properties":{
"Name":"千田小学校",
"Jusho":"広島県福山市千田町3-16-26",
"Capacity":"1828",
"la":"34.52043700000",
"ln":"133.36997500000"
},
"geometry":{
"type":"Point",
"coordinates":[
133.369975,
34.520437
]
}
},
{
"type":"Feature",
"properties":{
"Name":"千年小学校",
"Jusho":"広島県福山市沼隈町草深432-2",
"Capacity":"2193",
"la":"34.39201500000",
"ln":"133.32161800000"
},
"geometry":{
"type":"Point",
"coordinates":[
133.321618,
34.392015
]
}
},
{
"type":"Feature",
"properties":{
"Name":"川口小学校",
"Jusho":"広島県福山市川口町2-2-1",
"Capacity":"1569",
"la":"34.46980300000",
"ln":"133.38383700000"
},
"geometry":{
"type":"Point",
"coordinates":[
133.383837,
34.469803
]
}
},
{
"type":"Feature",
"properties":{
"Name":"川口東小学校",
"Jusho":"広島県福山市東川口町5-13-46",
"Capacity":"1231",
"la":"34.47330300000",
"ln":"133.39017000000"
},
"geometry":{
"type":"Point",
"coordinates":[
133.39017,
34.473303
]
}
},
{
"type":"Feature",
"properties":{
"Name":"泉小学校",
"Jusho":"広島県福山市山手町7-13-63",
"Capacity":"1392",
"la":"34.50038300000",
"ln":"133.33595000000"
},
"geometry":{
"type":"Point",
"coordinates":[
133.33595,
34.500383
]
}
},
{
"type":"Feature",
"properties":{
"Name":"走島小学校",
"Jusho":"広島県福山市走島町49",
"Capacity":"743",
"la":"34.34529300000",
"ln":"133.43427900000"
},
"geometry":{
"type":"Point",
"coordinates":[
133.434279,
34.345293
]
}
},
{
"type":"Feature",
"properties":{
"Name":"蔵王小学校",
"Jusho":"広島県福山市蔵王町4-16-1",
"Capacity":"1170",
"la":"34.50902200000",
"ln":"133.38872400000"
},
"geometry":{
"type":"Point",
"coordinates":[
133.388724,
34.509022
]
}
},
{
"type":"Feature",
"properties":{
"Name":"多治米小学校",
"Jusho":"広島県福山市多治米町5-15-15",
"Capacity":"1369",
"la":"34.46597000000",
"ln":"133.37514300000"
},
"geometry":{
"type":"Point",
"coordinates":[
133.375143,
34.46597
]
}
},
{
"type":"Feature",
"properties":{
"Name":"大谷台小学校",
"Jusho":"広島県福山市大門町大門580",
"Capacity":"1361",
"la":"34.51271600000",
"ln":"133.44888500000"
},
"geometry":{
"type":"Point",
"coordinates":[
133.448885,
34.512716
]
}
},
{
"type":"Feature",
"properties":{
"Name":"大津野小学校",
"Jusho":"広島県福山市大門町日之出丘3043",
"Capacity":"1549",
"la":"34.50027300000",
"ln":"133.44338600000"
},
"geometry":{
"type":"Point",
"coordinates":[
133.443386,
34.500273
]
}
},
{
"type":"Feature",
"properties":{
"Name":"竹尋小学校",
"Jusho":"広島県福山市神辺町下竹田85-1",
"Capacity":"1890",
"la":"34.55640800000",
"ln":"133.41887100000"
},
"geometry":{
"type":"Point",
"coordinates":[
133.418871,
34.556408
]
}
},
{
"type":"Feature",
"properties":{
"Name":"中条小学校",
"Jusho":"広島県福山市神辺町東中条2304-1",
"Capacity":"1965",
"la":"34.58040700000",
"ln":"133.37209700000"
},
"geometry":{
"type":"Point",
"coordinates":[
133.372097,
34.580407
]
}
},
{
"type":"Feature",
"properties":{
"Name":"中条小学校三谷分校",
"Jusho":"広島県福山市神辺町三谷632-1",
"Capacity":"448",
"la":"34.60588789300",
"ln":"133.38354463200"
},
"geometry":{
"type":"Point",
"coordinates":[
133.383544632,
34.605887893
]
}
},
{
"type":"Feature",
"properties":{
"Name":"長浜小学校",
"Jusho":"広島県福山市引野町5401",
"Capacity":"1269",
"la":"34.48602400000",
"ln":"133.41180600000"
},
"geometry":{
"type":"Point",
"coordinates":[
133.411806,
34.486024
]
}
},
{
"type":"Feature",
"properties":{
"Name":"津之郷小学校",
"Jusho":"広島県福山市津之郷町津之郷1322",
"Capacity":"1069",
"la":"34.48591300000",
"ln":"133.31911800000"
},
"geometry":{
"type":"Point",
"coordinates":[
133.319118,
34.485913
]
}
},
{
"type":"Feature",
"properties":{
"Name":"坪生小学校",
"Jusho":"広島県福山市坪生町1-42-1",
"Capacity":"1698",
"la":"34.52243700000",
"ln":"133.43533100000"
},
"geometry":{
"type":"Point",
"coordinates":[
133.435331,
34.522437
]
}
},
{
"type":"Feature",
"properties":{
"Name":"東小学校",
"Jusho":"広島県福山市東町3-7-49",
"Capacity":"1650",
"la":"34.49346800000",
"ln":"133.37086400000"
},
"geometry":{
"type":"Point",
"coordinates":[
133.370864,
34.493468
]
}
},
{
"type":"Feature",
"properties":{
"Name":"東村小学校",
"Jusho":"広島県福山市東村町2543",
"Capacity":"1008",
"la":"34.46402400000",
"ln":"133.22882200000"
},
"geometry":{
"type":"Point",
"coordinates":[
133.228822,
34.464024
]
}
},
{
"type":"Feature",
"properties":{
"Name":"湯田小学校",
"Jusho":"広島県福山市神辺町川北1113-1",
"Capacity":"3035",
"la":"34.55020200000",
"ln":"133.37878700000"
},
"geometry":{
"type":"Point",
"coordinates":[
133.378787,
34.550202
]
}
},
{
"type":"Feature",
"properties":{
"Name":"藤江小学校",
"Jusho":"広島県福山市藤江町2894",
"Capacity":"1091",
"la":"34.42197500000",
"ln":"133.28120700000"
},
"geometry":{
"type":"Point",
"coordinates":[
133.281207,
34.421975
]
}
},
{
"type":"Feature",
"properties":{
"Name":"道上小学校",
"Jusho":"広島県福山市神辺町道上1923-1",
"Capacity":"2071",
"la":"34.56074800000",
"ln":"133.35915900000"
},
"geometry":{
"type":"Point",
"coordinates":[
133.359159,
34.560748
]
}
},
{
"type":"Feature",
"properties":{
"Name":"内浦小学校",
"Jusho":"広島県福山市内海町イ1973",
"Capacity":"799",
"la":"34.35981500000",
"ln":"133.32440300000"
},
"geometry":{
"type":"Point",
"coordinates":[
133.324403,
34.359815
]
}
},
{
"type":"Feature",
"properties":{
"Name":"内海小学校",
"Jusho":"広島県福山市内海町73",
"Capacity":"857",
"la":"34.35538700000",
"ln":"133.28285400000"
},
"geometry":{
"type":"Point",
"coordinates":[
133.282854,
34.355387
]
}
},
{
"type":"Feature",
"properties":{
"Name":"南小学校",
"Jusho":"広島県福山市明治町4-1",
"Capacity":"1380",
"la":"34.48366300000",
"ln":"133.36808700000"
},
"geometry":{
"type":"Point",
"coordinates":[
133.368087,
34.483663
]
}
},
{
"type":"Feature",
"properties":{
"Name":"日吉台小学校",
"Jusho":"広島県福山市日吉台1-15-1",
"Capacity":"1384",
"la":"34.51049400000",
"ln":"133.40386200000"
},
"geometry":{
"type":"Point",
"coordinates":[
133.403862,
34.510494
]
}
},
{
"type":"Feature",
"properties":{
"Name":"能登原小学校",
"Jusho":"広島県福山市沼隈町能登原1141",
"Capacity":"1045",
"la":"34.37674000000",
"ln":"133.35042400000"
},
"geometry":{
"type":"Point",
"coordinates":[
133.350424,
34.37674
]
}
},
{
"type":"Feature",
"properties":{
"Name":"光小学校",
"Jusho":"広島県福山市草戸町4-14-1",
"Capacity":"1540",
"la":"34.47294199910",
"ln":"133.35950500000"
},
"geometry":{
"type":"Point",
"coordinates":[
133.359505,
34.4729419991
]
}
},
{
"type":"Feature",
"properties":{
"Name":"服部小学校",
"Jusho":"広島県福山市駅家町助元70",
"Capacity":"802",
"la":"34.58498500000",
"ln":"133.31072800000"
},
"geometry":{
"type":"Point",
"coordinates":[
133.310728,
34.584985
]
}
},
{
"type":"Feature",
"properties":{
"Name":"福相小学校",
"Jusho":"広島県福山市芦田町福田1030",
"Capacity":"1104",
"la":"34.53290700000",
"ln":"133.28600900000"
},
"geometry":{
"type":"Point",
"coordinates":[
133.286009,
34.532907
]
}
},
{
"type":"Feature",
"properties":{
"Name":"本郷小学校",
"Jusho":"広島県福山市本郷町1040-1",
"Capacity":"906",
"la":"34.47166300000",
"ln":"133.24659800000"
},
"geometry":{
"type":"Point",
"coordinates":[
133.246598,
34.471663
]
}
},
{
"type":"Feature",
"properties":{
"Name":"幕山小学校",
"Jusho":"広島県福山市幕山台2-17-1",
"Capacity":"1735",
"la":"34.50891100000",
"ln":"133.43447000000"
},
"geometry":{
"type":"Point",
"coordinates":[
133.43447,
34.508911
]
}
},
{
"type":"Feature",
"properties":{
"Name":"箕島小学校",
"Jusho":"広島県福山市箕島町325",
"Capacity":"720",
"la":"34.44894500000",
"ln":"133.40222500000"
},
"geometry":{
"type":"Point",
"coordinates":[
133.402225,
34.448945
]
}
},
{
"type":"Feature",
"properties":{
"Name":"明王台小学校",
"Jusho":"広島県福山市明王台1-2-16",
"Capacity":"1384",
"la":"34.47896900000",
"ln":"133.34139500000"
},
"geometry":{
"type":"Point",
"coordinates":[
133.341395,
34.478969
]
}
},
{
"type":"Feature",
"properties":{
"Name":"網引小学校",
"Jusho":"広島県福山市新市町宮内1240",
"Capacity":"1386",
"la":"34.57645600000",
"ln":"133.27606000000"
},
"geometry":{
"type":"Point",
"coordinates":[
133.27606,
34.576456
]
}
},
{
"type":"Feature",
"properties":{
"Name":"野々浜小学校",
"Jusho":"広島県福山市大門町7-13-1",
"Capacity":"1180",
"la":"34.49355100000",
"ln":"133.45169100000"
},
"geometry":{
"type":"Point",
"coordinates":[
133.451691,
34.493551
]
}
},
{
"type":"Feature",
"properties":{
"Name":"柳津小学校",
"Jusho":"広島県福山市柳津町5-2-25",
"Capacity":"1079",
"la":"34.43725000000",
"ln":"133.26806900000"
},
"geometry":{
"type":"Point",
"coordinates":[
133.268069,
34.43725
]
}
},
{
"type":"Feature",
"properties":{
"Name":"有磨小学校",
"Jusho":"広島県福山市芦田町上有地388-1",
"Capacity":"1059",
"la":"34.52880400000",
"ln":"133.26063200000"
},
"geometry":{
"type":"Point",
"coordinates":[
133.260632,
34.528804
]
}
},
{
"type":"Feature",
"properties":{
"Name":"緑丘小学校",
"Jusho":"広島県福山市春日町5-15-1",
"Capacity":"1731",
"la":"34.50349500000",
"ln":"133.40716700000"
},
"geometry":{
"type":"Point",
"coordinates":[
133.407167,
34.503495
]
}
},
{
"type":"Feature",
"properties":{
"Name":"鞆小学校",
"Jusho":"広島県福山市鞆町後地1240-1",
"Capacity":"1533",
"la":"34.38514800000",
"ln":"133.37875400000"
},
"geometry":{
"type":"Point",
"coordinates":[
133.378754,
34.385148
]
}
},
{
"type":"Feature",
"properties":{
"Name":"旭小学校",
"Jusho":"広島県府中市中須町610",
"Capacity":"－",
"la":"34.56243000000",
"ln":"133.25989900000"
},
"geometry":{
"type":"Point",
"coordinates":[
133.259899,
34.56243
]
}
},
{
"type":"Feature",
"properties":{
"Name":"久佐スポーツグラウンド（元久佐小学校体育館）",
"Jusho":"広島県府中市久佐町",
"Capacity":"－",
"la":"34.59106500000",
"ln":"133.16851700000"
},
"geometry":{
"type":"Point",
"coordinates":[
133.168517,
34.591065
]
}
},
{
"type":"Feature",
"properties":{
"Name":"協和スポーツグラウンド（元北小学校体育館）",
"Jusho":"広島県府中市木野山町",
"Capacity":"－",
"la":"34.62372700000",
"ln":"133.19382000000"
},
"geometry":{
"type":"Point",
"coordinates":[
133.19382,
34.623727
]
}
},
{
"type":"Feature",
"properties":{
"Name":"栗生小学校",
"Jusho":"広島県府中市栗柄町3056",
"Capacity":"－",
"la":"34.55207000000",
"ln":"133.23965100000"
},
"geometry":{
"type":"Point",
"coordinates":[
133.239651,
34.55207
]
}
},
{
"type":"Feature",
"properties":{
"Name":"古府の森スポーツグラウンド（元東小学校体育館）",
"Jusho":"広島県府中市府中町400",
"Capacity":"－",
"la":"34.58140000000",
"ln":"133.23401200000"
},
"geometry":{
"type":"Point",
"coordinates":[
133.234012,
34.5814
]
}
},
{
"type":"Feature",
"properties":{
"Name":"国府小学校",
"Jusho":"広島県府中市高木町617",
"Capacity":"－",
"la":"34.56123600000",
"ln":"133.24940000000"
},
"geometry":{
"type":"Point",
"coordinates":[
133.2494,
34.561236
]
}
},
{
"type":"Feature",
"properties":{
"Name":"出口スポーツグラウンド（元西小学校体育館）",
"Jusho":"広島県府中市出口町949",
"Capacity":"－",
"la":"34.57731684670",
"ln":"133.22472976300"
},
"geometry":{
"type":"Point",
"coordinates":[
133.224729763,
34.5773168467
]
}
},
{
"type":"Feature",
"properties":{
"Name":"諸田スポーツグラウンド（元諸田小学校体育館）",
"Jusho":"広島県府中市諸毛町1339-5",
"Capacity":"－",
"la":"34.57272400900",
"ln":"133.18414904900"
},
"geometry":{
"type":"Point",
"coordinates":[
133.184149049,
34.572724009
]
}
},
{
"type":"Feature",
"properties":{
"Name":"上下南小学校",
"Jusho":"広島県府中市上下町矢多田179-3",
"Capacity":"－",
"la":"34.66836800000",
"ln":"133.12426600000"
},
"geometry":{
"type":"Point",
"coordinates":[
133.124266,
34.668368
]
}
},
{
"type":"Feature",
"properties":{
"Name":"上下北小学校",
"Jusho":"広島県府中市上下町上下1878",
"Capacity":"－",
"la":"34.69809600000",
"ln":"133.12670700000"
},
"geometry":{
"type":"Point",
"coordinates":[
133.126707,
34.698096
]
}
},
{
"type":"Feature",
"properties":{
"Name":"南小学校",
"Jusho":"広島県府中市用土町444",
"Capacity":"－",
"la":"34.56243853230",
"ln":"133.23293952800"
},
"geometry":{
"type":"Point",
"coordinates":[
133.232939528,
34.5624385323
]
}
},
{
"type":"Feature",
"properties":{
"Name":"府中明郷小学校",
"Jusho":"広島県府中市篠根町661",
"Capacity":"－",
"la":"34.55212400000",
"ln":"133.20418200000"
},
"geometry":{
"type":"Point",
"coordinates":[
133.204182,
34.552124
]
}
},
{
"type":"Feature",
"properties":{
"Name":"粟屋小学校",
"Jusho":"広島県三次市粟屋町2349",
"Capacity":"－",
"la":"34.79497900000",
"ln":"132.83573900000"
},
"geometry":{
"type":"Point",
"coordinates":[
132.835739,
34.794979
]
}
},
{
"type":"Feature",
"properties":{
"Name":"安田小学校",
"Jusho":"広島県三次市吉舎町安田1742",
"Capacity":"－",
"la":"34.74014700000",
"ln":"133.02984000000"
},
"geometry":{
"type":"Point",
"coordinates":[
133.02984,
34.740147
]
}
},
{
"type":"Feature",
"properties":{
"Name":"宇賀小学校",
"Jusho":"広島県三次市甲奴町宇賀1211",
"Capacity":"－",
"la":"34.70421300000",
"ln":"133.03760400000"
},
"geometry":{
"type":"Point",
"coordinates":[
133.037604,
34.704213
]
}
},
{
"type":"Feature",
"properties":{
"Name":"河内小学校",
"Jusho":"広島県三次市小文町173",
"Capacity":"－",
"la":"34.82950300000",
"ln":"132.85198700000"
},
"geometry":{
"type":"Point",
"coordinates":[
132.851987,
34.829503
]
}
},
{
"type":"Feature",
"properties":{
"Name":"灰塚小学校",
"Jusho":"広島県三次市三良坂町灰塚60-1",
"Capacity":"－",
"la":"34.75676900000",
"ln":"132.99947000000"
},
"geometry":{
"type":"Point",
"coordinates":[
132.99947,
34.756769
]
}
},
{
"type":"Feature",
"properties":{
"Name":"吉舎小学校",
"Jusho":"広島県三次市吉舎町三玉444",
"Capacity":"－",
"la":"34.72443700000",
"ln":"132.99248900000"
},
"geometry":{
"type":"Point",
"coordinates":[
132.992489,
34.724437
]
}
},
{
"type":"Feature",
"properties":{
"Name":"旧三次西小学校",
"Jusho":"広島県三次市日下町143-1",
"Capacity":"－",
"la":"34.81894800000",
"ln":"132.81971300000"
},
"geometry":{
"type":"Point",
"coordinates":[
132.819713,
34.818948
]
}
},
{
"type":"Feature",
"properties":{
"Name":"旧上田小学校（上田体育館）",
"Jusho":"広島県三次市上田町388",
"Capacity":"－",
"la":"34.69609600000",
"ln":"132.91161700000"
},
"geometry":{
"type":"Point",
"coordinates":[
132.911617,
34.696096
]
}
},
{
"type":"Feature",
"properties":{
"Name":"君田小学校",
"Jusho":"広島県三次市君田町東入君362",
"Capacity":"－",
"la":"34.87671800000",
"ln":"132.85441200000"
},
"geometry":{
"type":"Point",
"coordinates":[
132.854412,
34.876718
]
}
},
{
"type":"Feature",
"properties":{
"Name":"甲奴小学校",
"Jusho":"広島県三次市甲奴町梶田5",
"Capacity":"－",
"la":"34.70968200000",
"ln":"133.07060800000"
},
"geometry":{
"type":"Point",
"coordinates":[
133.070608,
34.709682
]
}
},
{
"type":"Feature",
"properties":{
"Name":"作木小学校",
"Jusho":"広島県三次市作木町下作木905",
"Capacity":"－",
"la":"34.87361000000",
"ln":"132.72372100000"
},
"geometry":{
"type":"Point",
"coordinates":[
132.723721,
34.87361
]
}
},
{
"type":"Feature",
"properties":{
"Name":"三次小学校",
"Jusho":"広島県三次市三次町1851",
"Capacity":"－",
"la":"34.81192200000",
"ln":"132.84507100000"
},
"geometry":{
"type":"Point",
"coordinates":[
132.845071,
34.811922
]
}
},
{
"type":"Feature",
"properties":{
"Name":"三良坂小学校",
"Jusho":"広島県三次市三良坂町三良坂1992",
"Capacity":"－",
"la":"34.76471000000",
"ln":"132.95318400000"
},
"geometry":{
"type":"Point",
"coordinates":[
132.953184,
34.76471
]
}
},
{
"type":"Feature",
"properties":{
"Name":"三和小学校",
"Jusho":"広島県三次市三和町敷名1496",
"Capacity":"－",
"la":"34.66064000000",
"ln":"132.84738700000"
},
"geometry":{
"type":"Point",
"coordinates":[
132.847387,
34.66064
]
}
},
{
"type":"Feature",
"properties":{
"Name":"酒河小学校",
"Jusho":"広島県三次市西酒屋町804",
"Capacity":"－",
"la":"34.78550900000",
"ln":"132.85159900000"
},
"geometry":{
"type":"Point",
"coordinates":[
132.851599,
34.785509
]
}
},
{
"type":"Feature",
"properties":{
"Name":"十日市小学校",
"Jusho":"広島県三次市十日市中4-9-1",
"Capacity":"－",
"la":"34.80849600000",
"ln":"132.85421900000"
},
"geometry":{
"type":"Point",
"coordinates":[
132.854219,
34.808496
]
}
},
{
"type":"Feature",
"properties":{
"Name":"小童小学校",
"Jusho":"広島県三次市甲奴町小童3104",
"Capacity":"－",
"la":"34.68021500000",
"ln":"133.06787500000"
},
"geometry":{
"type":"Point",
"coordinates":[
133.067875,
34.680215
]
}
},
{
"type":"Feature",
"properties":{
"Name":"神杉小学校",
"Jusho":"広島県三次市高杉町1684-1",
"Capacity":"－",
"la":"34.77451700000",
"ln":"132.89254600000"
},
"geometry":{
"type":"Point",
"coordinates":[
132.892546,
34.774517
]
}
},
{
"type":"Feature",
"properties":{
"Name":"仁賀小学校",
"Jusho":"広島県三次市三良坂町仁賀1373-2",
"Capacity":"－",
"la":"34.79126900000",
"ln":"132.97847400000"
},
"geometry":{
"type":"Point",
"coordinates":[
132.978474,
34.791269
]
}
},
{
"type":"Feature",
"properties":{
"Name":"青河小学校",
"Jusho":"広島県三次市青河町580",
"Capacity":"－",
"la":"34.76093200000",
"ln":"132.81950700000"
},
"geometry":{
"type":"Point",
"coordinates":[
132.819507,
34.760932
]
}
},
{
"type":"Feature",
"properties":{
"Name":"川西小学校",
"Jusho":"広島県三次市三若町2652",
"Capacity":"－",
"la":"34.71743500000",
"ln":"132.89001400000"
},
"geometry":{
"type":"Point",
"coordinates":[
132.890014,
34.717435
]
}
},
{
"type":"Feature",
"properties":{
"Name":"川地小学校",
"Jusho":"広島県三次市下川立町503-1",
"Capacity":"－",
"la":"34.73637400000",
"ln":"132.78921900000"
},
"geometry":{
"type":"Point",
"coordinates":[
132.789219,
34.736374
]
}
},
{
"type":"Feature",
"properties":{
"Name":"田幸小学校",
"Jusho":"広島県三次市大田幸町1600",
"Capacity":"－",
"la":"34.75570800000",
"ln":"132.91362100000"
},
"geometry":{
"type":"Point",
"coordinates":[
132.913621,
34.755708
]
}
},
{
"type":"Feature",
"properties":{
"Name":"八次小学校",
"Jusho":"広島県三次市畠敷町1717",
"Capacity":"－",
"la":"34.80542400000",
"ln":"132.88590100000"
},
"geometry":{
"type":"Point",
"coordinates":[
132.885901,
34.805424
]
}
},
{
"type":"Feature",
"properties":{
"Name":"八幡小学校",
"Jusho":"広島県三次市吉舎町丸田224",
"Capacity":"－",
"la":"34.70017700000",
"ln":"132.98253000000"
},
"geometry":{
"type":"Point",
"coordinates":[
132.98253,
34.700177
]
}
},
{
"type":"Feature",
"properties":{
"Name":"八幡小学校徳市分校",
"Jusho":"広島県三次市吉舎町徳市2527-1",
"Capacity":"－",
"la":"34.66350600000",
"ln":"132.95709500000"
},
"geometry":{
"type":"Point",
"coordinates":[
132.957095,
34.663506
]
}
},
{
"type":"Feature",
"properties":{
"Name":"布野小学校",
"Jusho":"広島県三次市布野町上布野1405",
"Capacity":"－",
"la":"34.88062300000",
"ln":"132.78454500000"
},
"geometry":{
"type":"Point",
"coordinates":[
132.784545,
34.880623
]
}
},
{
"type":"Feature",
"properties":{
"Name":"和田小学校",
"Jusho":"広島県三次市向江田町728",
"Capacity":"－",
"la":"34.78942600000",
"ln":"132.92048100000"
},
"geometry":{
"type":"Point",
"coordinates":[
132.920481,
34.789426
]
}
},
{
"type":"Feature",
"properties":{
"Name":"粟田小学校",
"Jusho":"広島県庄原市東城町粟田2229番地",
"Capacity":"300",
"la":"34.93461700000",
"ln":"133.27990700000"
},
"geometry":{
"type":"Point",
"coordinates":[
133.279907,
34.934617
]
}
},
{
"type":"Feature",
"properties":{
"Name":"永末小学校",
"Jusho":"広島県庄原市永末町37番地1",
"Capacity":"181",
"la":"34.85600400000",
"ln":"133.05257700000"
},
"geometry":{
"type":"Point",
"coordinates":[
133.052577,
34.856004
]
}
},
{
"type":"Feature",
"properties":{
"Name":"久代小学校（休校中）",
"Jusho":"広島県庄原市東城町久代2440番地1",
"Capacity":"300",
"la":"34.87494400000",
"ln":"133.27331800000"
},
"geometry":{
"type":"Point",
"coordinates":[
133.273318,
34.874944
]
}
},
{
"type":"Feature",
"properties":{
"Name":"旧水後小学校",
"Jusho":"広島県庄原市水越町808番地",
"Capacity":"239",
"la":"34.83980900000",
"ln":"132.91100900000"
},
"geometry":{
"type":"Point",
"coordinates":[
132.911009,
34.839809
]
}
},
{
"type":"Feature",
"properties":{
"Name":"熊野小学校（休校中）",
"Jusho":"広島県庄原市西城町熊野1023番地",
"Capacity":"386",
"la":"35.01717811460",
"ln":"133.08805893300"
},
"geometry":{
"type":"Point",
"coordinates":[
133.088058933,
35.0171781146
]
}
},
{
"type":"Feature",
"properties":{
"Name":"古頃小学校（休校中）",
"Jusho":"広島県庄原市比和町古頃579番地",
"Capacity":"642",
"la":"34.97067400000",
"ln":"132.95566700000"
},
"geometry":{
"type":"Point",
"coordinates":[
132.955667,
34.970674
]
}
},
{
"type":"Feature",
"properties":{
"Name":"戸宇小学校（休校中）",
"Jusho":"広島県庄原市東城町戸宇544番地",
"Capacity":"200",
"la":"34.89959300000",
"ln":"133.24607300000"
},
"geometry":{
"type":"Point",
"coordinates":[
133.246073,
34.899593
]
}
},
{
"type":"Feature",
"properties":{
"Name":"口南小学校",
"Jusho":"広島県庄原市口和町永田3番地2",
"Capacity":"415",
"la":"34.89394800000",
"ln":"132.92491300000"
},
"geometry":{
"type":"Point",
"coordinates":[
132.924913,
34.893948
]
}
},
{
"type":"Feature",
"properties":{
"Name":"口北小学校",
"Jusho":"広島県庄原市口和町向泉1041番地",
"Capacity":"353",
"la":"34.91582000000",
"ln":"132.90162400000"
},
"geometry":{
"type":"Point",
"coordinates":[
132.901624,
34.91582
]
}
},
{
"type":"Feature",
"properties":{
"Name":"高小学校",
"Jusho":"広島県庄原市高町828番地",
"Capacity":"320",
"la":"34.88197300000",
"ln":"133.07190800000"
},
"geometry":{
"type":"Point",
"coordinates":[
133.071908,
34.881973
]
}
},
{
"type":"Feature",
"properties":{
"Name":"高南小学校（休校中）",
"Jusho":"広島県庄原市小用町5044番地",
"Capacity":"99",
"la":"34.86305900000",
"ln":"133.05693800000"
},
"geometry":{
"type":"Point",
"coordinates":[
133.056938,
34.863059
]
}
},
{
"type":"Feature",
"properties":{
"Name":"高野小学校",
"Jusho":"広島県庄原市高野町新市1650番地",
"Capacity":"558",
"la":"35.03720400000",
"ln":"132.90141600000"
},
"geometry":{
"type":"Point",
"coordinates":[
132.901416,
35.037204
]
}
},
{
"type":"Feature",
"properties":{
"Name":"三河内小学校（休校中）",
"Jusho":"広島県庄原市比和町三河内1638番地",
"Capacity":"593",
"la":"34.97649000000",
"ln":"133.02890300000"
},
"geometry":{
"type":"Point",
"coordinates":[
133.028903,
34.97649
]
}
},
{
"type":"Feature",
"properties":{
"Name":"山内小学校",
"Jusho":"広島県庄原市山内町813番地1",
"Capacity":"320",
"la":"34.83225500000",
"ln":"132.94897700000"
},
"geometry":{
"type":"Point",
"coordinates":[
132.948977,
34.832255
]
}
},
{
"type":"Feature",
"properties":{
"Name":"実留小学校（休校中）",
"Jusho":"広島県庄原市実留町2410番地",
"Capacity":"303",
"la":"34.81131500000",
"ln":"133.01330400000"
},
"geometry":{
"type":"Point",
"coordinates":[
133.013304,
34.811315
]
}
},
{
"type":"Feature",
"properties":{
"Name":"小奴可小学校",
"Jusho":"広島県庄原市東城町小奴可320番地5",
"Capacity":"400",
"la":"34.99372300000",
"ln":"133.21365000000"
},
"geometry":{
"type":"Point",
"coordinates":[
133.21365,
34.993723
]
}
},
{
"type":"Feature",
"properties":{
"Name":"庄原小学校",
"Jusho":"広島県庄原市西本町二丁目13番1号",
"Capacity":"427",
"la":"34.85575400000",
"ln":"133.01169100000"
},
"geometry":{
"type":"Point",
"coordinates":[
133.011691,
34.855754
]
}
},
{
"type":"Feature",
"properties":{
"Name":"森脇小学校（休校中）",
"Jusho":"広島県庄原市比和町森脇1009番地",
"Capacity":"455",
"la":"35.03351600000",
"ln":"132.99794500000"
},
"geometry":{
"type":"Point",
"coordinates":[
132.997945,
35.033516
]
}
},
{
"type":"Feature",
"properties":{
"Name":"菅竹小学校（休校中）",
"Jusho":"広島県庄原市東城町菅151番地1",
"Capacity":"300",
"la":"34.94377300000",
"ln":"133.23523200000"
},
"geometry":{
"type":"Point",
"coordinates":[
133.235232,
34.943773
]
}
},
{
"type":"Feature",
"properties":{
"Name":"西城小学校",
"Jusho":"広島県庄原市西城町西城281番地1",
"Capacity":"483",
"la":"34.93279000000",
"ln":"133.11615100000"
},
"geometry":{
"type":"Point",
"coordinates":[
133.116151,
34.93279
]
}
},
{
"type":"Feature",
"properties":{
"Name":"川北小学校",
"Jusho":"広島県庄原市川北町1148番地",
"Capacity":"335",
"la":"34.89674800000",
"ln":"133.01094100000"
},
"geometry":{
"type":"Point",
"coordinates":[
133.010941,
34.896748
]
}
},
{
"type":"Feature",
"properties":{
"Name":"総領小学校",
"Jusho":"広島県庄原市総領町下領家267番地",
"Capacity":"1653",
"la":"34.78502200000",
"ln":"133.07563300000"
},
"geometry":{
"type":"Point",
"coordinates":[
133.075633,
34.785022
]
}
},
{
"type":"Feature",
"properties":{
"Name":"竹地谷小学校（休校中）",
"Jusho":"広島県庄原市口和町竹地谷913番地1",
"Capacity":"196",
"la":"34.95071499910",
"ln":"132.85309900000"
},
"geometry":{
"type":"Point",
"coordinates":[
132.853099,
34.9507149991
]
}
},
{
"type":"Feature",
"properties":{
"Name":"帝釈小学校（休校中）",
"Jusho":"広島県庄原市東城町帝釈未渡2051番地",
"Capacity":"400",
"la":"34.87051600000",
"ln":"133.19812800000"
},
"geometry":{
"type":"Point",
"coordinates":[
133.198128,
34.870516
]
}
},
{
"type":"Feature",
"properties":{
"Name":"田川小学校（休校中）",
"Jusho":"広島県庄原市濁川町43番地2",
"Capacity":"203",
"la":"34.87352900000",
"ln":"132.95911300000"
},
"geometry":{
"type":"Point",
"coordinates":[
132.959113,
34.873529
]
}
},
{
"type":"Feature",
"properties":{
"Name":"東小学校",
"Jusho":"広島県庄原市上原町376番地1",
"Capacity":"363",
"la":"34.85417000000",
"ln":"132.99580400000"
},
"geometry":{
"type":"Point",
"coordinates":[
132.995804,
34.85417
]
}
},
{
"type":"Feature",
"properties":{
"Name":"東城小学校",
"Jusho":"広島県庄原市東城町川東1342番地",
"Capacity":"500",
"la":"34.89594900000",
"ln":"133.27541700000"
},
"geometry":{
"type":"Point",
"coordinates":[
133.275417,
34.895949
]
}
},
{
"type":"Feature",
"properties":{
"Name":"内堀小学校（休校中）",
"Jusho":"広島県庄原市東城町内堀1372番地",
"Capacity":"200",
"la":"34.99085999910",
"ln":"133.24704600000"
},
"geometry":{
"type":"Point",
"coordinates":[
133.247046,
34.9908599991
]
}
},
{
"type":"Feature",
"properties":{
"Name":"八幡小学校",
"Jusho":"広島県庄原市東城町森138番地6",
"Capacity":"400",
"la":"34.95505600000",
"ln":"133.20139600000"
},
"geometry":{
"type":"Point",
"coordinates":[
133.201396,
34.955056
]
}
},
{
"type":"Feature",
"properties":{
"Name":"板橋小学校",
"Jusho":"広島県庄原市板橋町165番地1",
"Capacity":"319",
"la":"34.83913800000",
"ln":"133.01884900000"
},
"geometry":{
"type":"Point",
"coordinates":[
133.018849,
34.839138
]
}
},
{
"type":"Feature",
"properties":{
"Name":"比和小学校",
"Jusho":"広島県庄原市比和町比和1020番地",
"Capacity":"1357",
"la":"34.98820600000",
"ln":"132.98740200000"
},
"geometry":{
"type":"Point",
"coordinates":[
132.987402,
34.988206
]
}
},
{
"type":"Feature",
"properties":{
"Name":"美古登小学校",
"Jusho":"広島県庄原市西城町中野105番地",
"Capacity":"220",
"la":"34.95626900000",
"ln":"133.12415800000"
},
"geometry":{
"type":"Point",
"coordinates":[
133.124158,
34.956269
]
}
},
{
"type":"Feature",
"properties":{
"Name":"峰田小学校",
"Jusho":"広島県庄原市春田町101番地3",
"Capacity":"335",
"la":"34.81745300000",
"ln":"133.04482800000"
},
"geometry":{
"type":"Point",
"coordinates":[
133.044828,
34.817453
]
}
},
{
"type":"Feature",
"properties":{
"Name":"油木小学校（休校中）",
"Jusho":"広島県庄原市西城町油木312番地",
"Capacity":"172",
"la":"35.04479949460",
"ln":"133.11839947700"
},
"geometry":{
"type":"Point",
"coordinates":[
133.118399477,
35.0447994946
]
}
},
{
"type":"Feature",
"properties":{
"Name":"阿多田小学校",
"Jusho":"広島県大竹市阿多田68",
"Capacity":"－",
"la":"34.19423500000",
"ln":"132.31247000000"
},
"geometry":{
"type":"Point",
"coordinates":[
132.31247,
34.194235
]
}
},
{
"type":"Feature",
"properties":{
"Name":"旧木野小学校体育館",
"Jusho":"広島県大竹市木野1-10-25",
"Capacity":"－",
"la":"34.20687100000",
"ln":"132.19492300000"
},
"geometry":{
"type":"Point",
"coordinates":[
132.194923,
34.206871
]
}
},
{
"type":"Feature",
"properties":{
"Name":"玖波小学校",
"Jusho":"広島県大竹市玖波7-1-1",
"Capacity":"－",
"la":"34.25856100000",
"ln":"132.22919600000"
},
"geometry":{
"type":"Point",
"coordinates":[
132.229196,
34.258561
]
}
},
{
"type":"Feature",
"properties":{
"Name":"栗谷小学校",
"Jusho":"広島県大竹市小栗林510",
"Capacity":"－",
"la":"34.29605500000",
"ln":"132.15778500000"
},
"geometry":{
"type":"Point",
"coordinates":[
132.157785,
34.296055
]
}
},
{
"type":"Feature",
"properties":{
"Name":"小方小学校",
"Jusho":"広島県大竹市小方1-8-1",
"Capacity":"－",
"la":"34.23839600000",
"ln":"132.21983700000"
},
"geometry":{
"type":"Point",
"coordinates":[
132.219837,
34.238396
]
}
},
{
"type":"Feature",
"properties":{
"Name":"大竹小学校",
"Jusho":"広島県大竹市白石2-1-1",
"Capacity":"－",
"la":"34.20973200000",
"ln":"132.21639300000"
},
"geometry":{
"type":"Point",
"coordinates":[
132.216393,
34.209732
]
}
},
{
"type":"Feature",
"properties":{
"Name":"穂仁原小学校",
"Jusho":"広島県大竹市穂仁原3594",
"Capacity":"－",
"la":"34.22745200000",
"ln":"132.19195100000"
},
"geometry":{
"type":"Point",
"coordinates":[
132.191951,
34.227452
]
}
},
{
"type":"Feature",
"properties":{
"Name":"下黒瀬小学校",
"Jusho":"広島県東広島市黒瀬町津江1225-3",
"Capacity":"150",
"la":"34.32417600000",
"ln":"132.65010200000"
},
"geometry":{
"type":"Point",
"coordinates":[
132.650102,
34.324176
]
}
},
{
"type":"Feature",
"properties":{
"Name":"河内西小学校",
"Jusho":"広島県東広島市河内町河戸828",
"Capacity":"500",
"la":"34.49998100000",
"ln":"132.82771600000"
},
"geometry":{
"type":"Point",
"coordinates":[
132.827716,
34.499981
]
}
},
{
"type":"Feature",
"properties":{
"Name":"吉川小学校",
"Jusho":"広島県東広島市八本松町吉川365",
"Capacity":"253",
"la":"34.39316600000",
"ln":"132.67154400000"
},
"geometry":{
"type":"Point",
"coordinates":[
132.671544,
34.393166
]
}
},
{
"type":"Feature",
"properties":{
"Name":"久芳小学校",
"Jusho":"広島県東広島市福富町久芳3329-3",
"Capacity":"300",
"la":"34.54077600000",
"ln":"132.78338300000"
},
"geometry":{
"type":"Point",
"coordinates":[
132.783383,
34.540776
]
}
},
{
"type":"Feature",
"properties":{
"Name":"郷田小学校",
"Jusho":"広島県東広島市西条町郷曽1133",
"Capacity":"124",
"la":"34.37955600000",
"ln":"132.70957000000"
},
"geometry":{
"type":"Point",
"coordinates":[
132.70957,
34.379556
]
}
},
{
"type":"Feature",
"properties":{
"Name":"原小学校",
"Jusho":"広島県東広島市八本松町原11407-5",
"Capacity":"228",
"la":"34.41505300000",
"ln":"132.68923700000"
},
"geometry":{
"type":"Point",
"coordinates":[
132.689237,
34.415053
]
}
},
{
"type":"Feature",
"properties":{
"Name":"御薗宇小学校",
"Jusho":"広島県東広島市西条町御薗宇8544-6",
"Capacity":"208",
"la":"34.39713000000",
"ln":"132.74042400000"
},
"geometry":{
"type":"Point",
"coordinates":[
132.740424,
34.39713
]
}
},
{
"type":"Feature",
"properties":{
"Name":"高屋西小学校",
"Jusho":"広島県東広島市高屋町中島582",
"Capacity":"237",
"la":"34.44613300000",
"ln":"132.78433800000"
},
"geometry":{
"type":"Point",
"coordinates":[
132.784338,
34.446133
]
}
},
{
"type":"Feature",
"properties":{
"Name":"高屋東小学校",
"Jusho":"広島県東広島市高屋町白市589",
"Capacity":"101",
"la":"34.45646400000",
"ln":"132.81891700000"
},
"geometry":{
"type":"Point",
"coordinates":[
132.818917,
34.456464
]
}
},
{
"type":"Feature",
"properties":{
"Name":"高美が丘小学校",
"Jusho":"広島県東広島市高屋高美が丘4-1-1",
"Capacity":"150",
"la":"34.46138000000",
"ln":"132.79347500000"
},
"geometry":{
"type":"Point",
"coordinates":[
132.793475,
34.46138
]
}
},
{
"type":"Feature",
"properties":{
"Name":"三ツ城小学校",
"Jusho":"広島県東広島市西条中央7-23-55",
"Capacity":"177",
"la":"34.41770100000",
"ln":"132.73358700000"
},
"geometry":{
"type":"Point",
"coordinates":[
132.733587,
34.417701
]
}
},
{
"type":"Feature",
"properties":{
"Name":"三永小学校",
"Jusho":"広島県東広島市西条町下三永930",
"Capacity":"402",
"la":"34.39394400000",
"ln":"132.77792400000"
},
"geometry":{
"type":"Point",
"coordinates":[
132.777924,
34.393944
]
}
},
{
"type":"Feature",
"properties":{
"Name":"三津小学校",
"Jusho":"広島県東広島市安芸津町三津4680",
"Capacity":"1000",
"la":"34.32539400000",
"ln":"132.81781000000"
},
"geometry":{
"type":"Point",
"coordinates":[
132.81781,
34.325394
]
}
},
{
"type":"Feature",
"properties":{
"Name":"志和堀小学校",
"Jusho":"広島県東広島市志和町志和堀3054",
"Capacity":"198",
"la":"34.50262500000",
"ln":"132.67201500000"
},
"geometry":{
"type":"Point",
"coordinates":[
132.672015,
34.502625
]
}
},
{
"type":"Feature",
"properties":{
"Name":"寺西小学校",
"Jusho":"広島県東広島市西条町寺家6664-1",
"Capacity":"151",
"la":"34.43013500000",
"ln":"132.72601100000"
},
"geometry":{
"type":"Point",
"coordinates":[
132.726011,
34.430135
]
}
},
{
"type":"Feature",
"properties":{
"Name":"小松原小学校",
"Jusho":"広島県東広島市安芸津町小松原609-1",
"Capacity":"500",
"la":"34.28820300000",
"ln":"132.78925100000"
},
"geometry":{
"type":"Point",
"coordinates":[
132.789251,
34.288203
]
}
},
{
"type":"Feature",
"properties":{
"Name":"小谷小学校",
"Jusho":"広島県東広島市高屋町小谷3543-3",
"Capacity":"64",
"la":"34.44174400000",
"ln":"132.83755500000"
},
"geometry":{
"type":"Point",
"coordinates":[
132.837555,
34.441744
]
}
},
{
"type":"Feature",
"properties":{
"Name":"上黒瀬小学校",
"Jusho":"広島県東広島市黒瀬町宗近柳国271-2",
"Capacity":"150",
"la":"34.33802200000",
"ln":"132.71064400000"
},
"geometry":{
"type":"Point",
"coordinates":[
132.710644,
34.338022
]
}
},
{
"type":"Feature",
"properties":{
"Name":"西志和小学校",
"Jusho":"広島県東広島市志和町七条椛坂1670",
"Capacity":"228",
"la":"34.47218400000",
"ln":"132.63737900000"
},
"geometry":{
"type":"Point",
"coordinates":[
132.637379,
34.472184
]
}
},
{
"type":"Feature",
"properties":{
"Name":"西条小学校",
"Jusho":"広島県東広島市西条中央2-15-1",
"Capacity":"231",
"la":"34.42024700000",
"ln":"132.74092600000"
},
"geometry":{
"type":"Point",
"coordinates":[
132.740926,
34.420247
]
}
},
{
"type":"Feature",
"properties":{
"Name":"川上小学校",
"Jusho":"広島県東広島市八本松飯田5-8-47",
"Capacity":"255",
"la":"34.45552100000",
"ln":"132.70340100000"
},
"geometry":{
"type":"Point",
"coordinates":[
132.703401,
34.455521
]
}
},
{
"type":"Feature",
"properties":{
"Name":"造賀小学校",
"Jusho":"広島県東広島市高屋町造賀2774-1",
"Capacity":"143",
"la":"34.48484900000",
"ln":"132.76242200000"
},
"geometry":{
"type":"Point",
"coordinates":[
132.762422,
34.484849
]
}
},
{
"type":"Feature",
"properties":{
"Name":"大芝小学校",
"Jusho":"広島県東広島市安芸津町風早2514",
"Capacity":"200",
"la":"34.27169110140",
"ln":"132.79319181900"
},
"geometry":{
"type":"Point",
"coordinates":[
132.793191819,
34.2716911014
]
}
},
{
"type":"Feature",
"properties":{
"Name":"大田小学校",
"Jusho":"広島県東広島市安芸津町大田819",
"Capacity":"200",
"la":"34.32192200000",
"ln":"132.77030600000"
},
"geometry":{
"type":"Point",
"coordinates":[
132.770306,
34.321922
]
}
},
{
"type":"Feature",
"properties":{
"Name":"竹仁小学校",
"Jusho":"広島県東広島市福富町下竹仁1300",
"Capacity":"300",
"la":"34.52571600000",
"ln":"132.73944300000"
},
"geometry":{
"type":"Point",
"coordinates":[
132.739443,
34.525716
]
}
},
{
"type":"Feature",
"properties":{
"Name":"中黒瀬小学校",
"Jusho":"広島県東広島市黒瀬町楢原18-1",
"Capacity":"150",
"la":"34.33190200000",
"ln":"132.67046100000"
},
"geometry":{
"type":"Point",
"coordinates":[
132.670461,
34.331902
]
}
},
{
"type":"Feature",
"properties":{
"Name":"東志和小学校",
"Jusho":"広島県東広島市志和町志和東3979",
"Capacity":"180",
"la":"34.48432200000",
"ln":"132.68131900000"
},
"geometry":{
"type":"Point",
"coordinates":[
132.681319,
34.484322
]
}
},
{
"type":"Feature",
"properties":{
"Name":"東西条小学校",
"Jusho":"広島県東広島市西条吉行東1-2-1",
"Capacity":"211",
"la":"34.43206600000",
"ln":"132.75931700000"
},
"geometry":{
"type":"Point",
"coordinates":[
132.759317,
34.432066
]
}
},
{
"type":"Feature",
"properties":{
"Name":"入野小学校",
"Jusho":"広島県東広島市河内町入野493-61",
"Capacity":"600",
"la":"34.45055200000",
"ln":"132.86545800000"
},
"geometry":{
"type":"Point",
"coordinates":[
132.865458,
34.450552
]
}
},
{
"type":"Feature",
"properties":{
"Name":"乃美尾小学校",
"Jusho":"広島県東広島市黒瀬町乃美尾554-1",
"Capacity":"150",
"la":"34.32257100000",
"ln":"132.69301900000"
},
"geometry":{
"type":"Point",
"coordinates":[
132.693019,
34.322571
]
}
},
{
"type":"Feature",
"properties":{
"Name":"板城小学校",
"Jusho":"広島県東広島市西条町森近234-1",
"Capacity":"107",
"la":"34.37274000000",
"ln":"132.73192900000"
},
"geometry":{
"type":"Point",
"coordinates":[
132.731929,
34.37274
]
}
},
{
"type":"Feature",
"properties":{
"Name":"板城西小学校",
"Jusho":"広島県東広島市黒瀬町小多田257",
"Capacity":"150",
"la":"34.34678800000",
"ln":"132.71660000000"
},
"geometry":{
"type":"Point",
"coordinates":[
132.7166,
34.346788
]
}
},
{
"type":"Feature",
"properties":{
"Name":"風早小学校",
"Jusho":"広島県東広島市安芸津町風早789",
"Capacity":"500",
"la":"34.31402400000",
"ln":"132.79208100000"
},
"geometry":{
"type":"Point",
"coordinates":[
132.792081,
34.314024
]
}
},
{
"type":"Feature",
"properties":{
"Name":"平岩小学校",
"Jusho":"広島県東広島市西条町寺家521-9",
"Capacity":"211",
"la":"34.44593900000",
"ln":"132.72081600000"
},
"geometry":{
"type":"Point",
"coordinates":[
132.720816,
34.445939
]
}
},
{
"type":"Feature",
"properties":{
"Name":"豊栄小学校",
"Jusho":"広島県東広島市豊栄町鍛冶屋370",
"Capacity":"340",
"la":"34.57050400000",
"ln":"132.82195200000"
},
"geometry":{
"type":"Point",
"coordinates":[
132.821952,
34.570504
]
}
},
{
"type":"Feature",
"properties":{
"Name":"木谷小学校",
"Jusho":"広島県東広島市安芸津町木谷4122",
"Capacity":"750",
"la":"34.31302600000",
"ln":"132.83675400000"
},
"geometry":{
"type":"Point",
"coordinates":[
132.836754,
34.313026
]
}
},
{
"type":"Feature",
"properties":{
"Name":"阿品台西小学校",
"Jusho":"広島県廿日市市阿品台西1番1号",
"Capacity":"－",
"la":"34.32524800000",
"ln":"132.30532800000"
},
"geometry":{
"type":"Point",
"coordinates":[
132.305328,
34.325248
]
}
},
{
"type":"Feature",
"properties":{
"Name":"阿品台東小学校",
"Jusho":"広島県廿日市市阿品台東2番1号",
"Capacity":"－",
"la":"34.33194200000",
"ln":"132.30968800000"
},
"geometry":{
"type":"Point",
"coordinates":[
132.309688,
34.331942
]
}
},
{
"type":"Feature",
"properties":{
"Name":"吉和小学校",
"Jusho":"広島県廿日市市吉和1555番地1",
"Capacity":"－",
"la":"34.47966000000",
"ln":"132.13412600000"
},
"geometry":{
"type":"Point",
"coordinates":[
132.134126,
34.47966
]
}
},
{
"type":"Feature",
"properties":{
"Name":"宮園小学校",
"Jusho":"広島県廿日市市宮園一丁目1番地2",
"Capacity":"－",
"la":"34.35513400000",
"ln":"132.30457700000"
},
"geometry":{
"type":"Point",
"coordinates":[
132.304577,
34.355134
]
}
},
{
"type":"Feature",
"properties":{
"Name":"宮内小学校",
"Jusho":"広島県廿日市市宮内1518番地",
"Capacity":"－",
"la":"34.34805200000",
"ln":"132.30885500000"
},
"geometry":{
"type":"Point",
"coordinates":[
132.308855,
34.348052
]
}
},
{
"type":"Feature",
"properties":{
"Name":"金剛寺小学校",
"Jusho":"広島県廿日市市地御前二丁目22番1号",
"Capacity":"－",
"la":"34.34502400000",
"ln":"132.31952000000"
},
"geometry":{
"type":"Point",
"coordinates":[
132.31952,
34.345024
]
}
},
{
"type":"Feature",
"properties":{
"Name":"玖島小学校",
"Jusho":"広島県廿日市市玖島4323番地",
"Capacity":"－",
"la":"34.39151800000",
"ln":"132.25008000000"
},
"geometry":{
"type":"Point",
"coordinates":[
132.25008,
34.391518
]
}
},
{
"type":"Feature",
"properties":{
"Name":"原小学校",
"Jusho":"広島県廿日市市原433番地",
"Capacity":"－",
"la":"34.36938300000",
"ln":"132.30343800000"
},
"geometry":{
"type":"Point",
"coordinates":[
132.303438,
34.369383
]
}
},
{
"type":"Feature",
"properties":{
"Name":"佐方小学校",
"Jusho":"広島県廿日市市佐方10番地1",
"Capacity":"－",
"la":"34.36027300000",
"ln":"132.33407400000"
},
"geometry":{
"type":"Point",
"coordinates":[
132.334074,
34.360273
]
}
},
{
"type":"Feature",
"properties":{
"Name":"四季が丘小学校",
"Jusho":"広島県廿日市市四季が丘八丁目1番地1",
"Capacity":"－",
"la":"34.34805200000",
"ln":"132.28935600000"
},
"geometry":{
"type":"Point",
"coordinates":[
132.289356,
34.348052
]
}
},
{
"type":"Feature",
"properties":{
"Name":"浅原小学校",
"Jusho":"広島県廿日市市浅原2662番地3",
"Capacity":"－",
"la":"34.34413200000",
"ln":"132.13720200000"
},
"geometry":{
"type":"Point",
"coordinates":[
132.137202,
34.344132
]
}
},
{
"type":"Feature",
"properties":{
"Name":"大野東小学校",
"Jusho":"広島県廿日市市大野720",
"Capacity":"－",
"la":"34.30893600000",
"ln":"132.28343400000"
},
"geometry":{
"type":"Point",
"coordinates":[
132.283434,
34.308936
]
}
},
{
"type":"Feature",
"properties":{
"Name":"地御前小学校",
"Jusho":"広島県廿日市市地御前四丁目3番1号",
"Capacity":"－",
"la":"34.33777500000",
"ln":"132.31788200000"
},
"geometry":{
"type":"Point",
"coordinates":[
132.317882,
34.337775
]
}
},
{
"type":"Feature",
"properties":{
"Name":"津田小学校",
"Jusho":"広島県廿日市市津田2740番地",
"Capacity":"－",
"la":"34.36904700000",
"ln":"132.17294700000"
},
"geometry":{
"type":"Point",
"coordinates":[
132.172947,
34.369047
]
}
},
{
"type":"Feature",
"properties":{
"Name":"廿日市小学校",
"Jusho":"広島県廿日市市本町2番13号",
"Capacity":"－",
"la":"34.35263500000",
"ln":"132.33632400000"
},
"geometry":{
"type":"Point",
"coordinates":[
132.336324,
34.352635
]
}
},
{
"type":"Feature",
"properties":{
"Name":"平良小学校",
"Jusho":"広島県廿日市市陽光台一丁目4番地1",
"Capacity":"－",
"la":"34.35402700000",
"ln":"132.31399700000"
},
"geometry":{
"type":"Point",
"coordinates":[
132.313997,
34.354027
]
}
},
{
"type":"Feature",
"properties":{
"Name":"友和小学校",
"Jusho":"広島県廿日市市友田19番地",
"Capacity":"－",
"la":"34.35918800000",
"ln":"132.22608300000"
},
"geometry":{
"type":"Point",
"coordinates":[
132.226083,
34.359188
]
}
},
{
"type":"Feature",
"properties":{
"Name":"可愛小学校",
"Jusho":"広島県安芸高田市吉田町山手1165番地3",
"Capacity":"－",
"la":"34.64835600000",
"ln":"132.67211600000"
},
"geometry":{
"type":"Point",
"coordinates":[
132.672116,
34.648356
]
}
},
{
"type":"Feature",
"properties":{
"Name":"刈田小学校体育館",
"Jusho":"広島県安芸高田市八千代町勝田1651番地",
"Capacity":"－",
"la":"34.62578899910",
"ln":"132.61841000000"
},
"geometry":{
"type":"Point",
"coordinates":[
132.61841,
34.6257889991
]
}
},
{
"type":"Feature",
"properties":{
"Name":"郷野小学校",
"Jusho":"広島県安芸高田市吉田町桂234番地",
"Capacity":"－",
"la":"34.63008600000",
"ln":"132.64868100000"
},
"geometry":{
"type":"Point",
"coordinates":[
132.648681,
34.630086
]
}
},
{
"type":"Feature",
"properties":{
"Name":"川根小学校",
"Jusho":"広島県安芸高田市高宮町川根1920番地",
"Capacity":"－",
"la":"34.82538000000",
"ln":"132.67347700000"
},
"geometry":{
"type":"Point",
"coordinates":[
132.673477,
34.82538
]
}
},
{
"type":"Feature",
"properties":{
"Name":"船佐小学校",
"Jusho":"広島県安芸高田市高宮町佐々部915番地1",
"Capacity":"－",
"la":"34.76674500000",
"ln":"132.71810500000"
},
"geometry":{
"type":"Point",
"coordinates":[
132.718105,
34.766745
]
}
},
{
"type":"Feature",
"properties":{
"Name":"来原小学校",
"Jusho":"広島県安芸高田市高宮町原田3375番地",
"Capacity":"－",
"la":"34.74708600000",
"ln":"132.69740500000"
},
"geometry":{
"type":"Point",
"coordinates":[
132.697405,
34.747086
]
}
},
{
"type":"Feature",
"properties":{
"Name":"旧大君小学校",
"Jusho":"広島県江田島市大柿町大君862番地",
"Capacity":"－",
"la":"34.17006599910",
"ln":"132.48063800000"
},
"geometry":{
"type":"Point",
"coordinates":[
132.480638,
34.1700659991
]
}
},
{
"type":"Feature",
"properties":{
"Name":"府中小学校",
"Jusho":"広島県安芸郡府中町本町二丁目15-2",
"Capacity":"－",
"la":"34.39557800000",
"ln":"132.50731000000"
},
"geometry":{
"type":"Point",
"coordinates":[
132.50731,
34.395578
]
}
},
{
"type":"Feature",
"properties":{
"Name":"府中中央小学校",
"Jusho":"広島県安芸郡府中町浜田二丁目6-1",
"Capacity":"－",
"la":"34.38652300000",
"ln":"132.50786500000"
},
"geometry":{
"type":"Point",
"coordinates":[
132.507865,
34.386523
]
}
},
{
"type":"Feature",
"properties":{
"Name":"府中東小学校",
"Jusho":"広島県安芸郡府中町山田四丁目4-1",
"Capacity":"－",
"la":"34.39435600000",
"ln":"132.51855900000"
},
"geometry":{
"type":"Point",
"coordinates":[
132.518559,
34.394356
]
}
},
{
"type":"Feature",
"properties":{
"Name":"府中南小学校",
"Jusho":"広島県安芸郡府中町柳ヶ丘51-25",
"Capacity":"－",
"la":"34.38038500000",
"ln":"132.51108700000"
},
"geometry":{
"type":"Point",
"coordinates":[
132.511087,
34.380385
]
}
},
{
"type":"Feature",
"properties":{
"Name":"府中北小学校",
"Jusho":"広島県安芸郡府中町清水ヶ丘23-1",
"Capacity":"－",
"la":"34.40088300000",
"ln":"132.51569800000"
},
"geometry":{
"type":"Point",
"coordinates":[
132.515698,
34.400883
]
}
},
{
"type":"Feature",
"properties":{
"Name":"海田小学校",
"Jusho":"広島県安芸郡海田町昭和中町2番55号",
"Capacity":"－",
"la":"34.36877500000",
"ln":"132.53741900000"
},
"geometry":{
"type":"Point",
"coordinates":[
132.537419,
34.368775
]
}
},
{
"type":"Feature",
"properties":{
"Name":"海田西小学校",
"Jusho":"広島県安芸郡海田町南つくも町12番3号",
"Capacity":"－",
"la":"34.36405500000",
"ln":"132.53145900000"
},
"geometry":{
"type":"Point",
"coordinates":[
132.531459,
34.364055
]
}
},
{
"type":"Feature",
"properties":{
"Name":"海田東小学校",
"Jusho":"広島県安芸郡海田町浜角1番17号",
"Capacity":"－",
"la":"34.37299700000",
"ln":"132.54847300000"
},
"geometry":{
"type":"Point",
"coordinates":[
132.548473,
34.372997
]
}
},
{
"type":"Feature",
"properties":{
"Name":"海田南小学校",
"Jusho":"広島県安芸郡海田町大立町12番5号",
"Capacity":"－",
"la":"34.36485900000",
"ln":"132.54550100000"
},
"geometry":{
"type":"Point",
"coordinates":[
132.545501,
34.364859
]
}
},
{
"type":"Feature",
"properties":{
"Name":"熊野第一小学校",
"Jusho":"広島県安芸郡熊野町中溝四丁目4番1号",
"Capacity":"－",
"la":"34.34053000000",
"ln":"132.58327600000"
},
"geometry":{
"type":"Point",
"coordinates":[
132.583276,
34.34053
]
}
},
{
"type":"Feature",
"properties":{
"Name":"熊野第三小学校",
"Jusho":"広島県安芸郡熊野町貴船15番1号",
"Capacity":"－",
"la":"34.32947500000",
"ln":"132.57033300000"
},
"geometry":{
"type":"Point",
"coordinates":[
132.570333,
34.329475
]
}
},
{
"type":"Feature",
"properties":{
"Name":"熊野第四小学校",
"Jusho":"広島県安芸郡熊野町川角五丁目13番1号",
"Capacity":"－",
"la":"34.32278100000",
"ln":"132.57491600000"
},
"geometry":{
"type":"Point",
"coordinates":[
132.574916,
34.322781
]
}
},