var o={
"type":"FeatureCollection",
"features":[
{
"type":"Feature",
"properties":{
"Name":"サンアビリティーズ",
"Jusho":"栃木県宇都宮市屋板町251－",
"Capacity":"240",
"la":"36.52158300000",
"ln":"139.89396000000"
},
"geometry":{
"type":"Point",
"coordinates":[
139.89396,
36.521583
]
}
},
{
"type":"Feature",
"properties":{
"Name":"とちぎ福祉プラザ",
"Jusho":"栃木県宇都宮市若草1丁目10番6号",
"Capacity":"1550",
"la":"36.58482500000",
"ln":"139.86302900000"
},
"geometry":{
"type":"Point",
"coordinates":[
139.863029,
36.584825
]
}
},
{
"type":"Feature",
"properties":{
"Name":"宇都宮カンツリークラブ",
"Jusho":"栃木県宇都宮市上戸祭町3100",
"Capacity":"－",
"la":"36.60131708100",
"ln":"139.86309075400"
},
"geometry":{
"type":"Point",
"coordinates":[
139.863090754,
36.601317081
]
}
},
{
"type":"Feature",
"properties":{
"Name":"宇都宮工業高校",
"Jusho":"栃木県宇都宮市京町9-25",
"Capacity":"2500",
"la":"36.55277300000",
"ln":"139.87100200000"
},
"geometry":{
"type":"Point",
"coordinates":[
139.871002,
36.552773
]
}
},
{
"type":"Feature",
"properties":{
"Name":"宇都宮高校",
"Jusho":"栃木県宇都宮市滝の原3-5-70",
"Capacity":"8550",
"la":"36.54130200000",
"ln":"139.86308600000"
},
"geometry":{
"type":"Point",
"coordinates":[
139.863086,
36.541302
]
}
},
{
"type":"Feature",
"properties":{
"Name":"宇都宮市体育館",
"Jusho":"栃木県宇都宮市元今泉5-6－8",
"Capacity":"1210",
"la":"36.56121000000",
"ln":"139.91071800000"
},
"geometry":{
"type":"Point",
"coordinates":[
139.910718,
36.56121
]
}
},
{
"type":"Feature",
"properties":{
"Name":"宇都宮市役所",
"Jusho":"栃木県宇都宮市旭1－-5",
"Capacity":"785",
"la":"36.55511500000",
"ln":"139.88280700000"
},
"geometry":{
"type":"Point",
"coordinates":[
139.882807,
36.555115
]
}
},
{
"type":"Feature",
"properties":{
"Name":"宇都宮女子高校",
"Jusho":"栃木県宇都宮市操町5－9",
"Capacity":"1600",
"la":"36.55788400000",
"ln":"139.87019600000"
},
"geometry":{
"type":"Point",
"coordinates":[
139.870196,
36.557884
]
}
},
{
"type":"Feature",
"properties":{
"Name":"宇都宮商業高校",
"Jusho":"栃木県宇都宮市大曽3－-46",
"Capacity":"3900",
"la":"36.57168900000",
"ln":"139.89108300000"
},
"geometry":{
"type":"Point",
"coordinates":[
139.891083,
36.571689
]
}
},
{
"type":"Feature",
"properties":{
"Name":"宇都宮大学",
"Jusho":"栃木県宇都宮市峰町350",
"Capacity":"32400",
"la":"36.54913600000",
"ln":"139.91391500000"
},
"geometry":{
"type":"Point",
"coordinates":[
139.913915,
36.549136
]
}
},
{
"type":"Feature",
"properties":{
"Name":"宇都宮大学工学部",
"Jusho":"栃木県宇都宮市陽東7－-2",
"Capacity":"24050",
"la":"36.55053200000",
"ln":"139.93031300000"
},
"geometry":{
"type":"Point",
"coordinates":[
139.930313,
36.550532
]
}
},
{
"type":"Feature",
"properties":{
"Name":"宇都宮短期大学附属高校",
"Jusho":"栃木県宇都宮市睦町1-35",
"Capacity":"1300",
"la":"36.56035600000",
"ln":"139.86508500000"
},
"geometry":{
"type":"Point",
"coordinates":[
139.865085,
36.560356
]
}
},
{
"type":"Feature",
"properties":{
"Name":"宇都宮地方裁判所",
"Jusho":"栃木県宇都宮市小幡1－-38",
"Capacity":"1600",
"la":"36.56252200000",
"ln":"139.87489000000"
},
"geometry":{
"type":"Point",
"coordinates":[
139.87489,
36.562522
]
}
},
{
"type":"Feature",
"properties":{
"Name":"宇都宮中央女子高校",
"Jusho":"栃木県宇都宮市若草2-2-46",
"Capacity":"3750",
"la":"36.58110300000",
"ln":"139.86144600000"
},
"geometry":{
"type":"Point",
"coordinates":[
139.861446,
36.581103
]
}
},
{
"type":"Feature",
"properties":{
"Name":"宇都宮南高校",
"Jusho":"栃木県宇都宮市東谷町660－",
"Capacity":"2200",
"la":"36.48511400000",
"ln":"139.89655800000"
},
"geometry":{
"type":"Point",
"coordinates":[
139.896558,
36.485114
]
}
},
{
"type":"Feature",
"properties":{
"Name":"宇都宮白楊高校",
"Jusho":"栃木県宇都宮市今泉町2021",
"Capacity":"3000",
"la":"36.56371800000",
"ln":"139.91041500000"
},
"geometry":{
"type":"Point",
"coordinates":[
139.910415,
36.563718
]
}
},
{
"type":"Feature",
"properties":{
"Name":"宇都宮文星女子高校",
"Jusho":"栃木県宇都宮市北一の沢町24-35",
"Capacity":"3250",
"la":"36.57271500000",
"ln":"139.86194600000"
},
"geometry":{
"type":"Point",
"coordinates":[
139.861946,
36.572715
]
}
},
{
"type":"Feature",
"properties":{
"Name":"横川地区市民センター",
"Jusho":"栃木県宇都宮市屋板町576－",
"Capacity":"90",
"la":"36.51672000000",
"ln":"139.89894900000"
},
"geometry":{
"type":"Point",
"coordinates":[
139.898949,
36.51672
]
}
},
{
"type":"Feature",
"properties":{
"Name":"岡本コミュニティプラザ",
"Jusho":"栃木県宇都宮市下岡本町1954－0",
"Capacity":"100",
"la":"36.59766300000",
"ln":"139.94379600000"
},
"geometry":{
"type":"Point",
"coordinates":[
139.943796,
36.597663
]
}
},
{
"type":"Feature",
"properties":{
"Name":"河内生涯学習センター",
"Jusho":"栃木県宇都宮市中岡本町3225-5",
"Capacity":"1400",
"la":"36.61682100000",
"ln":"139.94346300000"
},
"geometry":{
"type":"Point",
"coordinates":[
139.943463,
36.616821
]
}
},
{
"type":"Feature",
"properties":{
"Name":"宮の原地域コミュニティセンター",
"Jusho":"栃木県宇都宮市宮原4－－4",
"Capacity":"20",
"la":"36.54265300000",
"ln":"139.87366600000"
},
"geometry":{
"type":"Point",
"coordinates":[
139.873666,
36.542653
]
}
},
{
"type":"Feature",
"properties":{
"Name":"競輪場駐車場",
"Jusho":"栃木県宇都宮市戸祭町地内",
"Capacity":"4250",
"la":"36.57346672250",
"ln":"139.88337219400"
},
"geometry":{
"type":"Point",
"coordinates":[
139.883372194,
36.5734667225
]
}
},
{
"type":"Feature",
"properties":{
"Name":"錦地域コミュニティセンター",
"Jusho":"栃木県宇都宮市今泉町143-6",
"Capacity":"80",
"la":"36.56817000000",
"ln":"139.89903800000"
},
"geometry":{
"type":"Point",
"coordinates":[
139.899038,
36.56817
]
}
},
{
"type":"Feature",
"properties":{
"Name":"金田多目的集会施設",
"Jusho":"栃木県宇都宮市金田町798",
"Capacity":"90",
"la":"36.66571727050",
"ln":"139.89797146300"
},
"geometry":{
"type":"Point",
"coordinates":[
139.897971463,
36.6657172705
]
}
},
{
"type":"Feature",
"properties":{
"Name":"県庁",
"Jusho":"栃木県宇都宮市塙田1－-20",
"Capacity":"3900",
"la":"36.56568900000",
"ln":"139.88352800000"
},
"geometry":{
"type":"Point",
"coordinates":[
139.883528,
36.565689
]
}
},
{
"type":"Feature",
"properties":{
"Name":"戸祭地域コミュニティセンター",
"Jusho":"栃木県宇都宮市戸祭1－0-25",
"Capacity":"60",
"la":"36.57277700000",
"ln":"139.86811000000"
},
"geometry":{
"type":"Point",
"coordinates":[
139.86811,
36.572777
]
}
},
{
"type":"Feature",
"properties":{
"Name":"御幸が原地域コミュニティセンター",
"Jusho":"栃木県宇都宮市御幸が原町53-2",
"Capacity":"20",
"la":"36.59470557840",
"ln":"139.92942605800"
},
"geometry":{
"type":"Point",
"coordinates":[
139.929426058,
36.5947055784
]
}
},
{
"type":"Feature",
"properties":{
"Name":"御幸地域コミュニティセンター",
"Jusho":"栃木県宇都宮市御幸本町4638－",
"Capacity":"20",
"la":"36.57625600000",
"ln":"139.92478800000"
},
"geometry":{
"type":"Point",
"coordinates":[
139.924788,
36.576256
]
}
},
{
"type":"Feature",
"properties":{
"Name":"高松公民館",
"Jusho":"栃木県宇都宮市高松町314-2",
"Capacity":"40",
"la":"36.66885914080",
"ln":"139.87760231900"
},
"geometry":{
"type":"Point",
"coordinates":[
139.877602319,
36.6688591408
]
}
},
{
"type":"Feature",
"properties":{
"Name":"国本地区市民センター",
"Jusho":"栃木県宇都宮市宝木本町1868－",
"Capacity":"220",
"la":"36.61517100000",
"ln":"139.83950500000"
},
"geometry":{
"type":"Point",
"coordinates":[
139.839505,
36.615171
]
}
},
{
"type":"Feature",
"properties":{
"Name":"今里集落センター",
"Jusho":"栃木県宇都宮市今里町903",
"Capacity":"100",
"la":"36.69407635500",
"ln":"139.89497778200"
},
"geometry":{
"type":"Point",
"coordinates":[
139.894977782,
36.694076355
]
}
},
{
"type":"Feature",
"properties":{
"Name":"作新学院",
"Jusho":"栃木県宇都宮市一の沢町503",
"Capacity":"10000",
"la":"36.56845299910",
"ln":"139.85795500000"
},
"geometry":{
"type":"Point",
"coordinates":[
139.857955,
36.5684529991
]
}
},
{
"type":"Feature",
"properties":{
"Name":"姿川地区市民センター",
"Jusho":"栃木県宇都宮市西川田町805－",
"Capacity":"70",
"la":"36.52948700000",
"ln":"139.84909400000"
},
"geometry":{
"type":"Point",
"coordinates":[
139.849094,
36.529487
]
}
},
{
"type":"Feature",
"properties":{
"Name":"篠井地区市民センター",
"Jusho":"栃木県宇都宮市下小池町466－",
"Capacity":"200",
"la":"36.68021800000",
"ln":"139.81103700000"
},
"geometry":{
"type":"Point",
"coordinates":[
139.811037,
36.680218
]
}
},
{
"type":"Feature",
"properties":{
"Name":"昭和地域コミュニティセンター",
"Jusho":"栃木県宇都宮市戸祭町3043－",
"Capacity":"70",
"la":"36.57717900000",
"ln":"139.87478700000"
},
"geometry":{
"type":"Point",
"coordinates":[
139.874787,
36.577179
]
}
},
{
"type":"Feature",
"properties":{
"Name":"上河内体育館",
"Jusho":"栃木県宇都宮市中里町182－",
"Capacity":"600",
"la":"36.68178200000",
"ln":"139.90166200000"
},
"geometry":{
"type":"Point",
"coordinates":[
139.901662,
36.681782
]
}
},
{
"type":"Feature",
"properties":{
"Name":"上田公民館",
"Jusho":"栃木県宇都宮市上田町849-2",
"Capacity":"50",
"la":"36.67542190400",
"ln":"139.91136190300"
},
"geometry":{
"type":"Point",
"coordinates":[
139.911361903,
36.675421904
]
}
},
{
"type":"Feature",
"properties":{
"Name":"城山地区市民センター",
"Jusho":"栃木県宇都宮市大谷町1059-5",
"Capacity":"250",
"la":"36.58908000000",
"ln":"139.82556800000"
},
"geometry":{
"type":"Point",
"coordinates":[
139.825568,
36.58908
]
}
},
{
"type":"Feature",
"properties":{
"Name":"城東地域コミュニティセンター",
"Jusho":"栃木県宇都宮市簗瀬町247－",
"Capacity":"80",
"la":"36.54912800000",
"ln":"139.90406100000"
},
"geometry":{
"type":"Point",
"coordinates":[
139.904061,
36.549128
]
}
},
{
"type":"Feature",
"properties":{
"Name":"瑞穂野地区市民センター",
"Jusho":"栃木県宇都宮市下桑島町1030－",
"Capacity":"220",
"la":"36.50664900000",
"ln":"139.93226000000"
},
"geometry":{
"type":"Point",
"coordinates":[
139.93226,
36.506649
]
}
},
{
"type":"Feature",
"properties":{
"Name":"雀宮体育館",
"Jusho":"栃木県宇都宮市南町6-3",
"Capacity":"360",
"la":"36.48214000000",
"ln":"139.86488900000"
},
"geometry":{
"type":"Point",
"coordinates":[
139.864889,
36.48214
]
}
},
{
"type":"Feature",
"properties":{
"Name":"雀宮地区市民センター",
"Jusho":"栃木県宇都宮市新富町9-4",
"Capacity":"230",
"la":"36.48616200000",
"ln":"139.87336400000"
},
"geometry":{
"type":"Point",
"coordinates":[
139.873364,
36.486162
]
}
},
{
"type":"Feature",
"properties":{
"Name":"雀宮南地区学習等併用施設",
"Jusho":"栃木県宇都宮市南町6-3",
"Capacity":"50",
"la":"36.48243143330",
"ln":"139.86445523500"
},
"geometry":{
"type":"Point",
"coordinates":[
139.864455235,
36.4824314333
]
}
},
{
"type":"Feature",
"properties":{
"Name":"清原体育館",
"Jusho":"栃木県宇都宮市清原工業団地14",
"Capacity":"1000",
"la":"36.54580300000",
"ln":"139.98311800000"
},
"geometry":{
"type":"Point",
"coordinates":[
139.983118,
36.545803
]
}
},
{
"type":"Feature",
"properties":{
"Name":"清原地区市民センター",
"Jusho":"栃木県宇都宮市清原工業団地15-4",
"Capacity":"220",
"la":"36.54656100000",
"ln":"139.98225400000"
},
"geometry":{
"type":"Point",
"coordinates":[
139.982254,
36.546561
]
}
},
{
"type":"Feature",
"properties":{
"Name":"西芦沼公民館",
"Jusho":"栃木県宇都宮市芦沼町2752",
"Capacity":"50",
"la":"36.66570616660",
"ln":"139.92494694400"
},
"geometry":{
"type":"Point",
"coordinates":[
139.924946944,
36.6657061666
]
}
},
{
"type":"Feature",
"properties":{
"Name":"西原地域コミュニティセンター",
"Jusho":"栃木県宇都宮市西原2-5-42",
"Capacity":"80",
"la":"36.55449600000",
"ln":"139.87238800000"
},
"geometry":{
"type":"Point",
"coordinates":[
139.872388,
36.554496
]
}
},
{
"type":"Feature",
"properties":{
"Name":"西生涯学習センター",
"Jusho":"栃木県宇都宮市西一の沢町17-32",
"Capacity":"110",
"la":"36.56775026790",
"ln":"139.86161166600"
},
"geometry":{
"type":"Point",
"coordinates":[
139.861611666,
36.5677502679
]
}
},
{
"type":"Feature",
"properties":{
"Name":"西地域コミュニティセンター",
"Jusho":"栃木県宇都宮市西1-2－3",
"Capacity":"60",
"la":"36.55935700000",
"ln":"139.87783800000"
},
"geometry":{
"type":"Point",
"coordinates":[
139.877838,
36.559357
]
}
},
{
"type":"Feature",
"properties":{
"Name":"青少年活動センター",
"Jusho":"栃木県宇都宮市今泉町3007",
"Capacity":"260",
"la":"36.57316199910",
"ln":"139.91567800000"
},
"geometry":{
"type":"Point",
"coordinates":[
139.915678,
36.5731619991
]
}
},
{
"type":"Feature",
"properties":{
"Name":"石井地域コミュニティセンター",
"Jusho":"栃木県宇都宮市石井町1213",
"Capacity":"20",
"la":"36.54047800000",
"ln":"139.92903400000"
},
"geometry":{
"type":"Point",
"coordinates":[
139.929034,
36.540478
]
}
},
{
"type":"Feature",
"properties":{
"Name":"泉が丘地域コミュニティセンター",
"Jusho":"栃木県宇都宮市泉が丘7－2－4",
"Capacity":"60",
"la":"36.56729900000",
"ln":"139.91983900000"
},
"geometry":{
"type":"Point",
"coordinates":[
139.919839,
36.567299
]
}
},
{
"type":"Feature",
"properties":{
"Name":"中央卸売市場",
"Jusho":"栃木県宇都宮市簗瀬町1493",
"Capacity":"16300",
"la":"36.54621348690",
"ln":"139.89199193500"
},
"geometry":{
"type":"Point",
"coordinates":[
139.891991935,
36.5462134869
]
}
},
{
"type":"Feature",
"properties":{
"Name":"中央生涯学習センター",
"Jusho":"栃木県宇都宮市中央1－－3",
"Capacity":"530",
"la":"36.55947300000",
"ln":"139.88262600000"
},
"geometry":{
"type":"Point",
"coordinates":[
139.882626,
36.559473
]
}
},
{
"type":"Feature",
"properties":{
"Name":"中里原利用施設",
"Jusho":"栃木県宇都宮市中里町250",
"Capacity":"170",
"la":"36.67479636280",
"ln":"139.90204872300"
},
"geometry":{
"type":"Point",
"coordinates":[
139.902048723,
36.6747963628
]
}
},
{
"type":"Feature",
"properties":{
"Name":"田原コミュニティプラザ",
"Jusho":"栃木県宇都宮市上田原町1",
"Capacity":"300",
"la":"36.63595399910",
"ln":"139.90861800000"
},
"geometry":{
"type":"Point",
"coordinates":[
139.908618,
36.6359539991
]
}
},
{
"type":"Feature",
"properties":{
"Name":"東芦沼公民館",
"Jusho":"栃木県宇都宮市芦沼町969",
"Capacity":"50",
"la":"36.67287140510",
"ln":"139.94235576800"
},
"geometry":{
"type":"Point",
"coordinates":[
139.942355768,
36.6728714051
]
}
},
{
"type":"Feature",
"properties":{
"Name":"東地域コミュニティセンター",
"Jusho":"栃木県宇都宮市東塙田1-6－4",
"Capacity":"50",
"la":"36.56559500000",
"ln":"139.89168200000"
},
"geometry":{
"type":"Point",
"coordinates":[
139.891682,
36.565595
]
}
},
{
"type":"Feature",
"properties":{
"Name":"栃木県体育館",
"Jusho":"栃木県宇都宮市中戸祭1-6-3",
"Capacity":"3700",
"la":"36.57767600000",
"ln":"139.86835200000"
},
"geometry":{
"type":"Point",
"coordinates":[
139.868352,
36.577676
]
}
},
{
"type":"Feature",
"properties":{
"Name":"南生涯学習センター",
"Jusho":"栃木県宇都宮市江曽島2-4-23",
"Capacity":"150",
"la":"36.52314300000",
"ln":"139.86459600000"
},
"geometry":{
"type":"Point",
"coordinates":[
139.864596,
36.523143
]
}
},
{
"type":"Feature",
"properties":{
"Name":"富屋地区市民センター",
"Jusho":"栃木県宇都宮市徳次郎町80-2",
"Capacity":"220",
"la":"36.64472000000",
"ln":"139.84749500000"
},
"geometry":{
"type":"Point",
"coordinates":[
139.847495,
36.64472
]
}
},
{
"type":"Feature",
"properties":{
"Name":"富士見地域コミュニティセンター",
"Jusho":"栃木県宇都宮市鶴田町2708-3",
"Capacity":"70",
"la":"36.55415300000",
"ln":"139.86272100000"
},
"geometry":{
"type":"Point",
"coordinates":[
139.862721,
36.554153
]
}
},
{
"type":"Feature",
"properties":{
"Name":"文星芸術大学附属高校",
"Jusho":"栃木県宇都宮市睦町1-4",
"Capacity":"3800",
"la":"36.56027200000",
"ln":"139.86425200000"
},
"geometry":{
"type":"Point",
"coordinates":[
139.864252,
36.560272
]
}
},
{
"type":"Feature",
"properties":{
"Name":"平石地区市民センター",
"Jusho":"栃木県宇都宮市下平出町158－",
"Capacity":"70",
"la":"36.55899000000",
"ln":"139.94595900000"
},
"geometry":{
"type":"Point",
"coordinates":[
139.945959,
36.55899
]
}
},
{
"type":"Feature",
"properties":{
"Name":"宝木地域コミュニティセンター",
"Jusho":"栃木県宇都宮市駒生町3364-29",
"Capacity":"20",
"la":"36.58281312130",
"ln":"139.84927600000"
},
"geometry":{
"type":"Point",
"coordinates":[
139.849276,
36.5828131213
]
}
},
{
"type":"Feature",
"properties":{
"Name":"峰地域コミュニティセンター",
"Jusho":"栃木県宇都宮市峰3-20－7",
"Capacity":"50",
"la":"36.55240600000",
"ln":"139.91936500000"
},
"geometry":{
"type":"Point",
"coordinates":[
139.919365,
36.552406
]
}
},
{
"type":"Feature",
"properties":{
"Name":"豊郷地区市民センター",
"Jusho":"栃木県宇都宮市岩曽町825－",
"Capacity":"220",
"la":"36.58781569890",
"ln":"139.90297040600"
},
"geometry":{
"type":"Point",
"coordinates":[
139.902970406,
36.5878156989
]
}
},
{
"type":"Feature",
"properties":{
"Name":"北生涯学習センター",
"Jusho":"栃木県宇都宮市若草3－2-25",
"Capacity":"110",
"la":"36.58734400000",
"ln":"139.86156000000"
},
"geometry":{
"type":"Point",
"coordinates":[
139.86156,
36.587344
]
}
},
{
"type":"Feature",
"properties":{
"Name":"明保地域コミュニティセンター",
"Jusho":"栃木県宇都宮市下荒針町3456-2",
"Capacity":"20",
"la":"36.56911300000",
"ln":"139.83927900000"
},
"geometry":{
"type":"Point",
"coordinates":[
139.839279,
36.569113
]
}
},
{
"type":"Feature",
"properties":{
"Name":"明保野体育館",
"Jusho":"栃木県宇都宮市明保野町7-9",
"Capacity":"220",
"la":"36.54829300000",
"ln":"139.86795600000"
},
"geometry":{
"type":"Point",
"coordinates":[
139.867956,
36.548293
]
}
},
{
"type":"Feature",
"properties":{
"Name":"陽光地区学習等併用施設（陽光地域コミュニティセンター）",
"Jusho":"栃木県宇都宮市緑5-8-8",
"Capacity":"50",
"la":"36.51637200000",
"ln":"139.86264900000"
},
"geometry":{
"type":"Point",
"coordinates":[
139.862649,
36.516372
]
}
},
{
"type":"Feature",
"properties":{
"Name":"陽東地域コミュニティセンター",
"Jusho":"栃木県宇都宮市陽東2－6-36",
"Capacity":"20",
"la":"36.55297000000",
"ln":"139.92652000000"
},
"geometry":{
"type":"Point",
"coordinates":[
139.92652,
36.55297
]
}
},
{
"type":"Feature",
"properties":{
"Name":"陽南地域コミュニティセンター",
"Jusho":"栃木県宇都宮市大和1－0－5",
"Capacity":"10",
"la":"36.53405480170",
"ln":"139.86315915900"
},
"geometry":{
"type":"Point",
"coordinates":[
139.863159159,
36.5340548017
]
}
},
{
"type":"Feature",
"properties":{
"Name":"簗瀬地域コミュニティセンター",
"Jusho":"栃木県宇都宮市南大通り2-6-6",
"Capacity":"20",
"la":"36.55453600000",
"ln":"139.89292400000"
},
"geometry":{
"type":"Point",
"coordinates":[
139.892924,
36.554536
]
}
},
{
"type":"Feature",
"properties":{
"Name":"とうこうコミュニティセンター",
"Jusho":"栃木県足利市伊勢町3-7-5",
"Capacity":"367",
"la":"36.33458800000",
"ln":"139.45492600000"
},
"geometry":{
"type":"Point",
"coordinates":[
139.454926,
36.334588
]
}
},
{
"type":"Feature",
"properties":{
"Name":"ふるさと学習・資料館",
"Jusho":"栃木県足利市小俣町3306",
"Capacity":"－",
"la":"36.41152099910",
"ln":"139.38674100000"
},
"geometry":{
"type":"Point",
"coordinates":[
139.386741,
36.4115209991
]
}
},
{
"type":"Feature",
"properties":{
"Name":"旧協和中運動施設",
"Jusho":"栃木県足利市百頭町2017",
"Capacity":"420",
"la":"36.30058673270",
"ln":"139.45458382600"
},
"geometry":{
"type":"Point",
"coordinates":[
139.454583826,
36.3005867327
]
}
},
{
"type":"Feature",
"properties":{
"Name":"生涯学習センター",
"Jusho":"栃木県足利市相生町1－",
"Capacity":"427",
"la":"36.33483800000",
"ln":"139.45990300000"
},
"geometry":{
"type":"Point",
"coordinates":[
139.459903,
36.334838
]
}
},
{
"type":"Feature",
"properties":{
"Name":"北郷公民館",
"Jusho":"栃木県足利市利保町2－4－",
"Capacity":"290",
"la":"36.35647000000",
"ln":"139.47232100000"
},
"geometry":{
"type":"Point",
"coordinates":[
139.472321,
36.35647
]
}
},
{
"type":"Feature",
"properties":{
"Name":"民俗資料室",
"Jusho":"栃木県足利市月谷町1105",
"Capacity":"－",
"la":"36.37174300000",
"ln":"139.45512500000"
},
"geometry":{
"type":"Point",
"coordinates":[
139.455125,
36.371743
]
}
},
{
"type":"Feature",
"properties":{
"Name":"あいあいプラザ",
"Jusho":"栃木県栃木市都賀町平川438",
"Capacity":"100",
"la":"36.40982563080",
"ln":"139.74807755900"
},
"geometry":{
"type":"Point",
"coordinates":[
139.748077559,
36.4098256308
]
}
},
{
"type":"Feature",
"properties":{
"Name":"いまいずみ保育園",
"Jusho":"栃木県栃木市今泉町2-2－",
"Capacity":"30",
"la":"36.38287200000",
"ln":"139.74490700000"
},
"geometry":{
"type":"Point",
"coordinates":[
139.744907,
36.382872
]
}
},
{
"type":"Feature",
"properties":{
"Name":"おおつか保育園",
"Jusho":"栃木県栃木市大塚町640",
"Capacity":"30",
"la":"36.40379000000",
"ln":"139.76741700000"
},
"geometry":{
"type":"Point",
"coordinates":[
139.767417,
36.40379
]
}
},
{
"type":"Feature",
"properties":{
"Name":"そのべ保育園",
"Jusho":"栃木県栃木市薗部町1－3-20",
"Capacity":"30",
"la":"36.38137100000",
"ln":"139.71946600000"
},
"geometry":{
"type":"Point",
"coordinates":[
139.719466,
36.381371
]
}
},
{
"type":"Feature",
"properties":{
"Name":"つがの里ふるさとセンター",
"Jusho":"栃木県栃木市都賀町臼久保325",
"Capacity":"250",
"la":"36.43334053570",
"ln":"139.71399759400"
},
"geometry":{
"type":"Point",
"coordinates":[
139.713997594,
36.4333405357
]
}
},
{
"type":"Feature",
"properties":{
"Name":"とちぎコミュニティプラザ",
"Jusho":"栃木県栃木市箱森町36-31",
"Capacity":"700",
"la":"36.39320299910",
"ln":"139.72648000000"
},
"geometry":{
"type":"Point",
"coordinates":[
139.72648,
36.3932029991
]
}
},
{
"type":"Feature",
"properties":{
"Name":"とちぎ西部生きがい",
"Jusho":"栃木県栃木市薗部町2－4-9",
"Capacity":"520",
"la":"36.37664199910",
"ln":"139.71761600000"
},
"geometry":{
"type":"Point",
"coordinates":[
139.717616,
36.3766419991
]
}
},
{
"type":"Feature",
"properties":{
"Name":"なかよしこども園",
"Jusho":"栃木県栃木市西方町本郷517-2",
"Capacity":"469",
"la":"36.44961299910",
"ln":"139.73773900000"
},
"geometry":{
"type":"Point",
"coordinates":[
139.737739,
36.4496129991
]
}
},
{
"type":"Feature",
"properties":{
"Name":"ふれあいプラザ",
"Jusho":"栃木県栃木市西方町元1600－",
"Capacity":"20",
"la":"36.46568166410",
"ln":"139.73127101400"
},
"geometry":{
"type":"Point",
"coordinates":[
139.731271014,
36.4656816641
]
}
},
{
"type":"Feature",
"properties":{
"Name":"ゆうゆうプラザ",
"Jusho":"栃木県栃木市大平町西野田666－",
"Capacity":"350",
"la":"36.33598800000",
"ln":"139.71844800000"
},
"geometry":{
"type":"Point",
"coordinates":[
139.718448,
36.335988
]
}
},
{
"type":"Feature",
"properties":{
"Name":"皆川公民館",
"Jusho":"栃木県栃木市皆川城内町699",
"Capacity":"370",
"la":"36.39548300000",
"ln":"139.68235300000"
},
"geometry":{
"type":"Point",
"coordinates":[
139.682353,
36.395483
]
}
},
{
"type":"Feature",
"properties":{
"Name":"学悠館高校",
"Jusho":"栃木県栃木市河合町12-2",
"Capacity":"745",
"la":"36.37268200000",
"ln":"139.73531600000"
},
"geometry":{
"type":"Point",
"coordinates":[
139.735316,
36.372682
]
}
},
{
"type":"Feature",
"properties":{
"Name":"国府公民館",
"Jusho":"栃木県栃木市惣社町228－",
"Capacity":"250",
"la":"36.40175200000",
"ln":"139.77771800000"
},
"geometry":{
"type":"Point",
"coordinates":[
139.777718,
36.401752
]
}
},
{
"type":"Feature",
"properties":{
"Name":"三鴨地区公民館",
"Jusho":"栃木県栃木市藤岡町甲436",
"Capacity":"100",
"la":"36.28470200000",
"ln":"139.63555000000"
},
"geometry":{
"type":"Point",
"coordinates":[
139.63555,
36.284702
]
}
},
{
"type":"Feature",
"properties":{
"Name":"三鴨保育所",
"Jusho":"栃木県栃木市藤岡町甲64-2",
"Capacity":"100",
"la":"36.28749100000",
"ln":"139.63408500000"
},
"geometry":{
"type":"Point",
"coordinates":[
139.634085,
36.287491
]
}
},
{
"type":"Feature",
"properties":{
"Name":"市民会館",
"Jusho":"栃木県栃木市日ノ出町14-36",
"Capacity":"200",
"la":"36.38272408370",
"ln":"139.74316364900"
},
"geometry":{
"type":"Point",
"coordinates":[
139.743163649,
36.3827240837
]
}
},
{
"type":"Feature",
"properties":{
"Name":"寺尾公民館",
"Jusho":"栃木県栃木市梅沢町1183",
"Capacity":"350",
"la":"36.44436000000",
"ln":"139.64951100000"
},
"geometry":{
"type":"Point",
"coordinates":[
139.649511,
36.44436
]
}
},
{
"type":"Feature",
"properties":{
"Name":"社会福祉協議会都賀支所",
"Jusho":"栃木県栃木市都賀町家中2375－5",
"Capacity":"410",
"la":"36.43021695060",
"ln":"139.75004707200"
},
"geometry":{
"type":"Point",
"coordinates":[
139.750047072,
36.4302169506
]
}
},
{
"type":"Feature",
"properties":{
"Name":"出流ふれあいの森",
"Jusho":"栃木県栃木市出流町417",
"Capacity":"150",
"la":"36.48043800000",
"ln":"139.59572900000"
},
"geometry":{
"type":"Point",
"coordinates":[
139.595729,
36.480438
]
}
},
{
"type":"Feature",
"properties":{
"Name":"真名子夢ホール",
"Jusho":"栃木県栃木市西方町真名子1086",
"Capacity":"61",
"la":"36.47242500000",
"ln":"139.70118600000"
},
"geometry":{
"type":"Point",
"coordinates":[
139.701186,
36.472425
]
}
},
{
"type":"Feature",
"properties":{
"Name":"吹上公民館",
"Jusho":"栃木県栃木市吹上町782－",
"Capacity":"200",
"la":"36.41057900000",
"ln":"139.70500800000"
},
"geometry":{
"type":"Point",
"coordinates":[
139.705008,
36.410579
]
}
},
{
"type":"Feature",
"properties":{
"Name":"西方町中央公民館",
"Jusho":"栃木県栃木市西方町本城1",
"Capacity":"95",
"la":"36.46663799910",
"ln":"139.74468500000"
},
"geometry":{
"type":"Point",
"coordinates":[
139.744685,
36.4666379991
]
}
},
{
"type":"Feature",
"properties":{
"Name":"赤麻地区公民館",
"Jusho":"栃木県栃木市藤岡町赤麻1737",
"Capacity":"100",
"la":"36.27130500000",
"ln":"139.66703200000"
},
"geometry":{
"type":"Point",
"coordinates":[
139.667032,
36.271305
]
}
},
{
"type":"Feature",
"properties":{
"Name":"赤麻保育所",
"Jusho":"栃木県栃木市藤岡町赤麻1711-2",
"Capacity":"100",
"la":"36.27105200000",
"ln":"139.66844600000"
},
"geometry":{
"type":"Point",
"coordinates":[
139.668446,
36.271052
]
}
},
{
"type":"Feature",
"properties":{
"Name":"総合文化体育館",
"Jusho":"栃木県栃木市西方町本郷1705－",
"Capacity":"604",
"la":"36.45461700000",
"ln":"139.73956100000"
},
"geometry":{
"type":"Point",
"coordinates":[
139.739561,
36.454617
]
}
},
{
"type":"Feature",
"properties":{
"Name":"大柿コミュニティセンター",
"Jusho":"栃木県栃木市都賀町大柿1122",
"Capacity":"500",
"la":"36.45568100000",
"ln":"139.69282200000"
},
"geometry":{
"type":"Point",
"coordinates":[
139.692822,
36.455681
]
}
},
{
"type":"Feature",
"properties":{
"Name":"大宮公民館",
"Jusho":"栃木県栃木市大宮町422－",
"Capacity":"300",
"la":"36.38803000000",
"ln":"139.75748400000"
},
"geometry":{
"type":"Point",
"coordinates":[
139.757484,
36.38803
]
}
},
{
"type":"Feature",
"properties":{
"Name":"大平こどもセンター",
"Jusho":"栃木県栃木市大平町西水代1893",
"Capacity":"50",
"la":"36.32018340940",
"ln":"139.71446585000"
},
"geometry":{
"type":"Point",
"coordinates":[
139.71446585,
36.3201834094
]
}
},
{
"type":"Feature",
"properties":{
"Name":"大平公民館",
"Jusho":"栃木県栃木市大平町蔵井2001-3",
"Capacity":"90",
"la":"36.34453900000",
"ln":"139.71208300000"
},
"geometry":{
"type":"Point",
"coordinates":[
139.712083,
36.344539
]
}
},
{
"type":"Feature",
"properties":{
"Name":"大平西地区公民館",
"Jusho":"栃木県栃木市大平町富田1641",
"Capacity":"100",
"la":"36.33975500000",
"ln":"139.69664400000"
},
"geometry":{
"type":"Point",
"coordinates":[
139.696644,
36.339755
]
}
},
{
"type":"Feature",
"properties":{
"Name":"大平体育館",
"Jusho":"栃木県栃木市大平町蔵井2001-3",
"Capacity":"500",
"la":"36.34503400000",
"ln":"139.71215400000"
},
"geometry":{
"type":"Point",
"coordinates":[
139.712154,
36.345034
]
}
},
{
"type":"Feature",
"properties":{
"Name":"大平東地区公民館",
"Jusho":"栃木県栃木市大平町横堀808",
"Capacity":"90",
"la":"36.34817399450",
"ln":"139.73443746400"
},
"geometry":{
"type":"Point",
"coordinates":[
139.734437464,
36.3481739945
]
}
},
{
"type":"Feature",
"properties":{
"Name":"大平南体育館",
"Jusho":"栃木県栃木市大平町西野田905－",
"Capacity":"390",
"la":"36.32781300000",
"ln":"139.71530800000"
},
"geometry":{
"type":"Point",
"coordinates":[
139.715308,
36.327813
]
}
},
{
"type":"Feature",
"properties":{
"Name":"大平南地区公民館",
"Jusho":"栃木県栃木市大平町西水代1787",
"Capacity":"100",
"la":"36.31726600000",
"ln":"139.71748100000"
},
"geometry":{
"type":"Point",
"coordinates":[
139.717481,
36.317266
]
}
},
{
"type":"Feature",
"properties":{
"Name":"大平農村婦人の家",
"Jusho":"栃木県栃木市大平町伯仲1728-2",
"Capacity":"70",
"la":"36.29299400000",
"ln":"139.71241800000"
},
"geometry":{
"type":"Point",
"coordinates":[
139.712418,
36.292994
]
}
},
{
"type":"Feature",
"properties":{
"Name":"大平隣保館",
"Jusho":"栃木県栃木市大平町新1305-3",
"Capacity":"150",
"la":"36.33015900000",
"ln":"139.70495800000"
},
"geometry":{
"type":"Point",
"coordinates":[
139.704958,
36.330159
]
}
},
{
"type":"Feature",
"properties":{
"Name":"渡良瀬の里",
"Jusho":"栃木県栃木市藤岡町赤麻502－",
"Capacity":"200",
"la":"36.26385800000",
"ln":"139.66952900000"
},
"geometry":{
"type":"Point",
"coordinates":[
139.669529,
36.263858
]
}
},
{
"type":"Feature",
"properties":{
"Name":"都賀よつば保育園",
"Jusho":"栃木県栃木市都賀町原宿675－",
"Capacity":"120",
"la":"36.43221099910",
"ln":"139.73879800000"
},
"geometry":{
"type":"Point",
"coordinates":[
139.738798,
36.4322109991
]
}
},
{
"type":"Feature",
"properties":{
"Name":"都賀公民館",
"Jusho":"栃木県栃木市都賀町原宿521",
"Capacity":"600",
"la":"36.42879400000",
"ln":"139.73941000000"
},
"geometry":{
"type":"Point",
"coordinates":[
139.73941,
36.428794
]
}
},
{
"type":"Feature",
"properties":{
"Name":"都賀体育センター",
"Jusho":"栃木県栃木市都賀町原宿511",
"Capacity":"300",
"la":"36.42796800000",
"ln":"139.73856100000"
},
"geometry":{
"type":"Point",
"coordinates":[
139.738561,
36.427968
]
}
},
{
"type":"Feature",
"properties":{
"Name":"都賀南部コミュニティセンター",
"Jusho":"栃木県栃木市都賀町平川481",
"Capacity":"460",
"la":"36.40968400000",
"ln":"139.75268200000"
},
"geometry":{
"type":"Point",
"coordinates":[
139.752682,
36.409684
]
}
},
{
"type":"Feature",
"properties":{
"Name":"都賀文化会館",
"Jusho":"栃木県栃木市都賀町原宿573",
"Capacity":"800",
"la":"36.43140800000",
"ln":"139.74021400000"
},
"geometry":{
"type":"Point",
"coordinates":[
139.740214,
36.431408
]
}
},
{
"type":"Feature",
"properties":{
"Name":"藤岡スポーツふれあいセンター",
"Jusho":"栃木県栃木市藤岡町藤岡1218－",
"Capacity":"50",
"la":"36.25940000000",
"ln":"139.65334900000"
},
"geometry":{
"type":"Point",
"coordinates":[
139.653349,
36.2594
]
}
},
{
"type":"Feature",
"properties":{
"Name":"藤岡総合体育館",
"Jusho":"栃木県栃木市藤岡町藤岡1788",
"Capacity":"500",
"la":"36.24925300000",
"ln":"139.65241100000"
},
"geometry":{
"type":"Point",
"coordinates":[
139.652411,
36.249253
]
}
},
{
"type":"Feature",
"properties":{
"Name":"藤岡地区公民館",
"Jusho":"栃木県栃木市藤岡町藤岡1396－",
"Capacity":"100",
"la":"36.25531000000",
"ln":"139.65008500000"
},
"geometry":{
"type":"Point",
"coordinates":[
139.650085,
36.25531
]
}
},
{
"type":"Feature",
"properties":{
"Name":"藤岡文化会館",
"Jusho":"栃木県栃木市藤岡町藤岡810",
"Capacity":"300",
"la":"36.26658200000",
"ln":"139.65091500000"
},
"geometry":{
"type":"Point",
"coordinates":[
139.650915,
36.266582
]
}
},
{
"type":"Feature",
"properties":{
"Name":"藤岡保育所",
"Jusho":"栃木県栃木市藤岡町藤岡1135-4",
"Capacity":"100",
"la":"36.26138599910",
"ln":"139.64914300000"
},
"geometry":{
"type":"Point",
"coordinates":[
139.649143,
36.2613859991
]
}
},
{
"type":"Feature",
"properties":{
"Name":"藤岡遊水地会館",
"Jusho":"栃木県栃木市藤岡町藤岡1788",
"Capacity":"50",
"la":"36.24853475140",
"ln":"139.65252292500"
},
"geometry":{
"type":"Point",
"coordinates":[
139.652522925,
36.2485347514
]
}
},
{
"type":"Feature",
"properties":{
"Name":"道の駅みかも",
"Jusho":"栃木県栃木市藤岡町大田和678",
"Capacity":"－",
"la":"36.29671400000",
"ln":"139.62524800000"
},
"geometry":{
"type":"Point",
"coordinates":[
139.625248,
36.296714
]
}
},
{
"type":"Feature",
"properties":{
"Name":"栃木工業高校",
"Jusho":"栃木県栃木市岩出町129",
"Capacity":"1000",
"la":"36.38503700000",
"ln":"139.70746700000"
},
"geometry":{
"type":"Point",
"coordinates":[
139.707467,
36.385037
]
}
},
{
"type":"Feature",
"properties":{
"Name":"栃木高校",
"Jusho":"栃木県栃木市入舟町12-4",
"Capacity":"1000",
"la":"36.38381600000",
"ln":"139.73043600000"
},
"geometry":{
"type":"Point",
"coordinates":[
139.730436,
36.383816
]
}
},
{
"type":"Feature",
"properties":{
"Name":"栃木女子高校",
"Jusho":"栃木県栃木市薗部町1-2-5",
"Capacity":"1000",
"la":"36.37801100000",
"ln":"139.72191000000"
},
"geometry":{
"type":"Point",
"coordinates":[
139.72191,
36.378011
]
}
},
{
"type":"Feature",
"properties":{
"Name":"栃木商業高校",
"Jusho":"栃木県栃木市片柳町5－-30",
"Capacity":"1000",
"la":"36.37387200000",
"ln":"139.71691100000"
},
"geometry":{
"type":"Point",
"coordinates":[
139.716911,
36.373872
]
}
},
{
"type":"Feature",
"properties":{
"Name":"栃木農業高校",
"Jusho":"栃木県栃木市平井町911",
"Capacity":"1000",
"la":"36.37376100000",
"ln":"139.70424600000"
},
"geometry":{
"type":"Point",
"coordinates":[
139.704246,
36.373761
]
}
},
{
"type":"Feature",
"properties":{
"Name":"栃木文化会館",
"Jusho":"栃木県栃木市旭町12－6",
"Capacity":"700",
"la":"36.37677300000",
"ln":"139.73711100000"
},
"geometry":{
"type":"Point",
"coordinates":[
139.737111,
36.376773
]
}
},
{
"type":"Feature",
"properties":{
"Name":"栃木保健福祉センター",
"Jusho":"栃木県栃木市今泉町2－-40",
"Capacity":"600",
"la":"36.38101099910",
"ln":"139.74582400000"
},
"geometry":{
"type":"Point",
"coordinates":[
139.745824,
36.3810109991
]
}
},
{
"type":"Feature",
"properties":{
"Name":"栃木翔南高校",
"Jusho":"栃木県栃木市大平町川連370",
"Capacity":"60",
"la":"36.36465200000",
"ln":"139.72638200000"
},
"geometry":{
"type":"Point",
"coordinates":[
139.726382,
36.364652
]
}
},
{
"type":"Feature",
"properties":{
"Name":"南部地区コミュニティセンター",
"Jusho":"栃木県栃木市西方町金井1370",
"Capacity":"38",
"la":"36.45147405130",
"ln":"139.74501156800"
},
"geometry":{
"type":"Point",
"coordinates":[
139.745011568,
36.4514740513
]
}
},
{
"type":"Feature",
"properties":{
"Name":"農村婦人の家",
"Jusho":"栃木県栃木市西方町元585",
"Capacity":"35",
"la":"36.46147897040",
"ln":"139.73567494200"
},
"geometry":{
"type":"Point",
"coordinates":[
139.735674942,
36.4614789704
]
}
},
{
"type":"Feature",
"properties":{
"Name":"部屋地区公民館",
"Jusho":"栃木県栃木市藤岡町部屋454－",
"Capacity":"100",
"la":"36.27444200000",
"ln":"139.71249900000"
},
"geometry":{
"type":"Point",
"coordinates":[
139.712499,
36.274442
]
}
},
{
"type":"Feature",
"properties":{
"Name":"部屋保育所",
"Jusho":"栃木県栃木市藤岡町蛭沼1232－",
"Capacity":"100",
"la":"36.28134600000",
"ln":"139.70601300000"
},
"geometry":{
"type":"Point",
"coordinates":[
139.706013,
36.281346
]
}
},
{
"type":"Feature",
"properties":{
"Name":"保健センター",
"Jusho":"栃木県栃木市西方町本城1",
"Capacity":"102",
"la":"36.46593803570",
"ln":"139.74443913300"
},
"geometry":{
"type":"Point",
"coordinates":[
139.744439133,
36.4659380357
]
}
},
{
"type":"Feature",
"properties":{
"Name":"木コミュニティセンター",
"Jusho":"栃木県栃木市都賀町木813",
"Capacity":"100",
"la":"36.42883299910",
"ln":"139.72422600000"
},
"geometry":{
"type":"Point",
"coordinates":[
139.724226,
36.4288329991
]
}
},
{
"type":"Feature",
"properties":{
"Name":"老人福祉センター泉寿園",
"Jusho":"栃木県栃木市今泉町1-2-70",
"Capacity":"200",
"la":"36.38417799910",
"ln":"139.74899000000"
},
"geometry":{
"type":"Point",
"coordinates":[
139.74899,
36.3841779991
]
}
},
{
"type":"Feature",
"properties":{
"Name":"老人福祉センター福寿園",
"Jusho":"栃木県栃木市千塚町210",
"Capacity":"350",
"la":"36.41550159880",
"ln":"139.69285301700"
},
"geometry":{
"type":"Point",
"coordinates":[
139.692853017,
36.4155015988
]
}
},
{
"type":"Feature",
"properties":{
"Name":"あきやま学寮",
"Jusho":"栃木県佐野市秋山721",
"Capacity":"300",
"la":"36.50696800000",
"ln":"139.52122900000"
},
"geometry":{
"type":"Point",
"coordinates":[
139.521229,
36.506968
]
}
},
{
"type":"Feature",
"properties":{
"Name":"アリーナたぬま",
"Jusho":"栃木県佐野市戸奈良町21",
"Capacity":"1500",
"la":"36.37392300000",
"ln":"139.56858900000"
},
"geometry":{
"type":"Point",
"coordinates":[
139.568589,
36.373923
]
}
},
{
"type":"Feature",
"properties":{
"Name":"くずう保育園",
"Jusho":"栃木県佐野市葛生東1－5-20",
"Capacity":"160",
"la":"36.40246000000",
"ln":"139.61393600000"
},
"geometry":{
"type":"Point",
"coordinates":[
139.613936,
36.40246
]
}
},
{
"type":"Feature",
"properties":{
"Name":"たぬまふるさと館",
"Jusho":"栃木県佐野市栃本町2237－",
"Capacity":"180",
"la":"36.36573800000",
"ln":"139.58185000000"
},
"geometry":{
"type":"Point",
"coordinates":[
139.58185,
36.365738
]
}
},
{
"type":"Feature",
"properties":{
"Name":"ときわ保育園",
"Jusho":"栃木県佐野市豊代町2134",
"Capacity":"100",
"la":"36.43515900000",
"ln":"139.58951700000"
},
"geometry":{
"type":"Point",
"coordinates":[
139.589517,
36.435159
]
}
},
{
"type":"Feature",
"properties":{
"Name":"伊勢山保育園",
"Jusho":"栃木県佐野市相生町207－",
"Capacity":"100",
"la":"36.31573800000",
"ln":"139.58262100000"
},
"geometry":{
"type":"Point",
"coordinates":[
139.582621,
36.315738
]
}
},
{
"type":"Feature",
"properties":{
"Name":"下牧農村生活センター",
"Jusho":"栃木県佐野市牧794－",
"Capacity":"100",
"la":"36.44291400000",
"ln":"139.58033300000"
},
"geometry":{
"type":"Point",
"coordinates":[
139.580333,
36.442914
]
}
},
{
"type":"Feature",
"properties":{
"Name":"会沢地区コミュニティセンター",
"Jusho":"栃木県佐野市会沢町681",
"Capacity":"300",
"la":"36.42295100000",
"ln":"139.62725900000"
},
"geometry":{
"type":"Point",
"coordinates":[
139.627259,
36.422951
]
}
},
{
"type":"Feature",
"properties":{
"Name":"界地区公民館",
"Jusho":"栃木県佐野市馬門町1510－",
"Capacity":"1190",
"la":"36.28534499910",
"ln":"139.60106200000"
},
"geometry":{
"type":"Point",
"coordinates":[
139.601062,
36.2853449991
]
}
},
{
"type":"Feature",
"properties":{
"Name":"葛生あくとプラザ",
"Jusho":"栃木県佐野市あくと町3084",
"Capacity":"600",
"la":"36.40768600000",
"ln":"139.60443900000"
},
"geometry":{
"type":"Point",
"coordinates":[
139.604439,
36.407686
]
}
},
{
"type":"Feature",
"properties":{
"Name":"葛生清和荘老人福祉センター",
"Jusho":"栃木県佐野市葛生西2-7－9",
"Capacity":"250",
"la":"36.40836891600",
"ln":"139.60800220300"
},
"geometry":{
"type":"Point",
"coordinates":[
139.608002203,
36.408368916
]
}
},
{
"type":"Feature",
"properties":{
"Name":"葛生農業者トレーニングセンター",
"Jusho":"栃木県佐野市あくと町3092",
"Capacity":"700",
"la":"36.40697500000",
"ln":"139.60562000000"
},
"geometry":{
"type":"Point",
"coordinates":[
139.60562,
36.406975
]
}
},
{
"type":"Feature",
"properties":{
"Name":"舘野集落農事集会所",
"Jusho":"栃木県佐野市栃本町3281－4",
"Capacity":"50",
"la":"36.34661000000",
"ln":"139.58282300000"
},
"geometry":{
"type":"Point",
"coordinates":[
139.582823,
36.34661
]
}
},
{
"type":"Feature",
"properties":{
"Name":"旗川地区公民館",
"Jusho":"栃木県佐野市並木町957－",
"Capacity":"140",
"la":"36.32504500000",
"ln":"139.55067300000"
},
"geometry":{
"type":"Point",
"coordinates":[
139.550673,
36.325045
]
}
},
{
"type":"Feature",
"properties":{
"Name":"犬伏地区公民館",
"Jusho":"栃木県佐野市犬伏下町1798",
"Capacity":"230",
"la":"36.32235200000",
"ln":"139.60190000000"
},
"geometry":{
"type":"Point",
"coordinates":[
139.6019,
36.322352
]
}
},
{
"type":"Feature",
"properties":{
"Name":"戸奈良地区コミュニティセンター",
"Jusho":"栃木県佐野市戸奈良町970－",
"Capacity":"70",
"la":"36.37659700000",
"ln":"139.55894300000"
},
"geometry":{
"type":"Point",
"coordinates":[
139.558943,
36.376597
]
}
},
{
"type":"Feature",
"properties":{
"Name":"吾妻地区公民館",
"Jusho":"栃木県佐野市村上町9",
"Capacity":"110",
"la":"36.29577200000",
"ln":"139.54022000000"
},
"geometry":{
"type":"Point",
"coordinates":[
139.54022,
36.295772
]
}
},
{
"type":"Feature",
"properties":{
"Name":"高萩保育園",
"Jusho":"栃木県佐野市高萩町684－",
"Capacity":"40",
"la":"36.30456200000",
"ln":"139.59496200000"
},
"geometry":{
"type":"Point",
"coordinates":[
139.594962,
36.304562
]
}
},
{
"type":"Feature",
"properties":{
"Name":"佐野高校",
"Jusho":"栃木県佐野市天神町761－",
"Capacity":"2030",
"la":"36.32023700000",
"ln":"139.57459400000"
},
"geometry":{
"type":"Point",
"coordinates":[
139.574594,
36.320237
]
}
},
{
"type":"Feature",
"properties":{
"Name":"佐野女子高校",
"Jusho":"栃木県佐野市金屋下町12",
"Capacity":"1820",
"la":"36.31057200000",
"ln":"139.58267700000"
},
"geometry":{
"type":"Point",
"coordinates":[
139.582677,
36.310572
]
}
},
{
"type":"Feature",
"properties":{
"Name":"佐野松陽高校",
"Jusho":"栃木県佐野市出流原町643-5",
"Capacity":"1890",
"la":"36.35809300000",
"ln":"139.54945500000"
},
"geometry":{
"type":"Point",
"coordinates":[
139.549455,
36.358093
]
}
},
{
"type":"Feature",
"properties":{
"Name":"佐野清澄高校",
"Jusho":"栃木県佐野市堀米町840",
"Capacity":"740",
"la":"36.32587600000",
"ln":"139.59042500000"
},
"geometry":{
"type":"Point",
"coordinates":[
139.590425,
36.325876
]
}
},
{
"type":"Feature",
"properties":{
"Name":"佐野短大",
"Jusho":"栃木県佐野市高萩町973",
"Capacity":"1210",
"la":"36.30204500000",
"ln":"139.60464800000"
},
"geometry":{
"type":"Point",
"coordinates":[
139.604648,
36.302045
]
}
},
{
"type":"Feature",
"properties":{
"Name":"佐野地区公民館",
"Jusho":"栃木県佐野市金井上町2519",
"Capacity":"370",
"la":"36.31189399910",
"ln":"139.57211900000"
},
"geometry":{
"type":"Point",
"coordinates":[
139.572119,
36.3118939991
]
}
},
{
"type":"Feature",
"properties":{
"Name":"佐野日大高校",
"Jusho":"栃木県佐野市石塚町2555",
"Capacity":"4490",
"la":"36.35553800000",
"ln":"139.55512100000"
},
"geometry":{
"type":"Point",
"coordinates":[
139.555121,
36.355538
]
}
},
{
"type":"Feature",
"properties":{
"Name":"佐野武道館",
"Jusho":"栃木県佐野市堀米町167－",
"Capacity":"160",
"la":"36.32117600000",
"ln":"139.58239300000"
},
"geometry":{
"type":"Point",
"coordinates":[
139.582393,
36.321176
]
}
},
{
"type":"Feature",
"properties":{
"Name":"作原生活改善センター",
"Jusho":"栃木県佐野市作原町780－",
"Capacity":"80",
"la":"36.48407877490",
"ln":"139.49783162100"
},
"geometry":{
"type":"Point",
"coordinates":[
139.497831621,
36.4840787749
]
}
},
{
"type":"Feature",
"properties":{
"Name":"作原野外活動施設",
"Jusho":"栃木県佐野市作原町818",
"Capacity":"7380",
"la":"36.48454190500",
"ln":"139.49688389800"
},
"geometry":{
"type":"Point",
"coordinates":[
139.496883898,
36.484541905
]
}
},
{
"type":"Feature",
"properties":{
"Name":"三好生活改善センター",
"Jusho":"栃木県佐野市戸室町1183",
"Capacity":"110",
"la":"36.39327900000",
"ln":"139.57432400000"
},
"geometry":{
"type":"Point",
"coordinates":[
139.574324,
36.393279
]
}
},
{
"type":"Feature",
"properties":{
"Name":"山薗地区コミュニティセンター",
"Jusho":"栃木県佐野市山形町650-25",
"Capacity":"160",
"la":"36.38539600000",
"ln":"139.53809700000"
},
"geometry":{
"type":"Point",
"coordinates":[
139.538097,
36.385396
]
}
},
{
"type":"Feature",
"properties":{
"Name":"若宮保育園",
"Jusho":"栃木県佐野市若宮下町12－",
"Capacity":"60",
"la":"36.29415700000",
"ln":"139.58737100000"
},
"geometry":{
"type":"Point",
"coordinates":[
139.587371,
36.294157
]
}
},
{
"type":"Feature",
"properties":{
"Name":"秋山生活改善センター",
"Jusho":"栃木県佐野市秋山734",
"Capacity":"60",
"la":"36.50717600000",
"ln":"139.52135400000"
},
"geometry":{
"type":"Point",
"coordinates":[
139.521354,
36.507176
]
}
},
{
"type":"Feature",
"properties":{
"Name":"秋山川浄化センター",
"Jusho":"栃木県佐野市植下町3300",
"Capacity":"200",
"la":"36.29079600000",
"ln":"139.57117600000"
},
"geometry":{
"type":"Point",
"coordinates":[
139.571176,
36.290796
]
}
},
{
"type":"Feature",
"properties":{
"Name":"小見町南小見集会所",
"Jusho":"栃木県佐野市小見町5－",
"Capacity":"50",
"la":"36.33520800000",
"ln":"139.57068500000"
},
"geometry":{
"type":"Point",
"coordinates":[
139.570685,
36.335208
]
}
},
{
"type":"Feature",
"properties":{
"Name":"上牧集落センター",
"Jusho":"栃木県佐野市牧1940-4",
"Capacity":"60",
"la":"36.45250700000",
"ln":"139.57647100000"
},
"geometry":{
"type":"Point",
"coordinates":[
139.576471,
36.452507
]
}
},
{
"type":"Feature",
"properties":{
"Name":"城北地区公民館",
"Jusho":"栃木県佐野市堀米町1173",
"Capacity":"220",
"la":"36.32494500000",
"ln":"139.57994900000"
},
"geometry":{
"type":"Point",
"coordinates":[
139.579949,
36.324945
]
}
},
{
"type":"Feature",
"properties":{
"Name":"常盤地区公民館",
"Jusho":"栃木県佐野市仙波町167",
"Capacity":"250",
"la":"36.43086900000",
"ln":"139.59386800000"
},
"geometry":{
"type":"Point",
"coordinates":[
139.593868,
36.430869
]
}
},
{
"type":"Feature",
"properties":{
"Name":"植野地区公民館",
"Jusho":"栃木県佐野市寺中町2297－",
"Capacity":"260",
"la":"36.30153900000",
"ln":"139.57611400000"
},
"geometry":{
"type":"Point",
"coordinates":[
139.576114,
36.301539
]
}
},
{
"type":"Feature",
"properties":{
"Name":"新吉水地区コミュニティセンター",
"Jusho":"栃木県佐野市吉水駅前1－9-6",
"Capacity":"100",
"la":"36.34755100000",
"ln":"139.57719200000"
},
"geometry":{
"type":"Point",
"coordinates":[
139.577192,
36.347551
]
}
},
{
"type":"Feature",
"properties":{
"Name":"新合総合センター",
"Jusho":"栃木県佐野市閑馬町361－",
"Capacity":"160",
"la":"36.40096599910",
"ln":"139.52085200000"
},
"geometry":{
"type":"Point",
"coordinates":[
139.520852,
36.4009659991
]
}
},
{
"type":"Feature",
"properties":{
"Name":"石塚保育園",
"Jusho":"栃木県佐野市石塚町568-82",
"Capacity":"100",
"la":"36.36001000000",
"ln":"139.55509300000"
},
"geometry":{
"type":"Point",
"coordinates":[
139.555093,
36.36001
]
}
},
{
"type":"Feature",
"properties":{
"Name":"赤見城保育園",
"Jusho":"栃木県佐野市赤見町3572",
"Capacity":"70",
"la":"36.35331600000",
"ln":"139.53390100000"
},
"geometry":{
"type":"Point",
"coordinates":[
139.533901,
36.353316
]
}
},
{
"type":"Feature",
"properties":{
"Name":"赤見地区公民館",
"Jusho":"栃木県佐野市赤見町3082",
"Capacity":"190",
"la":"36.35197999910",
"ln":"139.53909800000"
},
"geometry":{
"type":"Point",
"coordinates":[
139.539098,
36.3519799991
]
}
},
{
"type":"Feature",
"properties":{
"Name":"船越南部集落センター",
"Jusho":"栃木県佐野市船越町45",
"Capacity":"50",
"la":"36.40129200000",
"ln":"139.57526000000"
},
"geometry":{
"type":"Point",
"coordinates":[
139.57526,
36.401292
]
}
},
{
"type":"Feature",
"properties":{
"Name":"船越北部集落センター",
"Jusho":"栃木県佐野市船越町1791-9",
"Capacity":"50",
"la":"36.41376309090",
"ln":"139.56689894200"
},
"geometry":{
"type":"Point",
"coordinates":[
139.566898942,
36.4137630909
]
}
},
{
"type":"Feature",
"properties":{
"Name":"村上保育園",
"Jusho":"栃木県佐野市村上町314－",
"Capacity":"40",
"la":"36.30471000000",
"ln":"139.54418000000"
},
"geometry":{
"type":"Point",
"coordinates":[
139.54418,
36.30471
]
}
},
{
"type":"Feature",
"properties":{
"Name":"多田町集会所",
"Jusho":"栃木県佐野市多田町804-3",
"Capacity":"60",
"la":"36.37613700000",
"ln":"139.59722800000"
},
"geometry":{
"type":"Point",
"coordinates":[
139.597228,
36.376137
]
}
},
{
"type":"Feature",
"properties":{
"Name":"大橋保育園",
"Jusho":"栃木県佐野市大橋町3195-8",
"Capacity":"130",
"la":"36.31995900000",
"ln":"139.56153900000"
},
"geometry":{
"type":"Point",
"coordinates":[
139.561539,
36.319959
]
}
},
{
"type":"Feature",
"properties":{
"Name":"田沼グリーンスポーツセンター",
"Jusho":"栃木県佐野市戸室町1592-2",
"Capacity":"31000",
"la":"36.38569660910",
"ln":"139.57081717000"
},
"geometry":{
"type":"Point",
"coordinates":[
139.57081717,
36.3856966091
]
}
},
{
"type":"Feature",
"properties":{
"Name":"田沼旗川緑地会館",
"Jusho":"栃木県佐野市戸奈良町776-7",
"Capacity":"40",
"la":"36.37060900000",
"ln":"139.55879000000"
},
"geometry":{
"type":"Point",
"coordinates":[
139.55879,
36.370609
]
}
},
{
"type":"Feature",
"properties":{
"Name":"田沼高校",
"Jusho":"栃木県佐野市栃本町301",
"Capacity":"770",
"la":"36.35722900000",
"ln":"139.59241100000"
},
"geometry":{
"type":"Point",
"coordinates":[
139.592411,
36.357229
]
}
},
{
"type":"Feature",
"properties":{
"Name":"田沼児童館",
"Jusho":"栃木県佐野市栃本町2384－2",
"Capacity":"50",
"la":"36.36294599910",
"ln":"139.57701700000"
},
"geometry":{
"type":"Point",
"coordinates":[
139.577017,
36.3629459991
]
}
},
{
"type":"Feature",
"properties":{
"Name":"田沼西運動場",
"Jusho":"栃木県佐野市閑馬町370",
"Capacity":"4000",
"la":"36.40050449010",
"ln":"139.51987949800"
},
"geometry":{
"type":"Point",
"coordinates":[
139.519879498,
36.4005044901
]
}
},
{
"type":"Feature",
"properties":{
"Name":"田沼総合運動場",
"Jusho":"栃木県佐野市田沼町1600",
"Capacity":"11000",
"la":"36.37637600000",
"ln":"139.58044400000"
},
"geometry":{
"type":"Point",
"coordinates":[
139.580444,
36.376376
]
}
},
{
"type":"Feature",
"properties":{
"Name":"田沼地区公民館",
"Jusho":"栃木県佐野市栃本町2384-3",
"Capacity":"130",
"la":"36.36272899910",
"ln":"139.57672800000"
},
"geometry":{
"type":"Point",
"coordinates":[
139.576728,
36.3627289991
]
}
},
{
"type":"Feature",
"properties":{
"Name":"田沼中央公民館",
"Jusho":"栃木県佐野市戸奈良町1－",
"Capacity":"100",
"la":"36.37465000000",
"ln":"139.56890900000"
},
"geometry":{
"type":"Point",
"coordinates":[
139.568909,
36.37465
]
}
},
{
"type":"Feature",
"properties":{
"Name":"田沼南部地区公民館",
"Jusho":"栃木県佐野市小見町752",
"Capacity":"50",
"la":"36.35059000000",
"ln":"139.57201500000"
},
"geometry":{
"type":"Point",
"coordinates":[
139.572015,
36.35059
]
}
},
{
"type":"Feature",
"properties":{
"Name":"田沼福祉コミュニティセンター",
"Jusho":"栃木県佐野市小見町123-2",
"Capacity":"60",
"la":"36.34001670920",
"ln":"139.57021291300"
},
"geometry":{
"type":"Point",
"coordinates":[
139.570212913,
36.3400167092
]
}
},
{
"type":"Feature",
"properties":{
"Name":"田沼北部地区コミュニティセンター",
"Jusho":"栃木県佐野市多田町3776-3",
"Capacity":"90",
"la":"36.37619300000",
"ln":"139.60066100000"
},
"geometry":{
"type":"Point",
"coordinates":[
139.600661,
36.376193
]
}
},
{
"type":"Feature",
"properties":{
"Name":"田之入老人福祉センター",
"Jusho":"栃木県佐野市田之入町834",
"Capacity":"150",
"la":"36.34528300000",
"ln":"139.58814700000"
},
"geometry":{
"type":"Point",
"coordinates":[
139.588147,
36.345283
]
}
},
{
"type":"Feature",
"properties":{
"Name":"田名網集落センター",
"Jusho":"栃木県佐野市豊代1158",
"Capacity":"50",
"la":"36.41926400000",
"ln":"139.59213800000"
},
"geometry":{
"type":"Point",
"coordinates":[
139.592138,
36.419264
]
}
},
{
"type":"Feature",
"properties":{
"Name":"栃本地区コミュニティセンター",
"Jusho":"栃木県佐野市栃本町2047-5",
"Capacity":"80",
"la":"36.35988100000",
"ln":"139.58690800000"
},
"geometry":{
"type":"Point",
"coordinates":[
139.586908,
36.359881
]
}
},
{
"type":"Feature",
"properties":{
"Name":"栃本中地区農事集会所",
"Jusho":"栃木県佐野市栃本町1924-2",
"Capacity":"40",
"la":"36.36445835460",
"ln":"139.59020845000"
},
"geometry":{
"type":"Point",
"coordinates":[
139.59020845,
36.3644583546
]
}
},
{
"type":"Feature",
"properties":{
"Name":"農林漁家高齢者センター",
"Jusho":"栃木県佐野市仙波2445－",
"Capacity":"200",
"la":"36.45521600000",
"ln":"139.58931400000"
},
"geometry":{
"type":"Point",
"coordinates":[
139.589314,
36.455216
]
}
},
{
"type":"Feature",
"properties":{
"Name":"白岩生活改善センター",
"Jusho":"栃木県佐野市白岩町329－",
"Capacity":"80",
"la":"36.45937943090",
"ln":"139.52295195600"
},
"geometry":{
"type":"Point",
"coordinates":[
139.522951956,
36.4593794309
]
}
},
{
"type":"Feature",
"properties":{
"Name":"飛駒３区多目的集会所",
"Jusho":"栃木県佐野市飛駒町2412",
"Capacity":"20",
"la":"36.46314100000",
"ln":"139.46310578200"
},
"geometry":{
"type":"Point",
"coordinates":[
139.463105782,
36.463141
]
}
},
{
"type":"Feature",
"properties":{
"Name":"飛駒基幹集落センター",
"Jusho":"栃木県佐野市飛駒町1576-2",
"Capacity":"100",
"la":"36.45468589650",
"ln":"139.46727224600"
},
"geometry":{
"type":"Point",
"coordinates":[
139.467272246,
36.4546858965
]
}
},
{
"type":"Feature",
"properties":{
"Name":"氷室地区公民館",
"Jusho":"栃木県佐野市水木846",
"Capacity":"100",
"la":"36.48636500000",
"ln":"139.54344200000"
},
"geometry":{
"type":"Point",
"coordinates":[
139.543442,
36.486365
]
}
},
{
"type":"Feature",
"properties":{
"Name":"米山保育園",
"Jusho":"栃木県佐野市米山南町39",
"Capacity":"60",
"la":"36.32398800000",
"ln":"139.60756300000"
},
"geometry":{
"type":"Point",
"coordinates":[
139.607563,
36.323988
]
}
},
{
"type":"Feature",
"properties":{
"Name":"堀米保育園",
"Jusho":"栃木県佐野市堀米町990",
"Capacity":"90",
"la":"36.32857000000",
"ln":"139.58167600000"
},
"geometry":{
"type":"Point",
"coordinates":[
139.581676,
36.32857
]
}
},
{
"type":"Feature",
"properties":{
"Name":"茂呂山老人福祉センター",
"Jusho":"栃木県佐野市茂呂山町10－",
"Capacity":"60",
"la":"36.29564600000",
"ln":"139.59070400000"
},
"geometry":{
"type":"Point",
"coordinates":[
139.590704,
36.295646
]
}
},
{
"type":"Feature",
"properties":{
"Name":"野上基幹集落センター",
"Jusho":"栃木県佐野市白岩町486－",
"Capacity":"70",
"la":"36.45942600000",
"ln":"139.52141200000"
},
"geometry":{
"type":"Point",
"coordinates":[
139.521412,
36.459426
]
}
},
{
"type":"Feature",
"properties":{
"Name":"隣保館",
"Jusho":"栃木県佐野市赤坂町958－8",
"Capacity":"60",
"la":"36.30522085620",
"ln":"139.56496844900"
},
"geometry":{
"type":"Point",
"coordinates":[
139.564968449,
36.3052208562
]
}
},
{
"type":"Feature",
"properties":{
"Name":"粟野コミュニティセンター",
"Jusho":"栃木県鹿沼市口粟野1780",
"Capacity":"203",
"la":"36.52180500000",
"ln":"139.66732600000"
},
"geometry":{
"type":"Point",
"coordinates":[
139.667326,
36.521805
]
}
},
{
"type":"Feature",
"properties":{
"Name":"永野コミュニティセンター",
"Jusho":"栃木県鹿沼市上永野770",
"Capacity":"109",
"la":"36.50273280240",
"ln":"139.58842265200"
},
"geometry":{
"type":"Point",
"coordinates":[
139.588422652,
36.5027328024
]
}
},
{
"type":"Feature",
"properties":{
"Name":"加蘇コミュニティセンター",
"Jusho":"栃木県鹿沼市加園1364",
"Capacity":"260",
"la":"36.56113100000",
"ln":"139.68940100000"
},
"geometry":{
"type":"Point",
"coordinates":[
139.689401,
36.561131
]
}
},
{
"type":"Feature",
"properties":{
"Name":"菊沢コミュニティセンター",
"Jusho":"栃木県鹿沼市御成橋町2-2197－",
"Capacity":"264",
"la":"36.58543100000",
"ln":"139.74762500000"
},
"geometry":{
"type":"Point",
"coordinates":[
139.747625,
36.585431
]
}
},
{
"type":"Feature",
"properties":{
"Name":"鹿沼高校",
"Jusho":"栃木県鹿沼市万町960",
"Capacity":"752",
"la":"36.55838000000",
"ln":"139.75045600000"
},
"geometry":{
"type":"Point",
"coordinates":[
139.750456,
36.55838
]
}
},
{
"type":"Feature",
"properties":{
"Name":"鹿沼南高校",
"Jusho":"栃木県鹿沼市みなみ町8-73",
"Capacity":"370",
"la":"36.52155199910",
"ln":"139.77056700000"
},
"geometry":{
"type":"Point",
"coordinates":[
139.770567,
36.5215519991
]
}
},
{
"type":"Feature",
"properties":{
"Name":"清洲コミュニティセンター",
"Jusho":"栃木県鹿沼市深程116－",
"Capacity":"86",
"la":"36.49585800000",
"ln":"139.71828800000"
},
"geometry":{
"type":"Point",
"coordinates":[
139.718288,
36.495858
]
}
},
{
"type":"Feature",
"properties":{
"Name":"西大芦コミュニティセンター",
"Jusho":"栃木県鹿沼市草久960",
"Capacity":"90",
"la":"36.63982500000",
"ln":"139.60600500000"
},
"geometry":{
"type":"Point",
"coordinates":[
139.606005,
36.639825
]
}
},
{
"type":"Feature",
"properties":{
"Name":"東大芦コミュニティセンター",
"Jusho":"栃木県鹿沼市上日向375",
"Capacity":"110",
"la":"36.56556800000",
"ln":"139.71577600000"
},
"geometry":{
"type":"Point",
"coordinates":[
139.715776,
36.565568
]
}
},
{
"type":"Feature",
"properties":{
"Name":"東部台コミュニティセンター",
"Jusho":"栃木県鹿沼市緑町1-3-36",
"Capacity":"380",
"la":"36.55759300000",
"ln":"139.77047700000"
},
"geometry":{
"type":"Point",
"coordinates":[
139.770477,
36.557593
]
}
},
{
"type":"Feature",
"properties":{
"Name":"南押原コミュニティセンター",
"Jusho":"栃木県鹿沼市楡木町1079－",
"Capacity":"110",
"la":"36.50543831400",
"ln":"139.74701485500"
},
"geometry":{
"type":"Point",
"coordinates":[
139.747014855,
36.505438314
]
}
},
{
"type":"Feature",
"properties":{
"Name":"南摩コミュニティセンター",
"Jusho":"栃木県鹿沼市油田町924-5",
"Capacity":"260",
"la":"36.51943900000",
"ln":"139.71635200000"
},
"geometry":{
"type":"Point",
"coordinates":[
139.716352,
36.519439
]
}
},
{
"type":"Feature",
"properties":{
"Name":"粕尾コミュニティセンター",
"Jusho":"栃木県鹿沼市粕尾273-2",
"Capacity":"73",
"la":"36.52030100000",
"ln":"139.60782900000"
},
"geometry":{
"type":"Point",
"coordinates":[
139.607829,
36.520301
]
}
},
{
"type":"Feature",
"properties":{
"Name":"板荷コミュニティセンター",
"Jusho":"栃木県鹿沼市板荷3051－",
"Capacity":"100",
"la":"36.64141100000",
"ln":"139.69664500000"
},
"geometry":{
"type":"Point",
"coordinates":[
139.696645,
36.641411
]
}
},
{
"type":"Feature",
"properties":{
"Name":"北押原コミュニティセンター",
"Jusho":"栃木県鹿沼市樅山町162-2",
"Capacity":"235",
"la":"36.53765000000",
"ln":"139.75211000000"
},
"geometry":{
"type":"Point",
"coordinates":[
139.75211,
36.53765
]
}
},
{
"type":"Feature",
"properties":{
"Name":"北犬飼コミュニティセンター",
"Jusho":"栃木県鹿沼市さつき町15",
"Capacity":"160",
"la":"36.53685200000",
"ln":"139.80606000000"
},
"geometry":{
"type":"Point",
"coordinates":[
139.80606,
36.536852
]
}
},
{
"type":"Feature",
"properties":{
"Name":"たんぽぽ広場",
"Jusho":"栃木県日光市藤原1228",
"Capacity":"122",
"la":"36.89314599910",
"ln":"139.70811600000"
},
"geometry":{
"type":"Point",
"coordinates":[
139.708116,
36.8931459991
]
}
},
{
"type":"Feature",
"properties":{
"Name":"とちぎ日光材細尾モデルセンター",
"Jusho":"栃木県日光市細尾町428－",
"Capacity":"45",
"la":"36.72987300000",
"ln":"139.54779800000"
},
"geometry":{
"type":"Point",
"coordinates":[
139.547798,
36.729873
]
}
},
{
"type":"Feature",
"properties":{
"Name":"伊の原自治公民館",
"Jusho":"栃木県日光市藤原1357",
"Capacity":"49",
"la":"36.86072731240",
"ln":"139.71985524600"
},
"geometry":{
"type":"Point",
"coordinates":[
139.719855246,
36.8607273124
]
}
},
{
"type":"Feature",
"properties":{
"Name":"遠下林業活動促進センター（遠下集会所）",
"Jusho":"栃木県日光市足尾町遠下5－2",
"Capacity":"32",
"la":"36.62779400000",
"ln":"139.42912800000"
},
"geometry":{
"type":"Point",
"coordinates":[
139.429128,
36.627794
]
}
},
{
"type":"Feature",
"properties":{
"Name":"下原児童館",
"Jusho":"栃木県日光市鬼怒川温泉大原2-24",
"Capacity":"135",
"la":"36.79758323600",
"ln":"139.70403060900"
},
"geometry":{
"type":"Point",
"coordinates":[
139.704030609,
36.797583236
]
}
},
{
"type":"Feature",
"properties":{
"Name":"下原保育園",
"Jusho":"栃木県日光市鬼怒川温泉大原2",
"Capacity":"276",
"la":"36.80112997140",
"ln":"139.70445295900"
},
"geometry":{
"type":"Point",
"coordinates":[
139.704452959,
36.8011299714
]
}
},
{
"type":"Feature",
"properties":{
"Name":"掛水集会所",
"Jusho":"栃木県日光市足尾町掛水4－8",
"Capacity":"49",
"la":"36.64096303750",
"ln":"139.44847939200"
},
"geometry":{
"type":"Point",
"coordinates":[
139.448479392,
36.6409630375
]
}
},
{
"type":"Feature",
"properties":{
"Name":"鬼怒川児童館",
"Jusho":"栃木県日光市藤原19",
"Capacity":"104",
"la":"36.84237276110",
"ln":"139.72341276600"
},
"geometry":{
"type":"Point",
"coordinates":[
139.723412766,
36.8423727611
]
}
},
{
"type":"Feature",
"properties":{
"Name":"鬼怒川地区コミュニティセンター",
"Jusho":"栃木県日光市鬼怒川温泉滝563－",
"Capacity":"90",
"la":"36.83342400000",
"ln":"139.71785400000"
},
"geometry":{
"type":"Point",
"coordinates":[
139.717854,
36.833424
]
}
},
{
"type":"Feature",
"properties":{
"Name":"鬼怒川保育園",
"Jusho":"栃木県日光市鬼怒川温泉大原988-2",
"Capacity":"169",
"la":"36.82263700980",
"ln":"139.71807421800"
},
"geometry":{
"type":"Point",
"coordinates":[
139.718074218,
36.8226370098
]
}
},
{
"type":"Feature",
"properties":{
"Name":"鶏頂地区活性化センター",
"Jusho":"栃木県日光市高原216",
"Capacity":"71",
"la":"36.92363200000",
"ln":"139.73755100000"
},
"geometry":{
"type":"Point",
"coordinates":[
139.737551,
36.923632
]
}
},
{
"type":"Feature",
"properties":{
"Name":"元足尾高校独身寮",
"Jusho":"栃木県日光市足尾町4413－",
"Capacity":"201",
"la":"36.65784300000",
"ln":"139.45649400000"
},
"geometry":{
"type":"Point",
"coordinates":[
139.456494,
36.657843
]
}
},
{
"type":"Feature",
"properties":{
"Name":"元日光地区森林組合",
"Jusho":"栃木県日光市吉沢124",
"Capacity":"150",
"la":"36.70827233190",
"ln":"139.70006631700"
},
"geometry":{
"type":"Point",
"coordinates":[
139.700066317,
36.7082723319
]
}
},
{
"type":"Feature",
"properties":{
"Name":"原集会所",
"Jusho":"栃木県日光市足尾町3066－",
"Capacity":"59",
"la":"36.61798561690",
"ln":"139.42093255600"
},
"geometry":{
"type":"Point",
"coordinates":[
139.420932556,
36.6179856169
]
}
},
{
"type":"Feature",
"properties":{
"Name":"戸中集会所",
"Jusho":"栃木県日光市日向694",
"Capacity":"36",
"la":"36.88909500000",
"ln":"139.65591900000"
},
"geometry":{
"type":"Point",
"coordinates":[
139.655919,
36.889095
]
}
},
{
"type":"Feature",
"properties":{
"Name":"皇海荘しらかば苑",
"Jusho":"栃木県日光市足尾町1782－",
"Capacity":"200",
"la":"36.67472800000",
"ln":"139.48387800000"
},
"geometry":{
"type":"Point",
"coordinates":[
139.483878,
36.674728
]
}
},
{
"type":"Feature",
"properties":{
"Name":"高畑公民館",
"Jusho":"栃木県日光市瀬尾1988－",
"Capacity":"34",
"la":"36.75963100000",
"ln":"139.68050500000"
},
"geometry":{
"type":"Point",
"coordinates":[
139.680505,
36.759631
]
}
},
{
"type":"Feature",
"properties":{
"Name":"黒部集会所",
"Jusho":"栃木県日光市黒部208",
"Capacity":"120",
"la":"36.86909200000",
"ln":"139.60374500000"
},
"geometry":{
"type":"Point",
"coordinates":[
139.603745,
36.869092
]
}
},
{
"type":"Feature",
"properties":{
"Name":"今市工業高等学校",
"Jusho":"栃木県日光市荊沢615",
"Capacity":"490",
"la":"36.72811000000",
"ln":"139.72778400000"
},
"geometry":{
"type":"Point",
"coordinates":[
139.727784,
36.72811
]
}
},
{
"type":"Feature",
"properties":{
"Name":"今市高等学校",
"Jusho":"栃木県日光市千本木432",
"Capacity":"570",
"la":"36.71955400000",
"ln":"139.68442800000"
},
"geometry":{
"type":"Point",
"coordinates":[
139.684428,
36.719554
]
}
},
{
"type":"Feature",
"properties":{
"Name":"今市文化会館（中央公民館）",
"Jusho":"栃木県日光市平ケ崎160",
"Capacity":"650",
"la":"36.72343799910",
"ln":"139.68005000000"
},
"geometry":{
"type":"Point",
"coordinates":[
139.68005,
36.7234379991
]
}
},
{
"type":"Feature",
"properties":{
"Name":"今市保健福祉センター",
"Jusho":"栃木県日光市平ケ崎109",
"Capacity":"1049",
"la":"36.72103200000",
"ln":"139.68416500000"
},
"geometry":{
"type":"Point",
"coordinates":[
139.684165,
36.721032
]
}
},
{
"type":"Feature",
"properties":{
"Name":"三依保育園",
"Jusho":"栃木県日光市中三依321",
"Capacity":"128",
"la":"36.98438700000",
"ln":"139.69587400000"
},
"geometry":{
"type":"Point",
"coordinates":[
139.695874,
36.984387
]
}
},
{
"type":"Feature",
"properties":{
"Name":"自由ケ丘市営住宅集会所",
"Jusho":"栃木県日光市鬼怒川温泉大原170-2",
"Capacity":"25",
"la":"36.80754814000",
"ln":"139.71031155300"
},
"geometry":{
"type":"Point",
"coordinates":[
139.710311553,
36.80754814
]
}
},
{
"type":"Feature",
"properties":{
"Name":"自由ケ丘自治公民館",
"Jusho":"栃木県日光市鬼怒川温泉大原35－",
"Capacity":"40",
"la":"36.80043500000",
"ln":"139.70736800000"
},
"geometry":{
"type":"Point",
"coordinates":[
139.707368,
36.800435
]
}
},
{
"type":"Feature",
"properties":{
"Name":"釈迦ケ岳自治公民館",
"Jusho":"栃木県日光市藤原1845",
"Capacity":"10",
"la":"36.85594904550",
"ln":"139.76341653600"
},
"geometry":{
"type":"Point",
"coordinates":[
139.763416536,
36.8559490455
]
}
},
{
"type":"Feature",
"properties":{
"Name":"所野コミュニティセンター",
"Jusho":"栃木県日光市所野2832-2",
"Capacity":"138",
"la":"36.74823500000",
"ln":"139.62944100000"
},
"geometry":{
"type":"Point",
"coordinates":[
139.629441,
36.748235
]
}
},
{
"type":"Feature",
"properties":{
"Name":"所野保育園",
"Jusho":"栃木県日光市所野689-8",
"Capacity":"117",
"la":"36.74782800000",
"ln":"139.63898700000"
},
"geometry":{
"type":"Point",
"coordinates":[
139.638987,
36.747828
]
}
},
{
"type":"Feature",
"properties":{
"Name":"女性サポートセンター",
"Jusho":"栃木県日光市清滝桜ケ丘町210-7",
"Capacity":"575",
"la":"36.73729014940",
"ln":"139.56146617400"
},
"geometry":{
"type":"Point",
"coordinates":[
139.561466174,
36.7372901494
]
}
},
{
"type":"Feature",
"properties":{
"Name":"小穴集会所",
"Jusho":"栃木県日光市日向409－",
"Capacity":"35",
"la":"36.88926600000",
"ln":"139.65039600000"
},
"geometry":{
"type":"Point",
"coordinates":[
139.650396,
36.889266
]
}
},
{
"type":"Feature",
"properties":{
"Name":"小原地区多目的集会所",
"Jusho":"栃木県日光市藤原128",
"Capacity":"95",
"la":"36.84536000000",
"ln":"139.72789400000"
},
"geometry":{
"type":"Point",
"coordinates":[
139.727894,
36.84536
]
}
},
{
"type":"Feature",
"properties":{
"Name":"小来川保育園",
"Jusho":"栃木県日光市中小来川2612-2",
"Capacity":"55",
"la":"36.66175400000",
"ln":"139.62332500000"
},
"geometry":{
"type":"Point",
"coordinates":[
139.623325,
36.661754
]
}
},
{
"type":"Feature",
"properties":{
"Name":"上栗山集会所",
"Jusho":"栃木県日光市上栗山197-31",
"Capacity":"98",
"la":"36.86505100000",
"ln":"139.58389800000"
},
"geometry":{
"type":"Point",
"coordinates":[
139.583898,
36.865051
]
}
},
{
"type":"Feature",
"properties":{
"Name":"上三依自治公民館",
"Jusho":"栃木県日光市上三依276－",
"Capacity":"68",
"la":"37.01184699910",
"ln":"139.72661400000"
},
"geometry":{
"type":"Point",
"coordinates":[
139.726614,
37.0118469991
]
}
},
{
"type":"Feature",
"properties":{
"Name":"清滝保育園",
"Jusho":"栃木県日光市清滝二丁目9-37",
"Capacity":"94",
"la":"36.73507700000",
"ln":"139.55591200000"
},
"geometry":{
"type":"Point",
"coordinates":[
139.555912,
36.735077
]
}
},
{
"type":"Feature",
"properties":{
"Name":"西川集会所",
"Jusho":"栃木県日光市西川115－3",
"Capacity":"99",
"la":"36.93221726240",
"ln":"139.68046719200"
},
"geometry":{
"type":"Point",
"coordinates":[
139.680467192,
36.9322172624
]
}
},
{
"type":"Feature",
"properties":{
"Name":"赤倉集会所",
"Jusho":"栃木県日光市足尾町赤倉8-8",
"Capacity":"44",
"la":"36.66618900000",
"ln":"139.44582800000"
},
"geometry":{
"type":"Point",
"coordinates":[
139.445828,
36.666189
]
}
},
{
"type":"Feature",
"properties":{
"Name":"川俣公民館",
"Jusho":"栃木県日光市川俣805",
"Capacity":"211",
"la":"36.87265700000",
"ln":"139.50623900000"
},
"geometry":{
"type":"Point",
"coordinates":[
139.506239,
36.872657
]
}
},
{
"type":"Feature",
"properties":{
"Name":"川俣集会所",
"Jusho":"栃木県日光市川俣963",
"Capacity":"131",
"la":"36.87328900000",
"ln":"139.50578800000"
},
"geometry":{
"type":"Point",
"coordinates":[
139.505788,
36.873289
]
}
},
{
"type":"Feature",
"properties":{
"Name":"足尾市民センター",
"Jusho":"栃木県日光市足尾町通洞9－",
"Capacity":"848",
"la":"36.63320700000",
"ln":"139.43988300000"
},
"geometry":{
"type":"Point",
"coordinates":[
139.439883,
36.633207
]
}
},
{
"type":"Feature",
"properties":{
"Name":"体験農業交流センター",
"Jusho":"栃木県日光市湯西川1156",
"Capacity":"458",
"la":"36.96177395560",
"ln":"139.58385183400"
},
"geometry":{
"type":"Point",
"coordinates":[
139.583851834,
36.9617739556
]
}
},
{
"type":"Feature",
"properties":{
"Name":"大王集会所",
"Jusho":"栃木県日光市日向1477",
"Capacity":"32",
"la":"36.87846000000",
"ln":"139.64712000000"
},
"geometry":{
"type":"Point",
"coordinates":[
139.64712,
36.87846
]
}
},
{
"type":"Feature",
"properties":{
"Name":"大原市営住宅集会所",
"Jusho":"栃木県日光市鬼怒川温泉大原1286",
"Capacity":"48",
"la":"36.81389800000",
"ln":"139.71498600000"
},
"geometry":{
"type":"Point",
"coordinates":[
139.714986,
36.813898
]
}
},
{
"type":"Feature",
"properties":{
"Name":"土呂部集会所",
"Jusho":"栃木県日光市土呂部93",
"Capacity":"97",
"la":"36.89303900000",
"ln":"139.56953300000"
},
"geometry":{
"type":"Point",
"coordinates":[
139.569533,
36.893039
]
}
},
{
"type":"Feature",
"properties":{
"Name":"唐風呂集会所",
"Jusho":"栃木県日光市足尾町3435－",
"Capacity":"27",
"la":"36.61591200000",
"ln":"139.41063100000"
},
"geometry":{
"type":"Point",
"coordinates":[
139.410631,
36.615912
]
}
},
{
"type":"Feature",
"properties":{
"Name":"湯西川下地区集会所",
"Jusho":"栃木県日光市湯西川168-7",
"Capacity":"169",
"la":"36.96689300000",
"ln":"139.61243400000"
},
"geometry":{
"type":"Point",
"coordinates":[
139.612434,
36.966893
]
}
},
{
"type":"Feature",
"properties":{
"Name":"湯西川上集会所",
"Jusho":"栃木県日光市湯西川1431",
"Capacity":"65",
"la":"36.96163100000",
"ln":"139.57839900000"
},
"geometry":{
"type":"Point",
"coordinates":[
139.578399,
36.961631
]
}
},
{
"type":"Feature",
"properties":{
"Name":"藤原総合文化会館",
"Jusho":"栃木県日光市鬼怒川温泉大原1404－",
"Capacity":"1579",
"la":"36.82359800000",
"ln":"139.71547600000"
},
"geometry":{
"type":"Point",
"coordinates":[
139.715476,
36.823598
]
}
},
{
"type":"Feature",
"properties":{
"Name":"藤原地区集会所",
"Jusho":"栃木県日光市藤原419",
"Capacity":"110",
"la":"36.85489800000",
"ln":"139.73269900000"
},
"geometry":{
"type":"Point",
"coordinates":[
139.732699,
36.854898
]
}
},
{
"type":"Feature",
"properties":{
"Name":"藤原保育園",
"Jusho":"栃木県日光市藤原419",
"Capacity":"138",
"la":"36.85477567220",
"ln":"139.73249587000"
},
"geometry":{
"type":"Point",
"coordinates":[
139.73249587,
36.8547756722
]
}
},
{
"type":"Feature",
"properties":{
"Name":"藤原保健センター",
"Jusho":"栃木県日光市藤原19",
"Capacity":"327",
"la":"36.84228478810",
"ln":"139.72381979200"
},
"geometry":{
"type":"Point",
"coordinates":[
139.723819792,
36.8422847881
]
}
},
{
"type":"Feature",
"properties":{
"Name":"独鈷沢自治公民館",
"Jusho":"栃木県日光市独鈷沢地内",
"Capacity":"30",
"la":"36.97788139170",
"ln":"139.69077042000"
},
"geometry":{
"type":"Point",
"coordinates":[
139.69077042,
36.9778813917
]
}
},
{
"type":"Feature",
"properties":{
"Name":"南橋集会所",
"Jusho":"栃木県日光市足尾町南橋2-6",
"Capacity":"33",
"la":"36.66272000000",
"ln":"139.44500900000"
},
"geometry":{
"type":"Point",
"coordinates":[
139.445009,
36.66272
]
}
},
{
"type":"Feature",
"properties":{
"Name":"南原コミュニティセンター（南原出張所）",
"Jusho":"栃木県日光市土沢2086",
"Capacity":"132",
"la":"36.68933200000",
"ln":"139.73192000000"
},
"geometry":{
"type":"Point",
"coordinates":[
139.73192,
36.689332
]
}
},
{
"type":"Feature",
"properties":{
"Name":"二宮神社（神社会館）",
"Jusho":"栃木県日光市今市743",
"Capacity":"190",
"la":"36.72519100000",
"ln":"139.68912200000"
},
"geometry":{
"type":"Point",
"coordinates":[
139.689122,
36.725191
]
}
},
{
"type":"Feature",
"properties":{
"Name":"日光公民館",
"Jusho":"栃木県日光市御幸町4－",
"Capacity":"232",
"la":"36.74850300000",
"ln":"139.61319800000"
},
"geometry":{
"type":"Point",
"coordinates":[
139.613198,
36.748503
]
}
},
{
"type":"Feature",
"properties":{
"Name":"日光総合会館",
"Jusho":"栃木県日光市安川町2-47",
"Capacity":"387",
"la":"36.75316300000",
"ln":"139.59825200000"
},
"geometry":{
"type":"Point",
"coordinates":[
139.598252,
36.753163
]
}
},
{
"type":"Feature",
"properties":{
"Name":"日光体育館",
"Jusho":"栃木県日光市相生町15",
"Capacity":"540",
"la":"36.74539800000",
"ln":"139.62020400000"
},
"geometry":{
"type":"Point",
"coordinates":[
139.620204,
36.745398
]
}
},
{
"type":"Feature",
"properties":{
"Name":"日光福祉保健センター",
"Jusho":"栃木県日光市花石町1942－",
"Capacity":"208",
"la":"36.75193500000",
"ln":"139.58584800000"
},
"geometry":{
"type":"Point",
"coordinates":[
139.585848,
36.751935
]
}
},
{
"type":"Feature",
"properties":{
"Name":"日光保育園",
"Jusho":"栃木県日光市御幸町6－",
"Capacity":"186",
"la":"36.74777200000",
"ln":"139.61298900000"
},
"geometry":{
"type":"Point",
"coordinates":[
139.612989,
36.747772
]
}
},
{
"type":"Feature",
"properties":{
"Name":"日光霧降スケートセンター",
"Jusho":"栃木県日光市所野2854番地先",
"Capacity":"356",
"la":"36.76059593610",
"ln":"139.61009512500"
},
"geometry":{
"type":"Point",
"coordinates":[
139.610095125,
36.7605959361
]
}
},
{
"type":"Feature",
"properties":{
"Name":"日光明峰高等学校",
"Jusho":"栃木県日光市久次良町104",
"Capacity":"860",
"la":"36.75113199910",
"ln":"139.57799300000"
},
"geometry":{
"type":"Point",
"coordinates":[
139.577993,
36.7511319991
]
}
},
{
"type":"Feature",
"properties":{
"Name":"日向集会所",
"Jusho":"栃木県日光市日向579",
"Capacity":"140",
"la":"36.88778800000",
"ln":"139.65242100000"
},
"geometry":{
"type":"Point",
"coordinates":[
139.652421,
36.887788
]
}
},
{
"type":"Feature",
"properties":{
"Name":"柄倉多目的集会所",
"Jusho":"栃木県日光市柄倉261",
"Capacity":"109",
"la":"36.78481300000",
"ln":"139.69649500000"
},
"geometry":{
"type":"Point",
"coordinates":[
139.696495,
36.784813
]
}
},
{
"type":"Feature",
"properties":{
"Name":"木彫りの里工芸センター",
"Jusho":"栃木県日光市所野2848",
"Capacity":"150",
"la":"36.75762459160",
"ln":"139.61489807200"
},
"geometry":{
"type":"Point",
"coordinates":[
139.614898072,
36.7576245916
]
}
},
{
"type":"Feature",
"properties":{
"Name":"餅が瀬集会所",
"Jusho":"栃木県日光市足尾町3792-2",
"Capacity":"45",
"la":"36.62173399910",
"ln":"139.39146000000"
},
"geometry":{
"type":"Point",
"coordinates":[
139.39146,
36.6217339991
]
}
},
{
"type":"Feature",
"properties":{
"Name":"野門集会所",
"Jusho":"栃木県日光市野門191－",
"Capacity":"133",
"la":"36.86152300000",
"ln":"139.52744500000"
},
"geometry":{
"type":"Point",
"coordinates":[
139.527445,
36.861523
]
}
},
{
"type":"Feature",
"properties":{
"Name":"関東職業能力開発大学校",
"Jusho":"栃木県小山市大字横倉612－",
"Capacity":"391",
"la":"36.28221999910",
"ln":"139.83058600000"
},
"geometry":{
"type":"Point",
"coordinates":[
139.830586,
36.2822199991
]
}
},
{
"type":"Feature",
"properties":{
"Name":"勤労青少年ホーム",
"Jusho":"栃木県小山市犬塚3－-2",
"Capacity":"415",
"la":"36.31392500000",
"ln":"139.82728600000"
},
"geometry":{
"type":"Point",
"coordinates":[
139.827286,
36.313925
]
}
},
{
"type":"Feature",
"properties":{
"Name":"小山工業高等専門学校",
"Jusho":"栃木県小山市大字中久喜771",
"Capacity":"553",
"la":"36.31816200000",
"ln":"139.84481900000"
},
"geometry":{
"type":"Point",
"coordinates":[
139.844819,
36.318162
]
}
},
{
"type":"Feature",
"properties":{
"Name":"小山高等学校",
"Jusho":"栃木県小山市若木町2-8-51",
"Capacity":"877",
"la":"36.32815900000",
"ln":"139.80684900000"
},
"geometry":{
"type":"Point",
"coordinates":[
139.806849,
36.328159
]
}
},
{
"type":"Feature",
"properties":{
"Name":"小山市立文化センター",
"Jusho":"栃木県小山市中央町1－－",
"Capacity":"201",
"la":"36.31339099910",
"ln":"139.79988400000"
},
"geometry":{
"type":"Point",
"coordinates":[
139.799884,
36.3133909991
]
}
},
{
"type":"Feature",
"properties":{
"Name":"小山城南高等学校",
"Jusho":"栃木県小山市西城南4-26－",
"Capacity":"1428",
"la":"36.29274600000",
"ln":"139.80284300000"
},
"geometry":{
"type":"Point",
"coordinates":[
139.802843,
36.292746
]
}
},
{
"type":"Feature",
"properties":{
"Name":"小山西高等学校",
"Jusho":"栃木県小山市松沼741",
"Capacity":"1096",
"la":"36.35218300000",
"ln":"139.76887900000"
},
"geometry":{
"type":"Point",
"coordinates":[
139.768879,
36.352183
]
}
},
{
"type":"Feature",
"properties":{
"Name":"小山南高等学校",
"Jusho":"栃木県小山市間々田23－",
"Capacity":"1708",
"la":"36.25855500000",
"ln":"139.78049300000"
},
"geometry":{
"type":"Point",
"coordinates":[
139.780493,
36.258555
]
}
},
{
"type":"Feature",
"properties":{
"Name":"小山北桜高等学校",
"Jusho":"栃木県小山市東山田448-29",
"Capacity":"3182",
"la":"36.35554600000",
"ln":"139.86559400000"
},
"geometry":{
"type":"Point",
"coordinates":[
139.865594,
36.355546
]
}
},
{
"type":"Feature",
"properties":{
"Name":"白鴎大学東キャンパス",
"Jusho":"栃木県小山市駅東通り2-2-2",
"Capacity":"320",
"la":"36.31191500000",
"ln":"139.80789800000"
},
"geometry":{
"type":"Point",
"coordinates":[
139.807898,
36.311915
]
}
},
{
"type":"Feature",
"properties":{
"Name":"白鴎大学本校舎",
"Jusho":"栃木県小山市大字大行寺1117",
"Capacity":"738",
"la":"36.31504799910",
"ln":"139.79293400000"
},
"geometry":{
"type":"Point",
"coordinates":[
139.792934,
36.3150479991
]
}
},
{
"type":"Feature",
"properties":{
"Name":"駅前どんとこい広場",
"Jusho":"栃木県真岡市久下田848-5",
"Capacity":"50",
"la":"36.37535699910",
"ln":"139.97133005000"
},
"geometry":{
"type":"Point",
"coordinates":[
139.97133005,
36.3753569991
]
}
},
{
"type":"Feature",
"properties":{
"Name":"山前農村環境改善センター",
"Jusho":"栃木県真岡市小林935－",
"Capacity":"200",
"la":"36.43217600000",
"ln":"140.04049500000"
},
"geometry":{
"type":"Point",
"coordinates":[
140.040495,
36.432176
]
}
},
{
"type":"Feature",
"properties":{
"Name":"自然教育センター",
"Jusho":"栃木県真岡市柳林1140-2",
"Capacity":"200",
"la":"36.44599300000",
"ln":"139.94981700000"
},
"geometry":{
"type":"Point",
"coordinates":[
139.949817,
36.445993
]
}
},
{
"type":"Feature",
"properties":{
"Name":"真岡勤労者体育センター",
"Jusho":"栃木県真岡市飯貝529",
"Capacity":"200",
"la":"36.47658100000",
"ln":"140.01753500000"
},
"geometry":{
"type":"Point",
"coordinates":[
140.017535,
36.476581
]
}
},
{
"type":"Feature",
"properties":{
"Name":"真岡市公民館",
"Jusho":"栃木県真岡市荒町1201",
"Capacity":"150",
"la":"36.43910300000",
"ln":"140.01681900000"
},
"geometry":{
"type":"Point",
"coordinates":[
140.016819,
36.439103
]
}
},
{
"type":"Feature",
"properties":{
"Name":"真岡市公民館真岡西分館",
"Jusho":"栃木県真岡市西高間木539－",
"Capacity":"100",
"la":"36.44642200000",
"ln":"139.97955600000"
},
"geometry":{
"type":"Point",
"coordinates":[
139.979556,
36.446422
]
}
},
{
"type":"Feature",
"properties":{
"Name":"真岡市総合体育館",
"Jusho":"栃木県真岡市田町1251－",
"Capacity":"600",
"la":"36.43846400000",
"ln":"140.01428900000"
},
"geometry":{
"type":"Point",
"coordinates":[
140.014289,
36.438464
]
}
},
{
"type":"Feature",
"properties":{
"Name":"真岡市附属体育館",
"Jusho":"栃木県真岡市荒町5131",
"Capacity":"200",
"la":"36.44088300000",
"ln":"140.01388600000"
},
"geometry":{
"type":"Point",
"coordinates":[
140.013886,
36.440883
]
}
},
{
"type":"Feature",
"properties":{
"Name":"真岡市武道体育館",
"Jusho":"栃木県真岡市田町1330",
"Capacity":"600",
"la":"36.43711400000",
"ln":"140.01544400000"
},
"geometry":{
"type":"Point",
"coordinates":[
140.015444,
36.437114
]
}
},
{
"type":"Feature",
"properties":{
"Name":"総合福祉保健センター",
"Jusho":"栃木県真岡市荒町110－",
"Capacity":"100",
"la":"36.44040200000",
"ln":"140.01674400000"
},
"geometry":{
"type":"Point",
"coordinates":[
140.016744,
36.440402
]
}
},
{
"type":"Feature",
"properties":{
"Name":"中村農村環境改善センター",
"Jusho":"栃木県真岡市中247",
"Capacity":"200",
"la":"36.42355700000",
"ln":"139.95903400000"
},
"geometry":{
"type":"Point",
"coordinates":[
139.959034,
36.423557
]
}
},
{
"type":"Feature",
"properties":{
"Name":"長沼地域体育館",
"Jusho":"栃木県真岡市砂ヶ原1280",
"Capacity":"200",
"la":"36.38039237740",
"ln":"139.93430189400"
},
"geometry":{
"type":"Point",
"coordinates":[
139.934301894,
36.3803923774
]
}
},
{
"type":"Feature",
"properties":{
"Name":"二宮支所",
"Jusho":"栃木県真岡市石島893－5",
"Capacity":"900",
"la":"36.38690600000",
"ln":"139.96960400000"
},
"geometry":{
"type":"Point",
"coordinates":[
139.969604,
36.386906
]
}
},
{
"type":"Feature",
"properties":{
"Name":"二宮文化会館",
"Jusho":"栃木県真岡市さくら1－5－",
"Capacity":"100",
"la":"36.38603700000",
"ln":"139.96757600000"
},
"geometry":{
"type":"Point",
"coordinates":[
139.967576,
36.386037
]
}
},
{
"type":"Feature",
"properties":{
"Name":"二宮保健センター",
"Jusho":"栃木県真岡市久下田西4-30",
"Capacity":"50",
"la":"36.38008164830",
"ln":"139.96528427600"
},
"geometry":{
"type":"Point",
"coordinates":[
139.965284276,
36.3800816483
]
}
},
{
"type":"Feature",
"properties":{
"Name":"物部会館",
"Jusho":"栃木県真岡市物井4307",
"Capacity":"50",
"la":"36.39913600000",
"ln":"140.00553000000"
},
"geometry":{
"type":"Point",
"coordinates":[
140.00553,
36.399136
]
}
},
{
"type":"Feature",
"properties":{
"Name":"物部地域体育館",
"Jusho":"栃木県真岡市高田2645",
"Capacity":"150",
"la":"36.39551800000",
"ln":"140.02354600000"
},
"geometry":{
"type":"Point",
"coordinates":[
140.023546,
36.395518
]
}
},
{
"type":"Feature",
"properties":{
"Name":"ピアートホール",
"Jusho":"栃木県大田原市堀之内656－",
"Capacity":"1023",
"la":"36.88133000000",
"ln":"140.13022400000"
},
"geometry":{
"type":"Point",
"coordinates":[
140.130224,
36.88133
]
}
},
{
"type":"Feature",
"properties":{
"Name":"ふれあいの丘青少年研修センター",
"Jusho":"栃木県大田原市福原1411-22",
"Capacity":"590",
"la":"36.80093100000",
"ln":"140.04878700000"
},
"geometry":{
"type":"Point",
"coordinates":[
140.048787,
36.800931
]
}
},
{
"type":"Feature",
"properties":{
"Name":"旧黒羽・川西地区公民館",
"Jusho":"栃木県大田原市黒羽向町418-4",
"Capacity":"346",
"la":"36.86046300000",
"ln":"140.11570600000"
},
"geometry":{
"type":"Point",
"coordinates":[
140.115706,
36.860463
]
}
},
{
"type":"Feature",
"properties":{
"Name":"勤労者総合福祉センター",
"Jusho":"栃木県大田原市浅香3-3578-747",
"Capacity":"230",
"la":"36.85603000000",
"ln":"140.01517000000"
},
"geometry":{
"type":"Point",
"coordinates":[
140.01517,
36.85603
]
}
},
{
"type":"Feature",
"properties":{
"Name":"勤労青少年ホーム",
"Jusho":"栃木県大田原市美原1－-4",
"Capacity":"90",
"la":"36.86198500000",
"ln":"140.01559400000"
},
"geometry":{
"type":"Point",
"coordinates":[
140.015594,
36.861985
]
}
},
{
"type":"Feature",
"properties":{
"Name":"金田南地区公民館",
"Jusho":"栃木県大田原市南金丸1870-5",
"Capacity":"249",
"la":"36.85798121110",
"ln":"140.08671708900"
},
"geometry":{
"type":"Point",
"coordinates":[
140.086717089,
36.8579812111
]
}
},
{
"type":"Feature",
"properties":{
"Name":"金田北地区公民館",
"Jusho":"栃木県大田原市市野沢1988－",
"Capacity":"88",
"la":"36.89729100000",
"ln":"140.04808800000"
},
"geometry":{
"type":"Point",
"coordinates":[
140.048088,
36.897291
]
}
},
{
"type":"Feature",
"properties":{
"Name":"県立県北体育館",
"Jusho":"栃木県大田原市美原3-2-62",
"Capacity":"1881",
"la":"36.85960200000",
"ln":"140.00142100000"
},
"geometry":{
"type":"Point",
"coordinates":[
140.001421,
36.859602
]
}
},
{
"type":"Feature",
"properties":{
"Name":"交流促進センター若杉山",
"Jusho":"栃木県大田原市大輪675-22",
"Capacity":"65",
"la":"36.88545900000",
"ln":"140.13103200000"
},
"geometry":{
"type":"Point",
"coordinates":[
140.131032,
36.885459
]
}
},
{
"type":"Feature",
"properties":{
"Name":"黒羽、川西地区公民館",
"Jusho":"栃木県大田原市黒羽田町848",
"Capacity":"92",
"la":"36.86273300000",
"ln":"140.12179100000"
},
"geometry":{
"type":"Point",
"coordinates":[
140.121791,
36.862733
]
}
},
{
"type":"Feature",
"properties":{
"Name":"黒羽高等学校",
"Jusho":"栃木県大田原市前田780",
"Capacity":"933",
"la":"36.86721500000",
"ln":"140.13746500000"
},
"geometry":{
"type":"Point",
"coordinates":[
140.137465,
36.867215
]
}
},
{
"type":"Feature",
"properties":{
"Name":"黒羽体育館",
"Jusho":"栃木県大田原市前田1020",
"Capacity":"991",
"la":"36.87068100000",
"ln":"140.12271100000"
},
"geometry":{
"type":"Point",
"coordinates":[
140.122711,
36.870681
]
}
},
{
"type":"Feature",
"properties":{
"Name":"佐久山地区公民館",
"Jusho":"栃木県大田原市佐久山2287－",
"Capacity":"85",
"la":"36.80541000000",
"ln":"140.01122000000"
},
"geometry":{
"type":"Point",
"coordinates":[
140.01122,
36.80541
]
}
},
{
"type":"Feature",
"properties":{
"Name":"佐良土ほほえみセンター",
"Jusho":"栃木県大田原市佐良土1396",
"Capacity":"156",
"la":"36.79252782820",
"ln":"140.12395821000"
},
"geometry":{
"type":"Point",
"coordinates":[
140.12395821,
36.7925278282
]
}
},
{
"type":"Feature",
"properties":{
"Name":"山村開発センター",
"Jusho":"栃木県大田原市前田1014",
"Capacity":"92",
"la":"36.87058188680",
"ln":"140.12182136200"
},
"geometry":{
"type":"Point",
"coordinates":[
140.121821362,
36.8705818868
]
}
},
{
"type":"Feature",
"properties":{
"Name":"親園農村環境改善センター",
"Jusho":"栃木県大田原市花園1973",
"Capacity":"240",
"la":"36.82647300000",
"ln":"140.03965600000"
},
"geometry":{
"type":"Point",
"coordinates":[
140.039656,
36.826473
]
}
},
{
"type":"Feature",
"properties":{
"Name":"川上健康増進センター",
"Jusho":"栃木県大田原市川上184",
"Capacity":"258",
"la":"36.88237470270",
"ln":"140.21746507500"
},
"geometry":{
"type":"Point",
"coordinates":[
140.217465075,
36.8823747027
]
}
},
{
"type":"Feature",
"properties":{
"Name":"大田原体育館・武道館",
"Jusho":"栃木県大田原市本町1－－",
"Capacity":"728",
"la":"36.86996800000",
"ln":"140.01804600000"
},
"geometry":{
"type":"Point",
"coordinates":[
140.018046,
36.869968
]
}
},
{
"type":"Feature",
"properties":{
"Name":"大田原高等学校",
"Jusho":"栃木県大田原市紫塚3-2651",
"Capacity":"634",
"la":"36.87651700000",
"ln":"140.01752900000"
},
"geometry":{
"type":"Point",
"coordinates":[
140.017529,
36.876517
]
}
},
{
"type":"Feature",
"properties":{
"Name":"大田原女子高等学校",
"Jusho":"栃木県大田原市元町1-5-43",
"Capacity":"530",
"la":"36.86215800000",
"ln":"140.03316800000"
},
"geometry":{
"type":"Point",
"coordinates":[
140.033168,
36.862158
]
}
},
{
"type":"Feature",
"properties":{
"Name":"大田原東地区公民館",
"Jusho":"栃木県大田原市若草1－287－",
"Capacity":"96",
"la":"36.85378400000",
"ln":"140.04003800000"
},
"geometry":{
"type":"Point",
"coordinates":[
140.040038,
36.853784
]
}
},
{
"type":"Feature",
"properties":{
"Name":"湯津上農村環境改善センター",
"Jusho":"栃木県大田原市湯津上5-776",
"Capacity":"465",
"la":"36.82200400000",
"ln":"140.10469000000"
},
"geometry":{
"type":"Point",
"coordinates":[
140.10469,
36.822004
]
}
},
{
"type":"Feature",
"properties":{
"Name":"野崎研修センター",
"Jusho":"栃木県大田原市下石上1695-8",
"Capacity":"88",
"la":"36.84885400000",
"ln":"139.95451300000"
},
"geometry":{
"type":"Point",
"coordinates":[
139.954513,
36.848854
]
}
},
{
"type":"Feature",
"properties":{
"Name":"両郷地区コミュニティーセンター",
"Jusho":"栃木県大田原市中野内773",
"Capacity":"65",
"la":"36.91797200000",
"ln":"140.15231300000"
},
"geometry":{
"type":"Point",
"coordinates":[
140.152313,
36.917972
]
}
},
{
"type":"Feature",
"properties":{
"Name":"生涯学習館",
"Jusho":"栃木県矢板市矢板103－",
"Capacity":"227",
"la":"36.80509700000",
"ln":"139.92229900000"
},
"geometry":{
"type":"Point",
"coordinates":[
139.922299,
36.805097
]
}
},
{
"type":"Feature",
"properties":{
"Name":"農村環境改善センター",
"Jusho":"栃木県矢板市沢783",
"Capacity":"186",
"la":"36.82253300000",
"ln":"139.95817500000"
},
"geometry":{
"type":"Point",
"coordinates":[
139.958175,
36.822533
]
}
},
{
"type":"Feature",
"properties":{
"Name":"矢板市コミュニティホール",
"Jusho":"栃木県矢板市片岡2098-3",
"Capacity":"209",
"la":"36.75688700000",
"ln":"139.94679300000"
},
"geometry":{
"type":"Point",
"coordinates":[
139.946793,
36.756887
]
}
},
{
"type":"Feature",
"properties":{
"Name":"矢板市泉公民館",
"Jusho":"栃木県矢板市泉428",
"Capacity":"145",
"la":"36.84313700000",
"ln":"139.90982000000"
},
"geometry":{
"type":"Point",
"coordinates":[
139.90982,
36.843137
]
}
},
{
"type":"Feature",
"properties":{
"Name":"矢板市体育館",
"Jusho":"栃木県矢板市本町5-4",
"Capacity":"840",
"la":"36.80621400000",
"ln":"139.92396000000"
},
"geometry":{
"type":"Point",
"coordinates":[
139.92396,
36.806214
]
}
},
{
"type":"Feature",
"properties":{
"Name":"矢板市農業者トレーニングセンター",
"Jusho":"栃木県矢板市片岡1143－",
"Capacity":"618",
"la":"36.76393268760",
"ln":"139.94131192800"
},
"geometry":{
"type":"Point",
"coordinates":[
139.941311928,
36.7639326876
]
}
},
{
"type":"Feature",
"properties":{
"Name":"矢板中央高校",
"Jusho":"栃木県矢板市扇町2－519",
"Capacity":"801",
"la":"36.81579900000",
"ln":"139.92870800000"
},
"geometry":{
"type":"Point",
"coordinates":[
139.928708,
36.815799
]
}
},
{
"type":"Feature",
"properties":{
"Name":"矢板東高校",
"Jusho":"栃木県矢板市東町4-8",
"Capacity":"791",
"la":"36.80149500000",
"ln":"139.93837500000"
},
"geometry":{
"type":"Point",
"coordinates":[
139.938375,
36.801495
]
}
},
{
"type":"Feature",
"properties":{
"Name":"いきいきふれあいセンター",
"Jusho":"栃木県那須塩原市桜町1-5",
"Capacity":"500",
"la":"36.97562200000",
"ln":"140.05179600000"
},
"geometry":{
"type":"Point",
"coordinates":[
140.051796,
36.975622
]
}
},
{
"type":"Feature",
"properties":{
"Name":"くろいそ運動場武道館",
"Jusho":"栃木県那須塩原市上厚崎664",
"Capacity":"510",
"la":"36.95958800000",
"ln":"140.03161600000"
},
"geometry":{
"type":"Point",
"coordinates":[
140.031616,
36.959588
]
}
},
{
"type":"Feature",
"properties":{
"Name":"シニアセンター",
"Jusho":"栃木県那須塩原市鍋掛1429-34",
"Capacity":"50",
"la":"36.95376000000",
"ln":"140.07239500000"
},
"geometry":{
"type":"Point",
"coordinates":[
140.072395,
36.95376
]
}
},
{
"type":"Feature",
"properties":{
"Name":"とようら公民館",
"Jusho":"栃木県那須塩原市東豊浦23－10",
"Capacity":"86",
"la":"36.96693700000",
"ln":"140.06123100000"
},
"geometry":{
"type":"Point",
"coordinates":[
140.061231,
36.966937
]
}
},
{
"type":"Feature",
"properties":{
"Name":"ハロープラザ",
"Jusho":"栃木県那須塩原市関谷1266-4",
"Capacity":"550",
"la":"36.94505300000",
"ln":"139.89646700000"
},
"geometry":{
"type":"Point",
"coordinates":[
139.896467,
36.945053
]
}
},
{
"type":"Feature",
"properties":{
"Name":"稲村公民館",
"Jusho":"栃木県那須塩原市埼玉8－20",
"Capacity":"110",
"la":"36.97686500000",
"ln":"140.02933600000"
},
"geometry":{
"type":"Point",
"coordinates":[
140.029336,
36.976865
]
}
},
{
"type":"Feature",
"properties":{
"Name":"塩原公民館",
"Jusho":"栃木県那須塩原市中塩原1-2",
"Capacity":"41",
"la":"36.97765800000",
"ln":"139.80949200000"
},
"geometry":{
"type":"Point",
"coordinates":[
139.809492,
36.977658
]
}
},
{
"type":"Feature",
"properties":{
"Name":"健康長寿センター",
"Jusho":"栃木県那須塩原市南郷屋5－63",
"Capacity":"250",
"la":"36.89735400000",
"ln":"139.98804600000"
},
"geometry":{
"type":"Point",
"coordinates":[
139.988046,
36.897354
]
}
},
{
"type":"Feature",
"properties":{
"Name":"厚崎公民館",
"Jusho":"栃木県那須塩原市上厚崎500－",
"Capacity":"130",
"la":"36.95114700000",
"ln":"140.03341000000"
},
"geometry":{
"type":"Point",
"coordinates":[
140.03341,
36.951147
]
}
},
{
"type":"Feature",
"properties":{
"Name":"高林公民館",
"Jusho":"栃木県那須塩原市箭坪347－",
"Capacity":"133",
"la":"37.00627670580",
"ln":"139.94572969300"
},
"geometry":{
"type":"Point",
"coordinates":[
139.945729693,
37.0062767058
]
}
},
{
"type":"Feature",
"properties":{
"Name":"黒磯文化会館",
"Jusho":"栃木県那須塩原市上厚崎490",
"Capacity":"700",
"la":"36.95188800000",
"ln":"140.03246400000"
},
"geometry":{
"type":"Point",
"coordinates":[
140.032464,
36.951888
]
}
},
{
"type":"Feature",
"properties":{
"Name":"三島公民館",
"Jusho":"栃木県那須塩原市東三島6-337",
"Capacity":"200",
"la":"36.90348390450",
"ln":"139.97169151600"
},
"geometry":{
"type":"Point",
"coordinates":[
139.971691516,
36.9034839045
]
}
},
{
"type":"Feature",
"properties":{
"Name":"三島体育センター",
"Jusho":"栃木県那須塩原市三島5－番地内",
"Capacity":"600",
"la":"36.90076300000",
"ln":"139.96868900000"
},
"geometry":{
"type":"Point",
"coordinates":[
139.968689,
36.900763
]
}
},
{
"type":"Feature",
"properties":{
"Name":"狩野公民館",
"Jusho":"栃木県那須塩原市槻沢231",
"Capacity":"200",
"la":"36.90528600000",
"ln":"139.99975200000"
},
"geometry":{
"type":"Point",
"coordinates":[
139.999752,
36.905286
]
}
},
{
"type":"Feature",
"properties":{
"Name":"宿泊体験館メープル",
"Jusho":"栃木県那須塩原市上塩原58",
"Capacity":"－",
"la":"36.98109450670",
"ln":"139.79267927600"
},
"geometry":{
"type":"Point",
"coordinates":[
139.792679276,
36.9810945067
]
}
},
{
"type":"Feature",
"properties":{
"Name":"新湯地区公民館",
"Jusho":"栃木県那須塩原市湯本塩原177－",
"Capacity":"540",
"la":"36.95503200000",
"ln":"139.77488000000"
},
"geometry":{
"type":"Point",
"coordinates":[
139.77488,
36.955032
]
}
},
{
"type":"Feature",
"properties":{
"Name":"西公民館",
"Jusho":"栃木県那須塩原市四区町661",
"Capacity":"220",
"la":"36.89561500000",
"ln":"139.95340800000"
},
"geometry":{
"type":"Point",
"coordinates":[
139.953408,
36.895615
]
}
},
{
"type":"Feature",
"properties":{
"Name":"西那須野公民館",
"Jusho":"栃木県那須塩原市太夫塚1－94-78",
"Capacity":"225",
"la":"36.88470900000",
"ln":"139.97674800000"
},
"geometry":{
"type":"Point",
"coordinates":[
139.976748,
36.884709
]
}
},
{
"type":"Feature",
"properties":{
"Name":"西那須野庁舎前広場",
"Jusho":"栃木県那須塩原市あたご町2-3",
"Capacity":"100",
"la":"36.88191843690",
"ln":"139.98335284300"
},
"geometry":{
"type":"Point",
"coordinates":[
139.983352843,
36.8819184369
]
}
},
{
"type":"Feature",
"properties":{
"Name":"大山公民館",
"Jusho":"栃木県那須塩原市下永田8-7-86",
"Capacity":"200",
"la":"36.87316500000",
"ln":"140.00210100000"
},
"geometry":{
"type":"Point",
"coordinates":[
140.002101,
36.873165
]
}
},
{
"type":"Feature",
"properties":{
"Name":"東那須野公民館",
"Jusho":"栃木県那須塩原市東小屋474－1",
"Capacity":"165",
"la":"36.93060200000",
"ln":"140.02417300000"
},
"geometry":{
"type":"Point",
"coordinates":[
140.024173,
36.930602
]
}
},
{
"type":"Feature",
"properties":{
"Name":"那須清峰高等学校",
"Jusho":"栃木県那須塩原市下永田6-4",
"Capacity":"720",
"la":"36.87582200000",
"ln":"139.99930900000"
},
"geometry":{
"type":"Point",
"coordinates":[
139.999309,
36.875822
]
}
},
{
"type":"Feature",
"properties":{
"Name":"那須拓陽高等学校",
"Jusho":"栃木県那須塩原市下永田4-3-52",
"Capacity":"750",
"la":"36.87976500000",
"ln":"139.98792100000"
},
"geometry":{
"type":"Point",
"coordinates":[
139.987921,
36.879765
]
}
},
{
"type":"Feature",
"properties":{
"Name":"南公民館",
"Jusho":"栃木県那須塩原市二区町401",
"Capacity":"230",
"la":"36.85493664620",
"ln":"139.96968334800"
},
"geometry":{
"type":"Point",
"coordinates":[
139.969683348,
36.8549366462
]
}
},
{
"type":"Feature",
"properties":{
"Name":"箒根公民館",
"Jusho":"栃木県那須塩原市関谷59-4",
"Capacity":"290",
"la":"36.94906100000",
"ln":"139.89871700000"
},
"geometry":{
"type":"Point",
"coordinates":[
139.898717,
36.949061
]
}
},
{
"type":"Feature",
"properties":{
"Name":"２号鬼怒グリーンパーク",
"Jusho":"栃木県さくら市上阿久津字川岸",
"Capacity":"18500",
"la":"36.61778727910",
"ln":"139.97213232000"
},
"geometry":{
"type":"Point",
"coordinates":[
139.97213232,
36.6177872791
]
}
},
{
"type":"Feature",
"properties":{
"Name":"あおぞら保育園",
"Jusho":"栃木県さくら市草川42",
"Capacity":"250",
"la":"36.68181500000",
"ln":"139.95437800000"
},
"geometry":{
"type":"Point",
"coordinates":[
139.954378,
36.681815
]
}
},
{
"type":"Feature",
"properties":{
"Name":"かんぽの宿栃木県喜連川温泉",
"Jusho":"栃木県さくら市喜連川5296－",
"Capacity":"560",
"la":"36.72116600000",
"ln":"140.01306600000"
},
"geometry":{
"type":"Point",
"coordinates":[
140.013066,
36.721166
]
}
},
{
"type":"Feature",
"properties":{
"Name":"さくら清修高等学校",
"Jusho":"栃木県さくら市氏家2807",
"Capacity":"2400",
"la":"36.68898100000",
"ln":"139.96554400000"
},
"geometry":{
"type":"Point",
"coordinates":[
139.965544,
36.688981
]
}
},
{
"type":"Feature",
"properties":{
"Name":"たいよう保育園",
"Jusho":"栃木県さくら市松山796",
"Capacity":"230",
"la":"36.70009000000",
"ln":"140.00118300000"
},
"geometry":{
"type":"Point",
"coordinates":[
140.001183,
36.70009
]
}
},
{
"type":"Feature",
"properties":{
"Name":"ふれあい保育園",
"Jusho":"栃木県さくら市氏家3263-5",
"Capacity":"80",
"la":"36.70584236360",
"ln":"139.96241523500"
},
"geometry":{
"type":"Point",
"coordinates":[
139.962415235,
36.7058423636
]
}
},
{
"type":"Feature",
"properties":{
"Name":"わくわく保育園",
"Jusho":"栃木県さくら市喜連川837－",
"Capacity":"200",
"la":"36.72257010400",
"ln":"140.03092600300"
},
"geometry":{
"type":"Point",
"coordinates":[
140.030926003,
36.722570104
]
}
},
{
"type":"Feature",
"properties":{
"Name":"葛城公民館",
"Jusho":"栃木県さくら市葛城1455－",
"Capacity":"20",
"la":"36.70572066350",
"ln":"140.03824147200"
},
"geometry":{
"type":"Point",
"coordinates":[
140.038241472,
36.7057206635
]
}
},
{
"type":"Feature",
"properties":{
"Name":"喜連川運動場",
"Jusho":"栃木県さくら市喜連川886",
"Capacity":"2500",
"la":"36.72373336990",
"ln":"140.02974912700"
},
"geometry":{
"type":"Point",
"coordinates":[
140.029749127,
36.7237333699
]
}
},
{
"type":"Feature",
"properties":{
"Name":"喜連川保健センター",
"Jusho":"栃木県さくら市喜連川807-8",
"Capacity":"190",
"la":"36.72310100000",
"ln":"140.03084700000"
},
"geometry":{
"type":"Point",
"coordinates":[
140.030847,
36.723101
]
}
},
{
"type":"Feature",
"properties":{
"Name":"氏家公民館",
"Jusho":"栃木県さくら市桜野1322-8",
"Capacity":"600",
"la":"36.68502364370",
"ln":"139.96840297300"
},
"geometry":{
"type":"Point",
"coordinates":[
139.968402973,
36.6850236437
]
}
},
{
"type":"Feature",
"properties":{
"Name":"氏家図書館",
"Jusho":"栃木県さくら市桜野1321",
"Capacity":"210",
"la":"36.68491200000",
"ln":"139.96773900000"
},
"geometry":{
"type":"Point",
"coordinates":[
139.967739,
36.684912
]
}
},
{
"type":"Feature",
"properties":{
"Name":"氏家体育館",
"Jusho":"栃木県さくら市氏家2730",
"Capacity":"720",
"la":"36.68605700000",
"ln":"139.96882200000"
},
"geometry":{
"type":"Point",
"coordinates":[
139.968822,
36.686057
]
}
},
{
"type":"Feature",
"properties":{
"Name":"氏家福祉センター",
"Jusho":"栃木県さくら市桜野1329",
"Capacity":"150",
"la":"36.68659600000",
"ln":"139.97028100000"
},
"geometry":{
"type":"Point",
"coordinates":[
139.970281,
36.686596
]
}
},
{
"type":"Feature",
"properties":{
"Name":"氏家保健センター",
"Jusho":"栃木県さくら市桜野1319-3",
"Capacity":"150",
"la":"36.68450252820",
"ln":"139.96754575400"
},
"geometry":{
"type":"Point",
"coordinates":[
139.967545754,
36.6845025282
]
}
},
{
"type":"Feature",
"properties":{
"Name":"女性アグリセンター",
"Jusho":"栃木県さくら市箱森新田157",
"Capacity":"90",
"la":"36.71600100000",
"ln":"139.96888200000"
},
"geometry":{
"type":"Point",
"coordinates":[
139.968882,
36.716001
]
}
},
{
"type":"Feature",
"properties":{
"Name":"松田公民館",
"Jusho":"栃木県さくら市喜連川2489－",
"Capacity":"50",
"la":"36.73755336140",
"ln":"140.00896407700"
},
"geometry":{
"type":"Point",
"coordinates":[
140.008964077,
36.7375533614
]
}
},
{
"type":"Feature",
"properties":{
"Name":"西河原公民館",
"Jusho":"栃木県さくら市喜連川4392",
"Capacity":"20",
"la":"36.73350722210",
"ln":"140.00289544400"
},
"geometry":{
"type":"Point",
"coordinates":[
140.002895444,
36.7335072221
]
}
},
{
"type":"Feature",
"properties":{
"Name":"曽根田公民館",
"Jusho":"栃木県さくら市下河戸328-2",
"Capacity":"30",
"la":"36.75994100000",
"ln":"140.01884700000"
},
"geometry":{
"type":"Point",
"coordinates":[
140.018847,
36.759941
]
}
},
{
"type":"Feature",
"properties":{
"Name":"早乙女公民館",
"Jusho":"栃木県さくら市早乙女860",
"Capacity":"30",
"la":"36.71530600000",
"ln":"140.00673100000"
},
"geometry":{
"type":"Point",
"coordinates":[
140.006731,
36.715306
]
}
},
{
"type":"Feature",
"properties":{
"Name":"道の駅きつれがわ",
"Jusho":"栃木県さくら市喜連川4145－0",
"Capacity":"230",
"la":"36.71535134140",
"ln":"140.03251121800"
},
"geometry":{
"type":"Point",
"coordinates":[
140.032511218,
36.7153513414
]
}
},
{
"type":"Feature",
"properties":{
"Name":"すくすく保育園",
"Jusho":"栃木県那須烏山市野上703",
"Capacity":"800",
"la":"36.63490449670",
"ln":"140.15106794600"
},
"geometry":{
"type":"Point",
"coordinates":[
140.151067946,
36.6349044967
]
}
},
{
"type":"Feature",
"properties":{
"Name":"やまびこの湯",
"Jusho":"栃木県那須烏山市横枕473－",
"Capacity":"80",
"la":"36.64534166410",
"ln":"140.20701604100"
},
"geometry":{
"type":"Point",
"coordinates":[
140.207016041,
36.6453416641
]
}
},
{
"type":"Feature",
"properties":{
"Name":"烏山高校",
"Jusho":"栃木県那須烏山市中央3-9-8",
"Capacity":"2000",
"la":"36.66396200000",
"ln":"140.15286100000"
},
"geometry":{
"type":"Point",
"coordinates":[
140.152861,
36.663962
]
}
},
{
"type":"Feature",
"properties":{
"Name":"旧烏山女子高校",
"Jusho":"栃木県那須烏山市金井1-4-23",
"Capacity":"1500",
"la":"36.65424100000",
"ln":"140.15038900000"
},
"geometry":{
"type":"Point",
"coordinates":[
140.150389,
36.654241
]
}
},
{
"type":"Feature",
"properties":{
"Name":"境公民館",
"Jusho":"栃木県那須烏山市上境290－",
"Capacity":"100",
"la":"36.64947400000",
"ln":"140.17336100000"
},
"geometry":{
"type":"Point",
"coordinates":[
140.173361,
36.649474
]
}
},
{
"type":"Feature",
"properties":{
"Name":"境保育園",
"Jusho":"栃木県那須烏山市下境1165",
"Capacity":"50",
"la":"36.62327200000",
"ln":"140.17300000000"
},
"geometry":{
"type":"Point",
"coordinates":[
140.173,
36.623272
]
}
},
{
"type":"Feature",
"properties":{
"Name":"曲畑公民館",
"Jusho":"栃木県那須烏山市曲畑452－",
"Capacity":"600",
"la":"36.61387800000",
"ln":"140.08517100000"
},
"geometry":{
"type":"Point",
"coordinates":[
140.085171,
36.613878
]
}
},
{
"type":"Feature",
"properties":{
"Name":"熊田西公民館",
"Jusho":"栃木県那須烏山市熊田555",
"Capacity":"1000",
"la":"36.68245176520",
"ln":"140.11281222500"
},
"geometry":{
"type":"Point",
"coordinates":[
140.112812225,
36.6824517652
]
}
},
{
"type":"Feature",
"properties":{
"Name":"鴻野山公民館",
"Jusho":"栃木県那須烏山市鴻野山601",
"Capacity":"1900",
"la":"36.67139100000",
"ln":"140.04827000000"
},
"geometry":{
"type":"Point",
"coordinates":[
140.04827,
36.671391
]
}
},
{
"type":"Feature",
"properties":{
"Name":"三箇地区公民館",
"Jusho":"栃木県那須烏山市三箇1258",
"Capacity":"900",
"la":"36.69219500000",
"ln":"140.06572600000"
},
"geometry":{
"type":"Point",
"coordinates":[
140.065726,
36.692195
]
}
},
{
"type":"Feature",
"properties":{
"Name":"山あげ会館",
"Jusho":"栃木県那須烏山市金井2-5-26",
"Capacity":"100",
"la":"36.65378700000",
"ln":"140.15473400000"
},
"geometry":{
"type":"Point",
"coordinates":[
140.154734,
36.653787
]
}
},
{
"type":"Feature",
"properties":{
"Name":"志鳥地区公民館",
"Jusho":"栃木県那須烏山市志鳥930",
"Capacity":"1200",
"la":"36.71809200000",
"ln":"140.10487100000"
},
"geometry":{
"type":"Point",
"coordinates":[
140.104871,
36.718092
]
}
},
{
"type":"Feature",
"properties":{
"Name":"七合公民館",
"Jusho":"栃木県那須烏山市大桶928－0",
"Capacity":"100",
"la":"36.69956800000",
"ln":"140.15518700000"
},
"geometry":{
"type":"Point",
"coordinates":[
140.155187,
36.699568
]
}
},
{
"type":"Feature",
"properties":{
"Name":"神長公民館",
"Jusho":"栃木県那須烏山市神長760",
"Capacity":"50",
"la":"36.65726780210",
"ln":"140.13696634800"
},
"geometry":{
"type":"Point",
"coordinates":[
140.136966348,
36.6572678021
]
}
},
{
"type":"Feature",
"properties":{
"Name":"藤田公民館",
"Jusho":"栃木県那須烏山市藤田784－",
"Capacity":"700",
"la":"36.68048000000",
"ln":"140.08704700000"
},
"geometry":{
"type":"Point",
"coordinates":[
140.087047,
36.68048
]
}
},
{
"type":"Feature",
"properties":{
"Name":"八ヶ代コミュニティーセンター",
"Jusho":"栃木県那須烏山市八ヶ代169",
"Capacity":"900",
"la":"36.63142500000",
"ln":"140.07348000000"
},
"geometry":{
"type":"Point",
"coordinates":[
140.07348,
36.631425
]
}
},
{
"type":"Feature",
"properties":{
"Name":"保健福祉センター",
"Jusho":"栃木県那須烏山市田野倉85－",
"Capacity":"2600",
"la":"36.65871000000",
"ln":"140.09614900000"
},
"geometry":{
"type":"Point",
"coordinates":[
140.096149,
36.65871
]
}
},
{
"type":"Feature",
"properties":{
"Name":"木須の郷交流館",
"Jusho":"栃木県那須烏山市小木須1845",
"Capacity":"100",
"la":"36.61993903520",
"ln":"140.20165182500"
},
"geometry":{
"type":"Point",
"coordinates":[
140.201651825,
36.6199390352
]
}
},
{
"type":"Feature",
"properties":{
"Name":"龍門ふるさと民芸館",
"Jusho":"栃木県那須烏山市滝414",
"Capacity":"20",
"la":"36.64546418480",
"ln":"140.13901413000"
},
"geometry":{
"type":"Point",
"coordinates":[
140.13901413,
36.6454641848
]
}
},
{
"type":"Feature",
"properties":{
"Name":"輪之内公民館",
"Jusho":"栃木県那須烏山市森田561",
"Capacity":"900",
"la":"36.63747900000",
"ln":"140.11785700000"
},
"geometry":{
"type":"Point",
"coordinates":[
140.117857,
36.637479
]
}
},
{
"type":"Feature",
"properties":{
"Name":"グリムの館",
"Jusho":"栃木県下野市下古山747",
"Capacity":"230",
"la":"36.44906000000",
"ln":"139.85873300000"
},
"geometry":{
"type":"Point",
"coordinates":[
139.858733,
36.44906
]
}
},
{
"type":"Feature",
"properties":{
"Name":"グリム保育園",
"Jusho":"栃木県下野市下長田69",
"Capacity":"140",
"la":"36.44581200000",
"ln":"139.84270300000"
},
"geometry":{
"type":"Point",
"coordinates":[
139.842703,
36.445812
]
}
},
{
"type":"Feature",
"properties":{
"Name":"コミュニティセンター友愛館",
"Jusho":"栃木県下野市柴1019－",
"Capacity":"100",
"la":"36.37062200000",
"ln":"139.85122600000"
},
"geometry":{
"type":"Point",
"coordinates":[
139.851226,
36.370622
]
}
},
{
"type":"Feature",
"properties":{
"Name":"スポーツ交流館",
"Jusho":"栃木県下野市大松山1-7－",
"Capacity":"120",
"la":"36.43191200000",
"ln":"139.85766700000"
},
"geometry":{
"type":"Point",
"coordinates":[
139.857667,
36.431912
]
}
},
{
"type":"Feature",
"properties":{
"Name":"ふれあいセンター",
"Jusho":"栃木県下野市下長田146",
"Capacity":"90",
"la":"36.44999000000",
"ln":"139.84206400000"
},
"geometry":{
"type":"Point",
"coordinates":[
139.842064,
36.44999
]
}
},
{
"type":"Feature",
"properties":{
"Name":"ふれあい館",
"Jusho":"栃木県下野市三王山698-5",
"Capacity":"620",
"la":"36.39769200000",
"ln":"139.90319800000"
},
"geometry":{
"type":"Point",
"coordinates":[
139.903198,
36.397692
]
}
},
{
"type":"Feature",
"properties":{
"Name":"国分寺Ｂ＆Ｇ海洋センター体育館",
"Jusho":"栃木県下野市小金井277-2",
"Capacity":"430",
"la":"36.38427000000",
"ln":"139.83614800000"
},
"geometry":{
"type":"Point",
"coordinates":[
139.836148,
36.38427
]
}
},
{
"type":"Feature",
"properties":{
"Name":"国分寺公民館",
"Jusho":"栃木県下野市小金井1127",
"Capacity":"140",
"la":"36.38741800000",
"ln":"139.84153800000"
},
"geometry":{
"type":"Point",
"coordinates":[
139.841538,
36.387418
]
}
},
{
"type":"Feature",
"properties":{
"Name":"国分寺聖武館講堂",
"Jusho":"栃木県下野市国分寺628-2",
"Capacity":"340",
"la":"36.38559200000",
"ln":"139.81124700000"
},
"geometry":{
"type":"Point",
"coordinates":[
139.811247,
36.385592
]
}
},
{
"type":"Feature",
"properties":{
"Name":"国分寺西児童館",
"Jusho":"栃木県下野市小金井5-22－",
"Capacity":"60",
"la":"36.37672200000",
"ln":"139.83623200000"
},
"geometry":{
"type":"Point",
"coordinates":[
139.836232,
36.376722
]
}
},
{
"type":"Feature",
"properties":{
"Name":"国分寺東児童館",
"Jusho":"栃木県下野市駅東7-4－",
"Capacity":"40",
"la":"36.37105800000",
"ln":"139.84449300000"
},
"geometry":{
"type":"Point",
"coordinates":[
139.844493,
36.371058
]
}
},
{
"type":"Feature",
"properties":{
"Name":"国分寺武道館",
"Jusho":"栃木県下野市駅東7-3-3",
"Capacity":"70",
"la":"36.36981100000",
"ln":"139.84477400000"
},
"geometry":{
"type":"Point",
"coordinates":[
139.844774,
36.369811
]
}
},
{
"type":"Feature",
"properties":{
"Name":"仁良川コミュニティセンター",
"Jusho":"栃木県下野市仁良川1468",
"Capacity":"90",
"la":"36.37698900000",
"ln":"139.87724000000"
},
"geometry":{
"type":"Point",
"coordinates":[
139.87724,
36.376989
]
}
},
{
"type":"Feature",
"properties":{
"Name":"石橋公民館",
"Jusho":"栃木県下野市石町416",
"Capacity":"190",
"la":"36.43621700000",
"ln":"139.86234400000"
},
"geometry":{
"type":"Point",
"coordinates":[
139.862344,
36.436217
]
}
},
{
"type":"Feature",
"properties":{
"Name":"石橋高等学校体育館",
"Jusho":"栃木県下野市石橋845",
"Capacity":"980",
"la":"36.43923000000",
"ln":"139.85820200000"
},
"geometry":{
"type":"Point",
"coordinates":[
139.858202,
36.43923
]
}
},
{
"type":"Feature",
"properties":{
"Name":"石橋図書館",
"Jusho":"栃木県下野市大松山1-7-3",
"Capacity":"250",
"la":"36.43074000000",
"ln":"139.85636100000"
},
"geometry":{
"type":"Point",
"coordinates":[
139.856361,
36.43074
]
}
},
{
"type":"Feature",
"properties":{
"Name":"石橋体育センター",
"Jusho":"栃木県下野市大松山1-7－",
"Capacity":"820",
"la":"36.43175423670",
"ln":"139.85717381600"
},
"geometry":{
"type":"Point",
"coordinates":[
139.857173816,
36.4317542367
]
}
},
{
"type":"Feature",
"properties":{
"Name":"南河内公民館南河内保健センター",
"Jusho":"栃木県下野市田中681－",
"Capacity":"330",
"la":"36.38466200000",
"ln":"139.87731800000"
},
"geometry":{
"type":"Point",
"coordinates":[
139.877318,
36.384662
]
}
},
{
"type":"Feature",
"properties":{
"Name":"南河内体育センター",
"Jusho":"栃木県下野市仁良川1141",
"Capacity":"730",
"la":"36.38429479580",
"ln":"139.87812099500"
},
"geometry":{
"type":"Point",
"coordinates":[
139.878120995,
36.3842947958
]
}
},
{
"type":"Feature",
"properties":{
"Name":"南河内東公民館",
"Jusho":"栃木県下野市本吉田783",
"Capacity":"200",
"la":"36.37453500000",
"ln":"139.90930600000"
},
"geometry":{
"type":"Point",
"coordinates":[
139.909306,
36.374535
]
}
},
{
"type":"Feature",
"properties":{
"Name":"南河内東体育館",
"Jusho":"栃木県下野市本吉田783",
"Capacity":"400",
"la":"36.37421907880",
"ln":"139.90911507200"
},
"geometry":{
"type":"Point",
"coordinates":[
139.909115072,
36.3742190788
]
}
},
{
"type":"Feature",
"properties":{
"Name":"保健福祉センターきらら館",
"Jusho":"栃木県下野市下古山1220",
"Capacity":"700",
"la":"36.44510996210",
"ln":"139.84368889800"
},
"geometry":{
"type":"Point",
"coordinates":[
139.843688898,
36.4451099621
]
}
},
{
"type":"Feature",
"properties":{
"Name":"保健福祉センターゆうゆう館",
"Jusho":"栃木県下野市小金井789",
"Capacity":"790",
"la":"36.38526400000",
"ln":"139.83762000000"
},