var st={
"type":"FeatureCollection",
"features":[
{
"type":"Feature",
"properties":{
"Name":"（旧）太郎生小学校",
"Jusho":"三重県津市美杉町太郎生2128－",
"Capacity":"－",
"la":"34.53483700000",
"ln":"136.19415500000"
},
"geometry":{
"type":"Point",
"coordinates":[
136.194155,
34.534837
]
}
},
{
"type":"Feature",
"properties":{
"Name":"安西小学校",
"Jusho":"三重県津市芸濃町北神山311",
"Capacity":"－",
"la":"34.79791900000",
"ln":"136.42801000000"
},
"geometry":{
"type":"Point",
"coordinates":[
136.42801,
34.797919
]
}
},
{
"type":"Feature",
"properties":{
"Name":"安東小学校",
"Jusho":"三重県津市納所町245",
"Capacity":"－",
"la":"34.73282300000",
"ln":"136.48606800000"
},
"geometry":{
"type":"Point",
"coordinates":[
136.486068,
34.732823
]
}
},
{
"type":"Feature",
"properties":{
"Name":"安濃小学校",
"Jusho":"三重県津市安濃町内多451",
"Capacity":"－",
"la":"34.75868800000",
"ln":"136.45916000000"
},
"geometry":{
"type":"Point",
"coordinates":[
136.45916,
34.758688
]
}
},
{
"type":"Feature",
"properties":{
"Name":"育生小学校",
"Jusho":"三重県津市下弁財町津興1350",
"Capacity":"－",
"la":"34.70441200000",
"ln":"136.51470400000"
},
"geometry":{
"type":"Point",
"coordinates":[
136.514704,
34.704412
]
}
},
{
"type":"Feature",
"properties":{
"Name":"一身田小学校",
"Jusho":"三重県津市一身田大古曽355",
"Capacity":"－",
"la":"34.75995800000",
"ln":"136.50231500000"
},
"geometry":{
"type":"Point",
"coordinates":[
136.502315,
34.759958
]
}
},
{
"type":"Feature",
"properties":{
"Name":"雲出小学校",
"Jusho":"三重県津市雲出本郷町1164",
"Capacity":"－",
"la":"34.66244500000",
"ln":"136.52409500000"
},
"geometry":{
"type":"Point",
"coordinates":[
136.524095,
34.662445
]
}
},
{
"type":"Feature",
"properties":{
"Name":"雲林院小学校",
"Jusho":"三重県津市芸濃町雲林院566",
"Capacity":"－",
"la":"34.80694600000",
"ln":"136.40652800000"
},
"geometry":{
"type":"Point",
"coordinates":[
136.406528,
34.806946
]
}
},
{
"type":"Feature",
"properties":{
"Name":"家城小学校",
"Jusho":"三重県津市白山町?家城647",
"Capacity":"－",
"la":"34.62719200000",
"ln":"136.31367400000"
},
"geometry":{
"type":"Point",
"coordinates":[
136.313674,
34.627192
]
}
},
{
"type":"Feature",
"properties":{
"Name":"櫛形小学校",
"Jusho":"三重県津市分部1211－",
"Capacity":"－",
"la":"34.72943400000",
"ln":"136.45596100000"
},
"geometry":{
"type":"Point",
"coordinates":[
136.455961,
34.729434
]
}
},
{
"type":"Feature",
"properties":{
"Name":"栗真小学校",
"Jusho":"三重県津市栗真中山町452",
"Capacity":"－",
"la":"34.76104100000",
"ln":"136.52270300000"
},
"geometry":{
"type":"Point",
"coordinates":[
136.522703,
34.761041
]
}
},
{
"type":"Feature",
"properties":{
"Name":"栗葉小学校",
"Jusho":"三重県津市森町270",
"Capacity":"－",
"la":"34.67913500000",
"ln":"136.41088500000"
},
"geometry":{
"type":"Point",
"coordinates":[
136.410885,
34.679135
]
}
},
{
"type":"Feature",
"properties":{
"Name":"敬和小学校",
"Jusho":"三重県津市中河原445",
"Capacity":"－",
"la":"34.72080500000",
"ln":"136.52013900000"
},
"geometry":{
"type":"Point",
"coordinates":[
136.520139,
34.720805
]
}
},
{
"type":"Feature",
"properties":{
"Name":"戸木小学校",
"Jusho":"三重県津市戸木町880",
"Capacity":"－",
"la":"34.67610800000",
"ln":"136.45276900000"
},
"geometry":{
"type":"Point",
"coordinates":[
136.452769,
34.676108
]
}
},
{
"type":"Feature",
"properties":{
"Name":"香良洲小学校",
"Jusho":"三重県津市香良洲町2190－",
"Capacity":"－",
"la":"34.64529400000",
"ln":"136.54221200000"
},
"geometry":{
"type":"Point",
"coordinates":[
136.542212,
34.645294
]
}
},
{
"type":"Feature",
"properties":{
"Name":"高岡小学校",
"Jusho":"三重県津市一志町田尻353－",
"Capacity":"－",
"la":"34.65575100000",
"ln":"136.42689100000"
},
"geometry":{
"type":"Point",
"coordinates":[
136.426891,
34.655751
]
}
},
{
"type":"Feature",
"properties":{
"Name":"高宮小学校",
"Jusho":"三重県津市美里町足坂585",
"Capacity":"－",
"la":"34.72010600000",
"ln":"136.39198000000"
},
"geometry":{
"type":"Point",
"coordinates":[
136.39198,
34.720106
]
}
},
{
"type":"Feature",
"properties":{
"Name":"高茶屋小学校",
"Jusho":"三重県津市高茶屋三丁目1－",
"Capacity":"－",
"la":"34.67154900000",
"ln":"136.50910800000"
},
"geometry":{
"type":"Point",
"coordinates":[
136.509108,
34.671549
]
}
},
{
"type":"Feature",
"properties":{
"Name":"高野尾小学校",
"Jusho":"三重県津市高野尾町5266－",
"Capacity":"－",
"la":"34.79278600000",
"ln":"136.46195900000"
},
"geometry":{
"type":"Point",
"coordinates":[
136.461959,
34.792786
]
}
},
{
"type":"Feature",
"properties":{
"Name":"黒田小学校",
"Jusho":"三重県津市河芸町北黒田109－",
"Capacity":"－",
"la":"34.78876400000",
"ln":"136.52067500000"
},
"geometry":{
"type":"Point",
"coordinates":[
136.520675,
34.788764
]
}
},
{
"type":"Feature",
"properties":{
"Name":"榊原小学校",
"Jusho":"三重県津市榊原町5848",
"Capacity":"－",
"la":"34.70535100000",
"ln":"136.37238800000"
},
"geometry":{
"type":"Point",
"coordinates":[
136.372388,
34.705351
]
}
},
{
"type":"Feature",
"properties":{
"Name":"三重大学教育学部附属小学校",
"Jusho":"三重県津市観音寺町359",
"Capacity":"－",
"la":"34.72690799910",
"ln":"136.50262200000"
},
"geometry":{
"type":"Point",
"coordinates":[
136.502622,
34.7269079991
]
}
},
{
"type":"Feature",
"properties":{
"Name":"修成小学校",
"Jusho":"三重県津市修成町9－",
"Capacity":"－",
"la":"34.71016000000",
"ln":"136.50131700000"
},
"geometry":{
"type":"Point",
"coordinates":[
136.501317,
34.71016
]
}
},
{
"type":"Feature",
"properties":{
"Name":"上野小学校",
"Jusho":"三重県津市河芸町上野2963",
"Capacity":"－",
"la":"34.79510100000",
"ln":"136.54855300000"
},
"geometry":{
"type":"Point",
"coordinates":[
136.548553,
34.795101
]
}
},
{
"type":"Feature",
"properties":{
"Name":"新町小学校",
"Jusho":"三重県津市八町三丁目3－",
"Capacity":"－",
"la":"34.72088100000",
"ln":"136.49256800000"
},
"geometry":{
"type":"Point",
"coordinates":[
136.492568,
34.720881
]
}
},
{
"type":"Feature",
"properties":{
"Name":"神戸小学校",
"Jusho":"三重県津市神戸332－",
"Capacity":"－",
"la":"34.71457600000",
"ln":"136.48159700000"
},
"geometry":{
"type":"Point",
"coordinates":[
136.481597,
34.714576
]
}
},
{
"type":"Feature",
"properties":{
"Name":"成美小学校",
"Jusho":"三重県津市久居新町737",
"Capacity":"－",
"la":"34.67745000000",
"ln":"136.47678700000"
},
"geometry":{
"type":"Point",
"coordinates":[
136.476787,
34.67745
]
}
},
{
"type":"Feature",
"properties":{
"Name":"西が丘小学校",
"Jusho":"三重県津市長岡町800-437",
"Capacity":"－",
"la":"34.74459900000",
"ln":"136.49123400000"
},
"geometry":{
"type":"Point",
"coordinates":[
136.491234,
34.744599
]
}
},
{
"type":"Feature",
"properties":{
"Name":"誠之小学校",
"Jusho":"三重県津市久居西鷹跡町424",
"Capacity":"－",
"la":"34.67497700000",
"ln":"136.46482600000"
},
"geometry":{
"type":"Point",
"coordinates":[
136.464826,
34.674977
]
}
},
{
"type":"Feature",
"properties":{
"Name":"千里ヶ丘小学校",
"Jusho":"三重県津市河芸町千里ヶ丘13",
"Capacity":"－",
"la":"34.80456100000",
"ln":"136.54855300000"
},
"geometry":{
"type":"Point",
"coordinates":[
136.548553,
34.804561
]
}
},
{
"type":"Feature",
"properties":{
"Name":"川口小学校",
"Jusho":"三重県津市白山町川口1991",
"Capacity":"－",
"la":"34.64238200000",
"ln":"136.34809300000"
},
"geometry":{
"type":"Point",
"coordinates":[
136.348093,
34.642382
]
}
},
{
"type":"Feature",
"properties":{
"Name":"川合小学校",
"Jusho":"三重県津市一志町八太785－",
"Capacity":"－",
"la":"34.65241000000",
"ln":"136.44681200000"
},
"geometry":{
"type":"Point",
"coordinates":[
136.446812,
34.65241
]
}
},
{
"type":"Feature",
"properties":{
"Name":"草生小学校",
"Jusho":"三重県津市安濃町草生4209",
"Capacity":"－",
"la":"34.76367900000",
"ln":"136.42727900000"
},
"geometry":{
"type":"Point",
"coordinates":[
136.427279,
34.763679
]
}
},
{
"type":"Feature",
"properties":{
"Name":"村主小学校",
"Jusho":"三重県津市安濃町連部68",
"Capacity":"－",
"la":"34.75030400000",
"ln":"136.45133400000"
},
"geometry":{
"type":"Point",
"coordinates":[
136.451334,
34.750304
]
}
},
{
"type":"Feature",
"properties":{
"Name":"大井小学校",
"Jusho":"三重県津市一志町大仰326",
"Capacity":"－",
"la":"34.64533500000",
"ln":"136.41073200000"
},
"geometry":{
"type":"Point",
"coordinates":[
136.410732,
34.645335
]
}
},
{
"type":"Feature",
"properties":{
"Name":"大三小学校",
"Jusho":"三重県津市白山町二本木296",
"Capacity":"－",
"la":"34.66429900000",
"ln":"136.37308900000"
},
"geometry":{
"type":"Point",
"coordinates":[
136.373089,
34.664299
]
}
},
{
"type":"Feature",
"properties":{
"Name":"大里小学校",
"Jusho":"三重県津市大里窪田町1821",
"Capacity":"－",
"la":"34.77081700000",
"ln":"136.49270500000"
},
"geometry":{
"type":"Point",
"coordinates":[
136.492705,
34.770817
]
}
},
{
"type":"Feature",
"properties":{
"Name":"辰水小学校",
"Jusho":"三重県津市美里町家所2045",
"Capacity":"－",
"la":"34.73390700000",
"ln":"136.40897100000"
},
"geometry":{
"type":"Point",
"coordinates":[
136.408971,
34.733907
]
}
},
{
"type":"Feature",
"properties":{
"Name":"長野小学校",
"Jusho":"三重県津市美里町北長野1435",
"Capacity":"－",
"la":"34.74523400000",
"ln":"136.36219700000"
},
"geometry":{
"type":"Point",
"coordinates":[
136.362197,
34.745234
]
}
},
{
"type":"Feature",
"properties":{
"Name":"桃園小学校",
"Jusho":"三重県津市新家町1350",
"Capacity":"－",
"la":"34.66030500000",
"ln":"136.48640500000"
},
"geometry":{
"type":"Point",
"coordinates":[
136.486405,
34.660305
]
}
},
{
"type":"Feature",
"properties":{
"Name":"藤水小学校",
"Jusho":"三重県津市藤方1627",
"Capacity":"－",
"la":"34.68991300000",
"ln":"136.51209500000"
},
"geometry":{
"type":"Point",
"coordinates":[
136.512095,
34.689913
]
}
},
{
"type":"Feature",
"properties":{
"Name":"波瀬小学校",
"Jusho":"三重県津市一志町波瀬2236",
"Capacity":"－",
"la":"34.62441700000",
"ln":"136.39017900000"
},
"geometry":{
"type":"Point",
"coordinates":[
136.390179,
34.624417
]
}
},
{
"type":"Feature",
"properties":{
"Name":"白塚小学校",
"Jusho":"三重県津市白塚町4463",
"Capacity":"－",
"la":"34.76068100000",
"ln":"136.52834100000"
},
"geometry":{
"type":"Point",
"coordinates":[
136.528341,
34.760681
]
}
},
{
"type":"Feature",
"properties":{
"Name":"八ッ山小学校",
"Jusho":"三重県津市白山町八対野2480",
"Capacity":"－",
"la":"34.64880400000",
"ln":"136.32700100000"
},
"geometry":{
"type":"Point",
"coordinates":[
136.327001,
34.648804
]
}
},
{
"type":"Feature",
"properties":{
"Name":"美杉小学校",
"Jusho":"三重県津市美杉町奥津1025",
"Capacity":"－",
"la":"34.51203300000",
"ln":"136.26705000000"
},
"geometry":{
"type":"Point",
"coordinates":[
136.26705,
34.512033
]
}
},
{
"type":"Feature",
"properties":{
"Name":"片田小学校",
"Jusho":"三重県津市片田井戸町22",
"Capacity":"－",
"la":"34.71132500000",
"ln":"136.44246400000"
},
"geometry":{
"type":"Point",
"coordinates":[
136.442464,
34.711325
]
}
},
{
"type":"Feature",
"properties":{
"Name":"豊が丘小学校",
"Jusho":"三重県津市高野尾町3214－",
"Capacity":"－",
"la":"34.80800700000",
"ln":"136.47262300000"
},
"geometry":{
"type":"Point",
"coordinates":[
136.472623,
34.808007
]
}
},
{
"type":"Feature",
"properties":{
"Name":"豊津小学校",
"Jusho":"三重県津市河芸町一色1680",
"Capacity":"－",
"la":"34.78338300000",
"ln":"136.54367100000"
},
"geometry":{
"type":"Point",
"coordinates":[
136.543671,
34.783383
]
}
},
{
"type":"Feature",
"properties":{
"Name":"北立誠小学校",
"Jusho":"三重県津市江戸橋一丁目30",
"Capacity":"－",
"la":"34.74473800000",
"ln":"136.51712000000"
},
"geometry":{
"type":"Point",
"coordinates":[
136.51712,
34.744738
]
}
},
{
"type":"Feature",
"properties":{
"Name":"椋本小学校",
"Jusho":"三重県津市芸濃町椋本5133",
"Capacity":"－",
"la":"34.81080800000",
"ln":"136.42776600000"
},
"geometry":{
"type":"Point",
"coordinates":[
136.427766,
34.810808
]
}
},
{
"type":"Feature",
"properties":{
"Name":"明合小学校",
"Jusho":"三重県津市安濃町粟加978",
"Capacity":"－",
"la":"34.77739200000",
"ln":"136.43689600000"
},
"geometry":{
"type":"Point",
"coordinates":[
136.436896,
34.777392
]
}
},
{
"type":"Feature",
"properties":{
"Name":"明小学校",
"Jusho":"三重県津市芸濃町林325",
"Capacity":"－",
"la":"34.82803800000",
"ln":"136.42093000000"
},
"geometry":{
"type":"Point",
"coordinates":[
136.42093,
34.828038
]
}
},
{
"type":"Feature",
"properties":{
"Name":"養正小学校",
"Jusho":"三重県津市丸之内養正町14－",
"Capacity":"－",
"la":"34.72185300000",
"ln":"136.50656600000"
},
"geometry":{
"type":"Point",
"coordinates":[
136.506566,
34.721853
]
}
},
{
"type":"Feature",
"properties":{
"Name":"立成小学校",
"Jusho":"三重県津市久居野村町560",
"Capacity":"－",
"la":"34.67740700000",
"ln":"136.48904200000"
},
"geometry":{
"type":"Point",
"coordinates":[
136.489042,
34.677407
]
}
},
{
"type":"Feature",
"properties":{
"Name":"倭小学校",
"Jusho":"三重県津市白山町上ノ村183",
"Capacity":"－",
"la":"34.66711800000",
"ln":"136.33539800000"
},
"geometry":{
"type":"Point",
"coordinates":[
136.335398,
34.667118
]
}
},
{
"type":"Feature",
"properties":{
"Name":"南が丘小学校",
"Jusho":"三重県津市垂水2538－",
"Capacity":"－",
"la":"34.68960800000",
"ln":"136.49579100000"
},
"geometry":{
"type":"Point",
"coordinates":[
136.495791,
34.689608
]
}
},
{
"type":"Feature",
"properties":{
"Name":"南立誠小学校グラウンド",
"Jusho":"三重県津市桜橋二丁目39",
"Capacity":"－",
"la":"34.73198999910",
"ln":"136.51717500000"
},
"geometry":{
"type":"Point",
"coordinates":[
136.517175,
34.7319899991
]
}
},
{
"type":"Feature",
"properties":{
"Name":"羽津小学校",
"Jusho":"三重県四日市市大宮町16-35",
"Capacity":"530",
"la":"34.99071400000",
"ln":"136.63046700000"
},
"geometry":{
"type":"Point",
"coordinates":[
136.630467,
34.990714
]
}
},
{
"type":"Feature",
"properties":{
"Name":"羽津北小学校",
"Jusho":"三重県四日市市大字羽津500",
"Capacity":"545",
"la":"34.99888000000",
"ln":"136.63657700000"
},
"geometry":{
"type":"Point",
"coordinates":[
136.636577,
34.99888
]
}
},
{
"type":"Feature",
"properties":{
"Name":"塩浜小学校",
"Jusho":"三重県四日市市塩浜町1",
"Capacity":"440",
"la":"34.92949900000",
"ln":"136.63069100000"
},
"geometry":{
"type":"Point",
"coordinates":[
136.630691,
34.929499
]
}
},
{
"type":"Feature",
"properties":{
"Name":"下野小学校",
"Jusho":"三重県四日市市朝明町475－",
"Capacity":"575",
"la":"35.04081800000",
"ln":"136.58896900000"
},
"geometry":{
"type":"Point",
"coordinates":[
136.588969,
35.040818
]
}
},
{
"type":"Feature",
"properties":{
"Name":"河原田小学校",
"Jusho":"三重県四日市市河原田町70",
"Capacity":"480",
"la":"34.91569300000",
"ln":"136.59591600000"
},
"geometry":{
"type":"Point",
"coordinates":[
136.595916,
34.915693
]
}
},
{
"type":"Feature",
"properties":{
"Name":"海蔵小学校",
"Jusho":"三重県四日市市大字東阿倉川（二区）578－",
"Capacity":"615",
"la":"34.98318700000",
"ln":"136.62121800000"
},
"geometry":{
"type":"Point",
"coordinates":[
136.621218,
34.983187
]
}
},
{
"type":"Feature",
"properties":{
"Name":"県小学校",
"Jusho":"三重県四日市市赤水町1002",
"Capacity":"575",
"la":"35.01101700000",
"ln":"136.55627900000"
},
"geometry":{
"type":"Point",
"coordinates":[
136.556279,
35.011017
]
}
},
{
"type":"Feature",
"properties":{
"Name":"高花平小学校",
"Jusho":"三重県四日市市高花平二丁目1",
"Capacity":"320",
"la":"34.95346700000",
"ln":"136.55380700000"
},
"geometry":{
"type":"Point",
"coordinates":[
136.553807,
34.953467
]
}
},
{
"type":"Feature",
"properties":{
"Name":"桜小学校",
"Jusho":"三重県四日市市桜町1257",
"Capacity":"680",
"la":"34.99449100000",
"ln":"136.53222400000"
},
"geometry":{
"type":"Point",
"coordinates":[
136.532224,
34.994491
]
}
},
{
"type":"Feature",
"properties":{
"Name":"桜台小学校",
"Jusho":"三重県四日市市桜台一丁目32",
"Capacity":"580",
"la":"34.98607500000",
"ln":"136.53266900000"
},
"geometry":{
"type":"Point",
"coordinates":[
136.532669,
34.986075
]
}
},
{
"type":"Feature",
"properties":{
"Name":"笹川西小学校",
"Jusho":"三重県四日市市笹川五丁目62",
"Capacity":"440",
"la":"34.94690900000",
"ln":"136.57154600000"
},
"geometry":{
"type":"Point",
"coordinates":[
136.571546,
34.946909
]
}
},
{
"type":"Feature",
"properties":{
"Name":"笹川東小学校",
"Jusho":"三重県四日市市笹川六丁目25",
"Capacity":"454",
"la":"34.94688500000",
"ln":"136.57600000000"
},
"geometry":{
"type":"Point",
"coordinates":[
136.576,
34.946885
]
}
},
{
"type":"Feature",
"properties":{
"Name":"三重小学校",
"Jusho":"三重県四日市市東坂部町222-2",
"Capacity":"520",
"la":"34.99443100000",
"ln":"136.59918100000"
},
"geometry":{
"type":"Point",
"coordinates":[
136.599181,
34.994431
]
}
},
{
"type":"Feature",
"properties":{
"Name":"三重西小学校",
"Jusho":"三重県四日市市三重三丁目129",
"Capacity":"490",
"la":"34.99038100000",
"ln":"136.58661100000"
},
"geometry":{
"type":"Point",
"coordinates":[
136.586611,
34.990381
]
}
},
{
"type":"Feature",
"properties":{
"Name":"三重北小学校",
"Jusho":"三重県四日市市山之一色町90",
"Capacity":"455",
"la":"35.00876700000",
"ln":"136.60246800000"
},
"geometry":{
"type":"Point",
"coordinates":[
136.602468,
35.008767
]
}
},
{
"type":"Feature",
"properties":{
"Name":"三浜小学校",
"Jusho":"三重県四日市市海山道町一丁目1532－",
"Capacity":"405",
"la":"34.94638600000",
"ln":"136.62166300000"
},
"geometry":{
"type":"Point",
"coordinates":[
136.621663,
34.946386
]
}
},
{
"type":"Feature",
"properties":{
"Name":"四郷小学校",
"Jusho":"三重県四日市市西日野町3207－",
"Capacity":"545",
"la":"34.95524500000",
"ln":"136.58327700000"
},
"geometry":{
"type":"Point",
"coordinates":[
136.583277,
34.955245
]
}
},
{
"type":"Feature",
"properties":{
"Name":"私立暁学園暁小学校",
"Jusho":"三重県四日市市蒔田三丁目3-37",
"Capacity":"565",
"la":"35.01712799910",
"ln":"136.65588100000"
},
"geometry":{
"type":"Point",
"coordinates":[
136.655881,
35.0171279991
]
}
},
{
"type":"Feature",
"properties":{
"Name":"小山田小学校",
"Jusho":"三重県四日市市山田町1373－",
"Capacity":"455",
"la":"34.94738400000",
"ln":"136.53319800000"
},
"geometry":{
"type":"Point",
"coordinates":[
136.533198,
34.947384
]
}
},
{
"type":"Feature",
"properties":{
"Name":"常磐小学校",
"Jusho":"三重県四日市市城西町9－4",
"Capacity":"710",
"la":"34.96532800000",
"ln":"136.60358100000"
},
"geometry":{
"type":"Point",
"coordinates":[
136.603581,
34.965328
]
}
},
{
"type":"Feature",
"properties":{
"Name":"常磐西小学校",
"Jusho":"三重県四日市市大字松本764",
"Capacity":"665",
"la":"34.96318900000",
"ln":"136.58719300000"
},
"geometry":{
"type":"Point",
"coordinates":[
136.587193,
34.963189
]
}
},
{
"type":"Feature",
"properties":{
"Name":"神前小学校",
"Jusho":"三重県四日市市曽井町493－",
"Capacity":"455",
"la":"34.98513100000",
"ln":"136.56825100000"
},
"geometry":{
"type":"Point",
"coordinates":[
136.568251,
34.985131
]
}
},
{
"type":"Feature",
"properties":{
"Name":"水沢小学校",
"Jusho":"三重県四日市市水沢町2491",
"Capacity":"455",
"la":"34.97329700000",
"ln":"136.47873000000"
},
"geometry":{
"type":"Point",
"coordinates":[
136.47873,
34.973297
]
}
},
{
"type":"Feature",
"properties":{
"Name":"西橋北小学校",
"Jusho":"三重県四日市市川原町25-22",
"Capacity":"380",
"la":"34.97488300000",
"ln":"136.62955100000"
},
"geometry":{
"type":"Point",
"coordinates":[
136.629551,
34.974883
]
}
},
{
"type":"Feature",
"properties":{
"Name":"川島小学校",
"Jusho":"三重県四日市市川島町2046",
"Capacity":"650",
"la":"34.97016000000",
"ln":"136.56572300000"
},
"geometry":{
"type":"Point",
"coordinates":[
136.565723,
34.97016
]
}
},
{
"type":"Feature",
"properties":{
"Name":"大谷台小学校",
"Jusho":"三重県四日市市大谷台一丁目204",
"Capacity":"575",
"la":"35.00135100000",
"ln":"136.61443900000"
},
"geometry":{
"type":"Point",
"coordinates":[
136.614439,
35.001351
]
}
},
{
"type":"Feature",
"properties":{
"Name":"大矢知興譲小学校",
"Jusho":"三重県四日市市大矢知町1212",
"Capacity":"625",
"la":"35.02098800000",
"ln":"136.63396500000"
},
"geometry":{
"type":"Point",
"coordinates":[
136.633965,
35.020988
]
}
},
{
"type":"Feature",
"properties":{
"Name":"中央小学校",
"Jusho":"三重県四日市市元新町2-36",
"Capacity":"445",
"la":"34.96721700000",
"ln":"136.62805100000"
},
"geometry":{
"type":"Point",
"coordinates":[
136.628051,
34.967217
]
}
},
{
"type":"Feature",
"properties":{
"Name":"中部西小学校",
"Jusho":"三重県四日市市北町2-23",
"Capacity":"530",
"la":"34.97110600000",
"ln":"136.62682900000"
},
"geometry":{
"type":"Point",
"coordinates":[
136.626829,
34.971106
]
}
},
{
"type":"Feature",
"properties":{
"Name":"東橋北小学校",
"Jusho":"三重県四日市市東新町26-32",
"Capacity":"395",
"la":"34.97599400000",
"ln":"136.63707800000"
},
"geometry":{
"type":"Point",
"coordinates":[
136.637078,
34.975994
]
}
},
{
"type":"Feature",
"properties":{
"Name":"内部小学校",
"Jusho":"三重県四日市市釆女町888－",
"Capacity":"635",
"la":"34.92747000000",
"ln":"136.57750000000"
},
"geometry":{
"type":"Point",
"coordinates":[
136.5775,
34.92747
]
}
},
{
"type":"Feature",
"properties":{
"Name":"内部東小学校",
"Jusho":"三重県四日市市釆女町423-4",
"Capacity":"535",
"la":"34.93072000000",
"ln":"136.58080500000"
},
"geometry":{
"type":"Point",
"coordinates":[
136.580805,
34.93072
]
}
},
{
"type":"Feature",
"properties":{
"Name":"楠小学校",
"Jusho":"三重県四日市市楠町北五味塚2060-9",
"Capacity":"3000",
"la":"34.91414400000",
"ln":"136.62730500000"
},
"geometry":{
"type":"Point",
"coordinates":[
136.627305,
34.914144
]
}
},
{
"type":"Feature",
"properties":{
"Name":"日永小学校",
"Jusho":"三重県四日市市日永四丁目5－3",
"Capacity":"735",
"la":"34.94863500000",
"ln":"136.60133100000"
},
"geometry":{
"type":"Point",
"coordinates":[
136.601331,
34.948635
]
}
},
{
"type":"Feature",
"properties":{
"Name":"泊山小学校",
"Jusho":"三重県四日市市大字日永5530－9",
"Capacity":"515",
"la":"34.94283000000",
"ln":"136.58647100000"
},
"geometry":{
"type":"Point",
"coordinates":[
136.586471,
34.94283
]
}
},
{
"type":"Feature",
"properties":{
"Name":"八郷小学校",
"Jusho":"三重県四日市市平津町99－",
"Capacity":"615",
"la":"35.02671000000",
"ln":"136.62657700000"
},
"geometry":{
"type":"Point",
"coordinates":[
136.626577,
35.02671
]
}
},
{
"type":"Feature",
"properties":{
"Name":"八郷西小学校",
"Jusho":"三重県四日市市萱生町1086",
"Capacity":"470",
"la":"35.02295900000",
"ln":"136.60371700000"
},
"geometry":{
"type":"Point",
"coordinates":[
136.603717,
35.022959
]
}
},
{
"type":"Feature",
"properties":{
"Name":"浜田小学校",
"Jusho":"三重県四日市市北浜田町13-6",
"Capacity":"615",
"la":"34.96188400000",
"ln":"136.62132900000"
},
"geometry":{
"type":"Point",
"coordinates":[
136.621329,
34.961884
]
}
},
{
"type":"Feature",
"properties":{
"Name":"富洲原小学校",
"Jusho":"三重県四日市市富州原町31－4",
"Capacity":"600",
"la":"35.01115700000",
"ln":"136.66138000000"
},
"geometry":{
"type":"Point",
"coordinates":[
136.66138,
35.011157
]
}
},
{
"type":"Feature",
"properties":{
"Name":"富田小学校",
"Jusho":"三重県四日市市富田一丁目24-49",
"Capacity":"705",
"la":"35.00571300000",
"ln":"136.64979800000"
},
"geometry":{
"type":"Point",
"coordinates":[
136.649798,
35.005713
]
}
},
{
"type":"Feature",
"properties":{
"Name":"保々小学校",
"Jusho":"三重県四日市市西村町2741",
"Capacity":"460",
"la":"35.05167800000",
"ln":"136.55988900000"
},
"geometry":{
"type":"Point",
"coordinates":[
136.559889,
35.051678
]
}
},
{
"type":"Feature",
"properties":{
"Name":"阿坂小学校",
"Jusho":"三重県松阪市小阿坂町3325",
"Capacity":"220",
"la":"34.58986800000",
"ln":"136.47199300000"
},
"geometry":{
"type":"Point",
"coordinates":[
136.471993,
34.589868
]
}
},
{
"type":"Feature",
"properties":{
"Name":"伊勢寺小学校",
"Jusho":"三重県松阪市伊勢寺町26",
"Capacity":"300",
"la":"34.57189700000",
"ln":"136.48279700000"
},
"geometry":{
"type":"Point",
"coordinates":[
136.482797,
34.571897
]
}
},
{
"type":"Feature",
"properties":{
"Name":"花岡小学校",
"Jusho":"三重県松阪市大黒田町757",
"Capacity":"300",
"la":"34.55998300000",
"ln":"136.52221000000"
},
"geometry":{
"type":"Point",
"coordinates":[
136.52221,
34.559983
]
}
},
{
"type":"Feature",
"properties":{
"Name":"柿野小学校",
"Jusho":"三重県松阪市飯南町深野3688",
"Capacity":"300",
"la":"34.47408600000",
"ln":"136.40546100000"
},
"geometry":{
"type":"Point",
"coordinates":[
136.405461,
34.474086
]
}
},
{
"type":"Feature",
"properties":{
"Name":"粥見小学校",
"Jusho":"三重県松阪市飯南町粥見3969",
"Capacity":"400",
"la":"34.44995700000",
"ln":"136.39154700000"
},
"geometry":{
"type":"Point",
"coordinates":[
136.391547,
34.449957
]
}
},
{
"type":"Feature",
"properties":{
"Name":"機殿小学校",
"Jusho":"三重県松阪市六根町16",
"Capacity":"210",
"la":"34.56874100000",
"ln":"136.60021600000"
},
"geometry":{
"type":"Point",
"coordinates":[
136.600216,
34.568741
]
}
},
{
"type":"Feature",
"properties":{
"Name":"宮前小学校",
"Jusho":"三重県松阪市飯高町宮前1022",
"Capacity":"520",
"la":"34.43450600000",
"ln":"136.33481500000"
},
"geometry":{
"type":"Point",
"coordinates":[
136.334815,
34.434506
]
}
},
{
"type":"Feature",
"properties":{
"Name":"幸小学校",
"Jusho":"三重県松阪市殿町1198-2",
"Capacity":"300",
"la":"34.57226000000",
"ln":"136.52415400000"
},
"geometry":{
"type":"Point",
"coordinates":[
136.524154,
34.57226
]
}
},
{
"type":"Feature",
"properties":{
"Name":"港小学校",
"Jusho":"三重県松阪市荒木町16",
"Capacity":"300",
"la":"34.59248100000",
"ln":"136.53756900000"
},
"geometry":{
"type":"Point",
"coordinates":[
136.537569,
34.592481
]
}
},
{
"type":"Feature",
"properties":{
"Name":"香肌小学校",
"Jusho":"三重県松阪市飯高町森1810-2",
"Capacity":"330",
"la":"34.38726068140",
"ln":"136.22334990500"
},
"geometry":{
"type":"Point",
"coordinates":[
136.223349905,
34.3872606814
]
}
},
{
"type":"Feature",
"properties":{
"Name":"山室山小学校",
"Jusho":"三重県松阪市光町1",
"Capacity":"300",
"la":"34.54884600000",
"ln":"136.51759900000"
},
"geometry":{
"type":"Point",
"coordinates":[
136.517599,
34.548846
]
}
},
{
"type":"Feature",
"properties":{
"Name":"射和小学校",
"Jusho":"三重県松阪市射和町557－",
"Capacity":"300",
"la":"34.50893400000",
"ln":"136.53904300000"
},
"geometry":{
"type":"Point",
"coordinates":[
136.539043,
34.508934
]
}
},
{
"type":"Feature",
"properties":{
"Name":"小野江小学校",
"Jusho":"三重県松阪市小野江町355",
"Capacity":"450",
"la":"34.64377500000",
"ln":"136.51008600000"
},
"geometry":{
"type":"Point",
"coordinates":[
136.510086,
34.643775
]
}
},
{
"type":"Feature",
"properties":{
"Name":"松ヶ崎小学校",
"Jusho":"三重県松阪市松崎浦町751-2",
"Capacity":"220",
"la":"34.61103400000",
"ln":"136.52268100000"
},
"geometry":{
"type":"Point",
"coordinates":[
136.522681,
34.611034
]
}
},
{
"type":"Feature",
"properties":{
"Name":"松江小学校",
"Jusho":"三重県松阪市川井町380－",
"Capacity":"300",
"la":"34.58180200000",
"ln":"136.51682500000"
},
"geometry":{
"type":"Point",
"coordinates":[
136.516825,
34.581802
]
}
},
{
"type":"Feature",
"properties":{
"Name":"松尾小学校",
"Jusho":"三重県松阪市丹生寺町566",
"Capacity":"300",
"la":"34.54967800000",
"ln":"136.49246300000"
},
"geometry":{
"type":"Point",
"coordinates":[
136.492463,
34.549678
]
}
},
{
"type":"Feature",
"properties":{
"Name":"仁柿小学校",
"Jusho":"三重県松阪市飯南町上仁柿194",
"Capacity":"100",
"la":"34.48072600000",
"ln":"136.37055300000"
},
"geometry":{
"type":"Point",
"coordinates":[
136.370553,
34.480726
]
}
},
{
"type":"Feature",
"properties":{
"Name":"西黒部小学校",
"Jusho":"三重県松阪市西黒部町713－",
"Capacity":"210",
"la":"34.58645500000",
"ln":"136.57434300000"
},
"geometry":{
"type":"Point",
"coordinates":[
136.574343,
34.586455
]
}
},
{
"type":"Feature",
"properties":{
"Name":"川俣小学校（休校中）",
"Jusho":"三重県松阪市飯高町粟野481",
"Capacity":"320",
"la":"34.42009600000",
"ln":"136.25010800000"
},
"geometry":{
"type":"Point",
"coordinates":[
136.250108,
34.420096
]
}
},
{
"type":"Feature",
"properties":{
"Name":"漕代小学校",
"Jusho":"三重県松阪市目田町207",
"Capacity":"300",
"la":"34.53879300000",
"ln":"136.58814900000"
},
"geometry":{
"type":"Point",
"coordinates":[
136.588149,
34.538793
]
}
},
{
"type":"Feature",
"properties":{
"Name":"大河内小学校",
"Jusho":"三重県松阪市矢津町1775",
"Capacity":"220",
"la":"34.53156900000",
"ln":"136.47521500000"
},
"geometry":{
"type":"Point",
"coordinates":[
136.475215,
34.531569
]
}
},
{
"type":"Feature",
"properties":{
"Name":"第一小学校",
"Jusho":"三重県松阪市殿町1349－",
"Capacity":"415",
"la":"34.57562100000",
"ln":"136.52904200000"
},
"geometry":{
"type":"Point",
"coordinates":[
136.529042,
34.575621
]
}
},
{
"type":"Feature",
"properties":{
"Name":"第五小学校",
"Jusho":"三重県松阪市久保町276",
"Capacity":"300",
"la":"34.56212300000",
"ln":"136.54034700000"
},
"geometry":{
"type":"Point",
"coordinates":[
136.540347,
34.562123
]
}
},
{
"type":"Feature",
"properties":{
"Name":"第三小学校",
"Jusho":"三重県松阪市西之庄町150",
"Capacity":"210",
"la":"34.58137000000",
"ln":"136.52465400000"
},
"geometry":{
"type":"Point",
"coordinates":[
136.524654,
34.58137
]
}
},
{
"type":"Feature",
"properties":{
"Name":"第四小学校",
"Jusho":"三重県松阪市鎌田町428-4",
"Capacity":"300",
"la":"34.58323200000",
"ln":"136.53904100000"
},
"geometry":{
"type":"Point",
"coordinates":[
136.539041,
34.583232
]
}
},
{
"type":"Feature",
"properties":{
"Name":"第二小学校",
"Jusho":"三重県松阪市垣鼻町633",
"Capacity":"300",
"la":"34.56706600000",
"ln":"136.53812500000"
},
"geometry":{
"type":"Point",
"coordinates":[
136.538125,
34.567066
]
}
},
{
"type":"Feature",
"properties":{
"Name":"中原小学校",
"Jusho":"三重県松阪市嬉野田村町44",
"Capacity":"370",
"la":"34.61027100000",
"ln":"136.48645700000"
},
"geometry":{
"type":"Point",
"coordinates":[
136.486457,
34.610271
]
}
},
{
"type":"Feature",
"properties":{
"Name":"中川小学校",
"Jusho":"三重県松阪市嬉野中川町1057",
"Capacity":"380",
"la":"34.63591900000",
"ln":"136.47298200000"
},
"geometry":{
"type":"Point",
"coordinates":[
136.472982,
34.635919
]
}
},
{
"type":"Feature",
"properties":{
"Name":"朝見小学校",
"Jusho":"三重県松阪市大宮田町195",
"Capacity":"220",
"la":"34.57105003930",
"ln":"136.57442884400"
},
"geometry":{
"type":"Point",
"coordinates":[
136.574428844,
34.5710500393
]
}
},
{
"type":"Feature",
"properties":{
"Name":"天白小学校",
"Jusho":"三重県松阪市曽原町774",
"Capacity":"450",
"la":"34.62233700000",
"ln":"136.51848500000"
},
"geometry":{
"type":"Point",
"coordinates":[
136.518485,
34.622337
]
}
},
{
"type":"Feature",
"properties":{
"Name":"東黒部小学校",
"Jusho":"三重県松阪市垣内田町6－",
"Capacity":"300",
"la":"34.58887100000",
"ln":"136.59831300000"
},
"geometry":{
"type":"Point",
"coordinates":[
136.598313,
34.588871
]
}
},
{
"type":"Feature",
"properties":{
"Name":"徳和小学校",
"Jusho":"三重県松阪市上川町197-4",
"Capacity":"300",
"la":"34.54751900000",
"ln":"136.55027100000"
},
"geometry":{
"type":"Point",
"coordinates":[
136.550271,
34.547519
]
}
},
{
"type":"Feature",
"properties":{
"Name":"南小学校",
"Jusho":"三重県松阪市小片野町945",
"Capacity":"190",
"la":"34.48185200000",
"ln":"136.44094200000"
},
"geometry":{
"type":"Point",
"coordinates":[
136.440942,
34.481852
]
}
},
{
"type":"Feature",
"properties":{
"Name":"米ノ庄小学校",
"Jusho":"三重県松阪市市場庄町20",
"Capacity":"560",
"la":"34.60120100000",
"ln":"136.50891500000"
},
"geometry":{
"type":"Point",
"coordinates":[
136.508915,
34.601201
]
}
},
{
"type":"Feature",
"properties":{
"Name":"豊地小学校",
"Jusho":"三重県松阪市嬉野堀之内町229",
"Capacity":"370",
"la":"34.62112100000",
"ln":"136.45931200000"
},
"geometry":{
"type":"Point",
"coordinates":[
136.459312,
34.621121
]
}
},
{
"type":"Feature",
"properties":{
"Name":"豊田小学校",
"Jusho":"三重県松阪市嬉野川北町1338-2",
"Capacity":"350",
"la":"34.63123300000",
"ln":"136.49700200000"
},
"geometry":{
"type":"Point",
"coordinates":[
136.497002,
34.631233
]
}
},
{
"type":"Feature",
"properties":{
"Name":"有間野小学校",
"Jusho":"三重県松阪市飯南町有間野1064",
"Capacity":"50",
"la":"34.43624200000",
"ln":"136.35180500000"
},
"geometry":{
"type":"Point",
"coordinates":[
136.351805,
34.436242
]
}
},
{
"type":"Feature",
"properties":{
"Name":"鵲小学校",
"Jusho":"三重県松阪市笠松町279",
"Capacity":"510",
"la":"34.63500900000",
"ln":"136.52683300000"
},
"geometry":{
"type":"Point",
"coordinates":[
136.526833,
34.635009
]
}
},
{
"type":"Feature",
"properties":{
"Name":"?水小学校",
"Jusho":"三重県松阪市豊原町1120",
"Capacity":"300",
"la":"34.54745900000",
"ln":"136.58251000000"
},
"geometry":{
"type":"Point",
"coordinates":[
136.58251,
34.547459
]
}
},
{
"type":"Feature",
"properties":{
"Name":"伊曽島小学校",
"Jusho":"三重県桑名市長島町福吉567",
"Capacity":"1300",
"la":"35.05562400000",
"ln":"136.71655100000"
},
"geometry":{
"type":"Point",
"coordinates":[
136.716551,
35.055624
]
}
},
{
"type":"Feature",
"properties":{
"Name":"益世小学校",
"Jusho":"三重県桑名市益生町59",
"Capacity":"600",
"la":"35.05754100000",
"ln":"136.68018300000"
},
"geometry":{
"type":"Point",
"coordinates":[
136.680183,
35.057541
]
}
},
{
"type":"Feature",
"properties":{
"Name":"久米小学校",
"Jusho":"三重県桑名市志知3846－",
"Capacity":"300",
"la":"35.05129000000",
"ln":"136.61652200000"
},
"geometry":{
"type":"Point",
"coordinates":[
136.616522,
35.05129
]
}
},
{
"type":"Feature",
"properties":{
"Name":"桑部小学校",
"Jusho":"三重県桑名市桑部479－",
"Capacity":"400",
"la":"35.05048600000",
"ln":"136.65307500000"
},
"geometry":{
"type":"Point",
"coordinates":[
136.653075,
35.050486
]
}
},
{
"type":"Feature",
"properties":{
"Name":"在良小学校",
"Jusho":"三重県桑名市大山田5－2",
"Capacity":"500",
"la":"35.05895700000",
"ln":"136.65271400000"
},
"geometry":{
"type":"Point",
"coordinates":[
136.652714,
35.058957
]
}
},
{
"type":"Feature",
"properties":{
"Name":"七和小学校",
"Jusho":"三重県桑名市大字蓮花寺263－",
"Capacity":"600",
"la":"35.07467700000",
"ln":"136.61932700000"
},
"geometry":{
"type":"Point",
"coordinates":[
136.619327,
35.074677
]
}
},
{
"type":"Feature",
"properties":{
"Name":"修徳小学校",
"Jusho":"三重県桑名市東方302-5",
"Capacity":"400",
"la":"35.07026200000",
"ln":"136.68487700000"
},
"geometry":{
"type":"Point",
"coordinates":[
136.684877,
35.070262
]
}
},
{
"type":"Feature",
"properties":{
"Name":"城東小学校",
"Jusho":"三重県桑名市小貝須1883-2",
"Capacity":"400",
"la":"35.05704200000",
"ln":"136.69959800000"
},
"geometry":{
"type":"Point",
"coordinates":[
136.699598,
35.057042
]
}
},
{
"type":"Feature",
"properties":{
"Name":"城南小学校",
"Jusho":"三重県桑名市和泉269－",
"Capacity":"500",
"la":"35.04493200000",
"ln":"136.68718300000"
},
"geometry":{
"type":"Point",
"coordinates":[
136.687183,
35.044932
]
}
},
{
"type":"Feature",
"properties":{
"Name":"深谷小学校",
"Jusho":"三重県桑名市下深谷部3683－",
"Capacity":"600",
"la":"35.10145300000",
"ln":"136.65782300000"
},
"geometry":{
"type":"Point",
"coordinates":[
136.657823,
35.101453
]
}
},
{
"type":"Feature",
"properties":{
"Name":"星見ケ丘小学校",
"Jusho":"三重県桑名市",
"Capacity":"500",
"la":"35.07156600000",
"ln":"136.63482600000"
},
"geometry":{
"type":"Point",
"coordinates":[
136.634826,
35.071566
]
}
},
{
"type":"Feature",
"properties":{
"Name":"精義小学校",
"Jusho":"三重県桑名市寿町3-28",
"Capacity":"400",
"la":"35.06620700000",
"ln":"136.68898800000"
},
"geometry":{
"type":"Point",
"coordinates":[
136.688988,
35.066207
]
}
},
{
"type":"Feature",
"properties":{
"Name":"多度西小学校体育館",
"Jusho":"三重県桑名市多度町古野110",
"Capacity":"150",
"la":"35.13573600000",
"ln":"136.59151300000"
},
"geometry":{
"type":"Point",
"coordinates":[
136.591513,
35.135736
]
}
},
{
"type":"Feature",
"properties":{
"Name":"多度中小学校体育館",
"Jusho":"三重県桑名市多度町小山2060",
"Capacity":"400",
"la":"35.13530100000",
"ln":"136.63877300000"
},
"geometry":{
"type":"Point",
"coordinates":[
136.638773,
35.135301
]
}
},
{
"type":"Feature",
"properties":{
"Name":"多度東小学校体育館",
"Jusho":"三重県桑名市多度町下野代955",
"Capacity":"150",
"la":"35.12011200000",
"ln":"136.64873400000"
},
"geometry":{
"type":"Point",
"coordinates":[
136.648734,
35.120112
]
}
},
{
"type":"Feature",
"properties":{
"Name":"多度南小学校体育館",
"Jusho":"三重県桑名市多度町力尾2304-2",
"Capacity":"150",
"la":"35.11824600000",
"ln":"136.62529900000"
},
"geometry":{
"type":"Point",
"coordinates":[
136.625299,
35.118246
]
}
},
{
"type":"Feature",
"properties":{
"Name":"多度北小学校体育館",
"Jusho":"三重県桑名市多度町香取2202",
"Capacity":"150",
"la":"35.13972800000",
"ln":"136.64927000000"
},
"geometry":{
"type":"Point",
"coordinates":[
136.64927,
35.139728
]
}
},
{
"type":"Feature",
"properties":{
"Name":"大山田西小学校",
"Jusho":"三重県桑名市野田2-8",
"Capacity":"400",
"la":"35.07962100000",
"ln":"136.63235400000"
},
"geometry":{
"type":"Point",
"coordinates":[
136.632354,
35.079621
]
}
},
{
"type":"Feature",
"properties":{
"Name":"大山田東小学校",
"Jusho":"三重県桑名市筒尾8－1－",
"Capacity":"500",
"la":"35.08078800000",
"ln":"136.64371400000"
},
"geometry":{
"type":"Point",
"coordinates":[
136.643714,
35.080788
]
}
},
{
"type":"Feature",
"properties":{
"Name":"大山田南小学校",
"Jusho":"三重県桑名市松ノ木6－1－",
"Capacity":"400",
"la":"35.07562900000",
"ln":"136.64048400000"
},
"geometry":{
"type":"Point",
"coordinates":[
136.640484,
35.075629
]
}
},
{
"type":"Feature",
"properties":{
"Name":"大山田北小学校",
"Jusho":"三重県桑名市大山田6-8",
"Capacity":"400",
"la":"35.08248200000",
"ln":"136.63621500000"
},
"geometry":{
"type":"Point",
"coordinates":[
136.636215,
35.082482
]
}
},
{
"type":"Feature",
"properties":{
"Name":"大成小学校",
"Jusho":"三重県桑名市東方2157",
"Capacity":"400",
"la":"35.07309500000",
"ln":"136.67696100000"
},
"geometry":{
"type":"Point",
"coordinates":[
136.676961,
35.073095
]
}
},
{
"type":"Feature",
"properties":{
"Name":"大和小学校",
"Jusho":"三重県桑名市播磨770",
"Capacity":"400",
"la":"35.08048300000",
"ln":"136.66915600000"
},
"geometry":{
"type":"Point",
"coordinates":[
136.669156,
35.080483
]
}
},
{
"type":"Feature",
"properties":{
"Name":"長島中部小学校",
"Jusho":"三重県桑名市長島町西外面2188",
"Capacity":"1700",
"la":"35.09228800000",
"ln":"136.69837600000"
},
"geometry":{
"type":"Point",
"coordinates":[
136.698376,
35.092288
]
}
},
{
"type":"Feature",
"properties":{
"Name":"長島北部小学校",
"Jusho":"三重県桑名市長島町西川423",
"Capacity":"1200",
"la":"35.11159100000",
"ln":"136.68595900000"
},
"geometry":{
"type":"Point",
"coordinates":[
136.685959,
35.111591
]
}
},
{
"type":"Feature",
"properties":{
"Name":"藤が丘小学校",
"Jusho":"三重県桑名市藤が丘6－09－",
"Capacity":"400",
"la":"35.07487200000",
"ln":"136.64826900000"
},
"geometry":{
"type":"Point",
"coordinates":[
136.648269,
35.074872
]
}
},
{
"type":"Feature",
"properties":{
"Name":"日進小学校",
"Jusho":"三重県桑名市新屋敷126",
"Capacity":"500",
"la":"35.05598600000",
"ln":"136.69107200000"
},
"geometry":{
"type":"Point",
"coordinates":[
136.691072,
35.055986
]
}
},
{
"type":"Feature",
"properties":{
"Name":"立教小学校",
"Jusho":"三重県桑名市吉之丸10",
"Capacity":"400",
"la":"35.06245800000",
"ln":"136.69759900000"
},
"geometry":{
"type":"Point",
"coordinates":[
136.697599,
35.062458
]
}
},
{
"type":"Feature",
"properties":{
"Name":"愛宕小学校",
"Jusho":"三重県鈴鹿市東江島町23－5",
"Capacity":"－",
"la":"34.84103400000",
"ln":"136.59922200000"
},
"geometry":{
"type":"Point",
"coordinates":[
136.599222,
34.841034
]
}
},
{
"type":"Feature",
"properties":{
"Name":"旭が丘小学校",
"Jusho":"三重県鈴鹿市東旭が丘五丁目3－8",
"Capacity":"－",
"la":"34.84700500000",
"ln":"136.58161200000"
},
"geometry":{
"type":"Point",
"coordinates":[
136.581612,
34.847005
]
}
},
{
"type":"Feature",
"properties":{
"Name":"井田川小学校",
"Jusho":"三重県鈴鹿市和泉町814",
"Capacity":"－",
"la":"34.87091900000",
"ln":"136.50520000000"
},
"geometry":{
"type":"Point",
"coordinates":[
136.5052,
34.870919
]
}
},
{
"type":"Feature",
"properties":{
"Name":"一ノ宮小学校",
"Jusho":"三重県鈴鹿市一ノ宮町557",
"Capacity":"－",
"la":"34.89847600000",
"ln":"136.59971900000"
},
"geometry":{
"type":"Point",
"coordinates":[
136.599719,
34.898476
]
}
},
{
"type":"Feature",
"properties":{
"Name":"稲生小学校",
"Jusho":"三重県鈴鹿市稲生三丁目10－",
"Capacity":"－",
"la":"34.83808900000",
"ln":"136.56022500000"
},
"geometry":{
"type":"Point",
"coordinates":[
136.560225,
34.838089
]
}
},
{
"type":"Feature",
"properties":{
"Name":"栄小学校",
"Jusho":"三重県鈴鹿市五祝町1845-2",
"Capacity":"－",
"la":"34.81720200000",
"ln":"136.55839200000"
},
"geometry":{
"type":"Point",
"coordinates":[
136.558392,
34.817202
]
}
},
{
"type":"Feature",
"properties":{
"Name":"加佐登小学校",
"Jusho":"三重県鈴鹿市高塚町1069",
"Capacity":"－",
"la":"34.89851900000",
"ln":"136.51520300000"
},
"geometry":{
"type":"Point",
"coordinates":[
136.515203,
34.898519
]
}
},
{
"type":"Feature",
"properties":{
"Name":"河曲小学校",
"Jusho":"三重県鈴鹿市十宮町719-2",
"Capacity":"－",
"la":"34.89202800000",
"ln":"136.57502900000"
},
"geometry":{
"type":"Point",
"coordinates":[
136.575029,
34.892028
]
}
},
{
"type":"Feature",
"properties":{
"Name":"玉垣小学校",
"Jusho":"三重県鈴鹿市北玉垣町947",
"Capacity":"－",
"la":"34.86455800000",
"ln":"136.58972200000"
},
"geometry":{
"type":"Point",
"coordinates":[
136.589722,
34.864558
]
}
},
{
"type":"Feature",
"properties":{
"Name":"郡山小学校",
"Jusho":"三重県鈴鹿市郡山町710-6",
"Capacity":"－",
"la":"34.81589700000",
"ln":"136.53564400000"
},
"geometry":{
"type":"Point",
"coordinates":[
136.535644,
34.815897
]
}
},
{
"type":"Feature",
"properties":{
"Name":"鼓ヶ浦小学校",
"Jusho":"三重県鈴鹿市寺家一丁目41－",
"Capacity":"－",
"la":"34.81567500000",
"ln":"136.57761200000"
},
"geometry":{
"type":"Point",
"coordinates":[
136.577612,
34.815675
]
}
},
{
"type":"Feature",
"properties":{
"Name":"合川小学校",
"Jusho":"三重県鈴鹿市三宅町3694-2",
"Capacity":"－",
"la":"34.81759100000",
"ln":"136.50331300000"
},
"geometry":{
"type":"Point",
"coordinates":[
136.503313,
34.817591
]
}
},
{
"type":"Feature",
"properties":{
"Name":"国府小学校",
"Jusho":"三重県鈴鹿市国府町2373－",
"Capacity":"－",
"la":"34.85761500000",
"ln":"136.50945000000"
},
"geometry":{
"type":"Point",
"coordinates":[
136.50945,
34.857615
]
}
},
{
"type":"Feature",
"properties":{
"Name":"桜島小学校",
"Jusho":"三重県鈴鹿市桜島町四丁目12",
"Capacity":"－",
"la":"34.85575400000",
"ln":"136.57680700000"
},
"geometry":{
"type":"Point",
"coordinates":[
136.576807,
34.855754
]
}
},
{
"type":"Feature",
"properties":{
"Name":"若松小学校",
"Jusho":"三重県鈴鹿市若松中一丁目4－",
"Capacity":"－",
"la":"34.85969800000",
"ln":"136.61338700000"
},
"geometry":{
"type":"Point",
"coordinates":[
136.613387,
34.859698
]
}
},
{
"type":"Feature",
"properties":{
"Name":"庄内小学校",
"Jusho":"三重県鈴鹿市東庄内町2458－",
"Capacity":"－",
"la":"34.92191200000",
"ln":"136.46251200000"
},
"geometry":{
"type":"Point",
"coordinates":[
136.462512,
34.921912
]
}
},
{
"type":"Feature",
"properties":{
"Name":"庄野小学校",
"Jusho":"三重県鈴鹿市庄野東二丁目5-35",
"Capacity":"－",
"la":"34.87858499910",
"ln":"136.52986500000"
},
"geometry":{
"type":"Point",
"coordinates":[
136.529865,
34.8785849991
]
}
},
{
"type":"Feature",
"properties":{
"Name":"深伊沢小学校",
"Jusho":"三重県鈴鹿市伊船町1693",
"Capacity":"－",
"la":"34.92832800000",
"ln":"136.48278700000"
},
"geometry":{
"type":"Point",
"coordinates":[
136.482787,
34.928328
]
}
},
{
"type":"Feature",
"properties":{
"Name":"神戸小学校",
"Jusho":"三重県鈴鹿市神戸二丁目12－0",
"Capacity":"－",
"la":"34.88491800000",
"ln":"136.57933400000"
},
"geometry":{
"type":"Point",
"coordinates":[
136.579334,
34.884918
]
}
},
{
"type":"Feature",
"properties":{
"Name":"清和小学校",
"Jusho":"三重県鈴鹿市算所五丁目21－2",
"Capacity":"－",
"la":"34.87630700000",
"ln":"136.55355800000"
},
"geometry":{
"type":"Point",
"coordinates":[
136.553558,
34.876307
]
}
},
{
"type":"Feature",
"properties":{
"Name":"石薬師小学校",
"Jusho":"三重県鈴鹿市石薬師町1713",
"Capacity":"－",
"la":"34.90383300000",
"ln":"136.54744700000"
},
"geometry":{
"type":"Point",
"coordinates":[
136.547447,
34.903833
]
}
},
{
"type":"Feature",
"properties":{
"Name":"長太小学校",
"Jusho":"三重県鈴鹿市長太旭町五丁目4-5",
"Capacity":"－",
"la":"34.89341800000",
"ln":"136.63088500000"
},
"geometry":{
"type":"Point",
"coordinates":[
136.630885,
34.893418
]
}
},
{
"type":"Feature",
"properties":{
"Name":"椿小学校",
"Jusho":"三重県鈴鹿市山本町750",
"Capacity":"－",
"la":"34.95921500000",
"ln":"136.46356600000"
},
"geometry":{
"type":"Point",
"coordinates":[
136.463566,
34.959215
]
}
},
{
"type":"Feature",
"properties":{
"Name":"天名小学校",
"Jusho":"三重県鈴鹿市御薗町2500",
"Capacity":"－",
"la":"34.82882100000",
"ln":"136.52882700000"
},
"geometry":{
"type":"Point",
"coordinates":[
136.528827,
34.828821
]
}
},
{
"type":"Feature",
"properties":{
"Name":"白子小学校",
"Jusho":"三重県鈴鹿市白子一丁目12－2",
"Capacity":"－",
"la":"34.83111800000",
"ln":"136.58747300000"
},
"geometry":{
"type":"Point",
"coordinates":[
136.587473,
34.831118
]
}
},
{
"type":"Feature",
"properties":{
"Name":"飯野小学校",
"Jusho":"三重県鈴鹿市三日市南二丁目1-7",
"Capacity":"－",
"la":"34.86455800000",
"ln":"136.55247500000"
},
"geometry":{
"type":"Point",
"coordinates":[
136.552475,
34.864558
]
}
},
{
"type":"Feature",
"properties":{
"Name":"牧田小学校",
"Jusho":"三重県鈴鹿市岡田一丁目29－",
"Capacity":"－",
"la":"34.88183400000",
"ln":"136.54789200000"
},
"geometry":{
"type":"Point",
"coordinates":[
136.547892,
34.881834
]
}
},
{
"type":"Feature",
"properties":{
"Name":"箕田小学校",
"Jusho":"三重県鈴鹿市南堀江一丁目1－",
"Capacity":"－",
"la":"34.88111600000",
"ln":"136.61920000000"
},
"geometry":{
"type":"Point",
"coordinates":[
136.6192,
34.881116
]
}
},
{
"type":"Feature",
"properties":{
"Name":"明生小学校",
"Jusho":"三重県鈴鹿市大池二丁目13－",
"Capacity":"－",
"la":"34.86658600000",
"ln":"136.54050400000"
},
"geometry":{
"type":"Point",
"coordinates":[
136.540504,
34.866586
]
}
},
{
"type":"Feature",
"properties":{
"Name":"鈴西小学校",
"Jusho":"三重県鈴鹿市深溝町3172－",
"Capacity":"－",
"la":"34.92802500000",
"ln":"136.51672700000"
},
"geometry":{
"type":"Point",
"coordinates":[
136.516727,
34.928025
]
}
},
{
"type":"Feature",
"properties":{
"Name":"（旧）長瀬小学校体育館",
"Jusho":"三重県名張市長瀬1418",
"Capacity":"－",
"la":"34.58755300000",
"ln":"136.17144100000"
},
"geometry":{
"type":"Point",
"coordinates":[
136.171441,
34.587553
]
}
},
{
"type":"Feature",
"properties":{
"Name":"すずらん台小学校",
"Jusho":"三重県名張市すずらん台東3番町219",
"Capacity":"－",
"la":"34.63365200000",
"ln":"136.16134400000"
},
"geometry":{
"type":"Point",
"coordinates":[
136.161344,
34.633652
]
}
},
{
"type":"Feature",
"properties":{
"Name":"つつじが丘小学校",
"Jusho":"三重県名張市つつじが丘北3番町5",
"Capacity":"－",
"la":"34.60761300000",
"ln":"136.13078100000"
},
"geometry":{
"type":"Point",
"coordinates":[
136.130781,
34.607613
]
}
},
{
"type":"Feature",
"properties":{
"Name":"桔梗が丘小学校",
"Jusho":"三重県名張市桔梗が丘3番町2街区67",
"Capacity":"－",
"la":"34.64450100000",
"ln":"136.11823200000"
},
"geometry":{
"type":"Point",
"coordinates":[
136.118232,
34.644501
]
}
},
{
"type":"Feature",
"properties":{
"Name":"桔梗が丘東小学校",
"Jusho":"三重県名張市桔梗が丘7番町1街区86",
"Capacity":"－",
"la":"34.64584700000",
"ln":"136.12921700000"
},
"geometry":{
"type":"Point",
"coordinates":[
136.129217,
34.645847
]
}
},
{
"type":"Feature",
"properties":{
"Name":"桔梗が丘南小学校",
"Jusho":"三重県名張市桔梗が丘5番町12街区38",
"Capacity":"－",
"la":"34.63699300000",
"ln":"136.12492100000"
},
"geometry":{
"type":"Point",
"coordinates":[
136.124921,
34.636993
]
}
},
{
"type":"Feature",
"properties":{
"Name":"錦生小学校",
"Jusho":"三重県名張市安部田2270",
"Capacity":"－",
"la":"34.59841100000",
"ln":"136.06120100000"
},
"geometry":{
"type":"Point",
"coordinates":[
136.061201,
34.598411
]
}
},
{
"type":"Feature",
"properties":{
"Name":"国津小学校",
"Jusho":"三重県名張市神屋1866",
"Capacity":"－",
"la":"34.58816300000",
"ln":"136.14191600000"
},
"geometry":{
"type":"Point",
"coordinates":[
136.141916,
34.588163
]
}
},
{
"type":"Feature",
"properties":{
"Name":"赤目小学校",
"Jusho":"三重県名張市赤目町檀116",
"Capacity":"－",
"la":"34.59880000000",
"ln":"136.07689300000"
},
"geometry":{
"type":"Point",
"coordinates":[
136.076893,
34.5988
]
}
},
{
"type":"Feature",
"properties":{
"Name":"薦原小学校",
"Jusho":"三重県名張市薦生1595",
"Capacity":"－",
"la":"34.65265600000",
"ln":"136.08872500000"
},
"geometry":{
"type":"Point",
"coordinates":[
136.088725,
34.652656
]
}
},
{
"type":"Feature",
"properties":{
"Name":"蔵持小学校",
"Jusho":"三重県名張市蔵持町原出338",
"Capacity":"－",
"la":"34.63624100000",
"ln":"136.10739000000"
},
"geometry":{
"type":"Point",
"coordinates":[
136.10739,
34.636241
]
}
},
{
"type":"Feature",
"properties":{
"Name":"滝之原小学校",
"Jusho":"三重県名張市滝之原1050",
"Capacity":"－",
"la":"34.63074200000",
"ln":"136.15627500000"
},
"geometry":{
"type":"Point",
"coordinates":[
136.156275,
34.630742
]
}
},
{
"type":"Feature",
"properties":{
"Name":"梅が丘小学校",
"Jusho":"三重県名張市梅が丘北1番町340",
"Capacity":"－",
"la":"34.63781700000",
"ln":"136.09103800000"
},
"geometry":{
"type":"Point",
"coordinates":[
136.091038,
34.637817
]
}
},
{
"type":"Feature",
"properties":{
"Name":"比奈知小学校",
"Jusho":"三重県名張市下比奈知1422",
"Capacity":"－",
"la":"34.62266000000",
"ln":"136.13063800000"
},
"geometry":{
"type":"Point",
"coordinates":[
136.130638,
34.62266
]
}
},
{
"type":"Feature",
"properties":{
"Name":"美旗小学校",
"Jusho":"三重県名張市新田117-2",
"Capacity":"－",
"la":"34.66518300000",
"ln":"136.13927400000"
},
"geometry":{
"type":"Point",
"coordinates":[
136.139274,
34.665183
]
}
},
{
"type":"Feature",
"properties":{
"Name":"百合が丘小学校",
"Jusho":"三重県名張市百合が丘東9番町1",
"Capacity":"－",
"la":"34.60453100000",
"ln":"136.10612500000"
},
"geometry":{
"type":"Point",
"coordinates":[
136.106125,
34.604531
]
}
},
{
"type":"Feature",
"properties":{
"Name":"箕曲小学校",
"Jusho":"三重県名張市夏見351",
"Capacity":"－",
"la":"34.61238200000",
"ln":"136.09708600000"
},
"geometry":{
"type":"Point",
"coordinates":[
136.097086,
34.612382
]
}
},
{
"type":"Feature",
"properties":{
"Name":"名張小学校",
"Jusho":"三重県名張市丸之内55",
"Capacity":"－",
"la":"34.62221400000",
"ln":"136.09175300000"
},
"geometry":{
"type":"Point",
"coordinates":[
136.091753,
34.622214
]
}
},
{
"type":"Feature",
"properties":{
"Name":"賀田小学校",
"Jusho":"三重県尾鷲市賀田町319",
"Capacity":"－",
"la":"33.97748400000",
"ln":"136.18900300000"
},
"geometry":{
"type":"Point",
"coordinates":[
136.189003,
33.977484
]
}
},
{
"type":"Feature",
"properties":{
"Name":"宮之上小学校",
"Jusho":"三重県尾鷲市宮ノ上町6-48",
"Capacity":"－",
"la":"34.07885500000",
"ln":"136.19357500000"
},
"geometry":{
"type":"Point",
"coordinates":[
136.193575,
34.078855
]
}
},
{
"type":"Feature",
"properties":{
"Name":"九鬼小学校",
"Jusho":"三重県尾鷲市九鬼町374－",
"Capacity":"－",
"la":"34.01450900000",
"ln":"136.25613500000"
},
"geometry":{
"type":"Point",
"coordinates":[
136.256135,
34.014509
]
}
},
{
"type":"Feature",
"properties":{
"Name":"元梶賀小学校",
"Jusho":"三重県尾鷲市梶賀町",
"Capacity":"－",
"la":"33.96419100000",
"ln":"136.21887300000"
},
"geometry":{
"type":"Point",
"coordinates":[
136.218873,
33.964191
]
}
},
{
"type":"Feature",
"properties":{
"Name":"元須賀利小学校体育館",
"Jusho":"三重県尾鷲市須賀利町285番1号",
"Capacity":"－",
"la":"34.10197200000",
"ln":"136.26449400000"
},
"geometry":{
"type":"Point",
"coordinates":[
136.264494,
34.101972
]
}
},
{
"type":"Feature",
"properties":{
"Name":"向井小学校",
"Jusho":"三重県尾鷲市向井134－2",
"Capacity":"－",
"la":"34.05819800000",
"ln":"136.21469300000"
},
"geometry":{
"type":"Point",
"coordinates":[
136.214693,
34.058198
]
}
},
{
"type":"Feature",
"properties":{
"Name":"行野小学校跡地",
"Jusho":"三重県尾鷲市行野浦",
"Capacity":"－",
"la":"34.06471741340",
"ln":"136.24302496500"
},
"geometry":{
"type":"Point",
"coordinates":[
136.243024965,
34.0647174134
]
}
},
{
"type":"Feature",
"properties":{
"Name":"三木小学校",
"Jusho":"三重県尾鷲市三木浦町391",
"Capacity":"－",
"la":"33.98740100000",
"ln":"136.24344300000"
},
"geometry":{
"type":"Point",
"coordinates":[
136.243443,
33.987401
]
}
},
{
"type":"Feature",
"properties":{
"Name":"三木里小学校",
"Jusho":"三重県尾鷲市三木里町638",
"Capacity":"－",
"la":"34.00209300000",
"ln":"136.20883400000"
},
"geometry":{
"type":"Point",
"coordinates":[
136.208834,
34.002093
]
}
},
{
"type":"Feature",
"properties":{
"Name":"早田小学校跡地",
"Jusho":"三重県尾鷲市早田町",
"Capacity":"－",
"la":"33.99951713670",
"ln":"136.25528605800"
},
"geometry":{
"type":"Point",
"coordinates":[
136.255286058,
33.9995171367
]
}
},
{
"type":"Feature",
"properties":{
"Name":"尾鷲小学校",
"Jusho":"三重県尾鷲市中村町4-58",
"Capacity":"－",
"la":"34.07300100000",
"ln":"136.19461200000"
},
"geometry":{
"type":"Point",
"coordinates":[
136.194612,
34.073001
]
}
},
{
"type":"Feature",
"properties":{
"Name":"矢浜小学校",
"Jusho":"三重県尾鷲市矢浜2-3-52",
"Capacity":"－",
"la":"34.06447400000",
"ln":"136.19763900000"
},
"geometry":{
"type":"Point",
"coordinates":[
136.197639,
34.064474
]
}
},
{
"type":"Feature",
"properties":{
"Name":"井田川小学校",
"Jusho":"三重県亀山市みどり町52",
"Capacity":"－",
"la":"34.86977900000",
"ln":"136.48281300000"
},
"geometry":{
"type":"Point",
"coordinates":[
136.482813,
34.869779
]
}
},
{
"type":"Feature",
"properties":{
"Name":"加太小学校",
"Jusho":"三重県亀山市加太板屋4569",
"Capacity":"－",
"la":"34.84108500000",
"ln":"136.32361100000"
},
"geometry":{
"type":"Point",
"coordinates":[
136.323611,
34.841085
]
}
},
{
"type":"Feature",
"properties":{
"Name":"関小学校",
"Jusho":"三重県亀山市関町木崎町1416",
"Capacity":"－",
"la":"34.85503100000",
"ln":"136.39222200000"
},
"geometry":{
"type":"Point",
"coordinates":[
136.392222,
34.855031
]
}
},
{
"type":"Feature",
"properties":{
"Name":"亀山西小学校",
"Jusho":"三重県亀山市本丸町585",
"Capacity":"－",
"la":"34.85653000000",
"ln":"136.45226400000"
},
"geometry":{
"type":"Point",
"coordinates":[
136.452264,
34.85653
]
}
},
{
"type":"Feature",
"properties":{
"Name":"亀山東小学校",
"Jusho":"三重県亀山市本町1丁目9-9",
"Capacity":"－",
"la":"34.85264200000",
"ln":"136.46134600000"
},
"geometry":{
"type":"Point",
"coordinates":[
136.461346,
34.852642
]
}
},
{
"type":"Feature",
"properties":{
"Name":"亀山南小学校",
"Jusho":"三重県亀山市天神3丁目10-25",
"Capacity":"－",
"la":"34.83867100000",
"ln":"136.45388500000"
},
"geometry":{
"type":"Point",
"coordinates":[
136.453885,
34.838671
]
}
},
{
"type":"Feature",
"properties":{
"Name":"神辺小学校",
"Jusho":"三重県亀山市太岡寺1310",
"Capacity":"－",
"la":"34.85650200000",
"ln":"136.41749000000"
},
"geometry":{
"type":"Point",
"coordinates":[
136.41749,
34.856502
]
}
},
{
"type":"Feature",
"properties":{
"Name":"川崎小学校",
"Jusho":"三重県亀山市能褒野町77-22",
"Capacity":"－",
"la":"34.88880500000",
"ln":"136.48112000000"
},
"geometry":{
"type":"Point",
"coordinates":[
136.48112,
34.888805
]
}
},
{
"type":"Feature",
"properties":{
"Name":"昼生小学校",
"Jusho":"三重県亀山市中庄町1405",
"Capacity":"－",
"la":"34.82458900000",
"ln":"136.47281800000"
},
"geometry":{
"type":"Point",
"coordinates":[
136.472818,
34.824589
]
}
},
{
"type":"Feature",
"properties":{
"Name":"白川小学校",
"Jusho":"三重県亀山市白木町2739",
"Capacity":"－",
"la":"34.88338700000",
"ln":"136.41274000000"
},
"geometry":{
"type":"Point",
"coordinates":[
136.41274,
34.883387
]
}
},
{
"type":"Feature",
"properties":{
"Name":"野登小学校",
"Jusho":"三重県亀山市両尾町2124",
"Capacity":"－",
"la":"34.90149600000",
"ln":"136.43334900000"
},
"geometry":{
"type":"Point",
"coordinates":[
136.433349,
34.901496
]
}
},
{
"type":"Feature",
"properties":{
"Name":"安楽島小学校",
"Jusho":"三重県鳥羽市安楽島町442－",
"Capacity":"－",
"la":"34.46294800000",
"ln":"136.85968300000"
},
"geometry":{
"type":"Point",
"coordinates":[
136.859683,
34.462948
]
}
},
{
"type":"Feature",
"properties":{
"Name":"加茂小学校",
"Jusho":"三重県鳥羽市岩倉町10",
"Capacity":"－",
"la":"34.44511600000",
"ln":"136.84479600000"
},
"geometry":{
"type":"Point",
"coordinates":[
136.844796,
34.445116
]
}
},
{
"type":"Feature",
"properties":{
"Name":"鏡浦小学校",
"Jusho":"三重県鳥羽市浦村町1751-4",
"Capacity":"－",
"la":"34.44781100000",
"ln":"136.90120700000"
},
"geometry":{
"type":"Point",
"coordinates":[
136.901207,
34.447811
]
}
},
{
"type":"Feature",
"properties":{
"Name":"弘道小学校",
"Jusho":"三重県鳥羽市相差町1014",
"Capacity":"－",
"la":"34.38915100000",
"ln":"136.90293100000"
},
"geometry":{
"type":"Point",
"coordinates":[
136.902931,
34.389151
]
}
},
{
"type":"Feature",
"properties":{
"Name":"国崎小学校",
"Jusho":"三重県鳥羽市国崎町1302",
"Capacity":"－",
"la":"34.41589900000",
"ln":"136.92362300000"
},
"geometry":{
"type":"Point",
"coordinates":[
136.923623,
34.415899
]
}
},
{
"type":"Feature",
"properties":{
"Name":"坂手小学校体育館",
"Jusho":"三重県鳥羽市",
"Capacity":"－",
"la":"34.48611200000",
"ln":"136.86121000000"
},
"geometry":{
"type":"Point",
"coordinates":[
136.86121,
34.486112
]
}
},
{
"type":"Feature",
"properties":{
"Name":"小浜小学校",
"Jusho":"三重県鳥羽市小浜町97",
"Capacity":"－",
"la":"34.49841600000",
"ln":"136.83365500000"
},
"geometry":{
"type":"Point",
"coordinates":[
136.833655,
34.498416
]
}
},
{
"type":"Feature",
"properties":{
"Name":"菅島小学校",
"Jusho":"三重県鳥羽市菅島町1-2",
"Capacity":"－",
"la":"34.49841800000",
"ln":"136.89981700000"
},
"geometry":{
"type":"Point",
"coordinates":[
136.899817,
34.498418
]
}
},
{
"type":"Feature",
"properties":{
"Name":"鳥羽小学校",
"Jusho":"三重県鳥羽市鳥羽3－-61",
"Capacity":"－",
"la":"34.48030700000",
"ln":"136.84468300000"
},
"geometry":{
"type":"Point",
"coordinates":[
136.844683,
34.480307
]
}
},
{
"type":"Feature",
"properties":{
"Name":"桃取小学校",
"Jusho":"三重県鳥羽市桃取町21",
"Capacity":"－",
"la":"34.51183200000",
"ln":"136.85048700000"
},
"geometry":{
"type":"Point",
"coordinates":[
136.850487,
34.511832
]
}
},
{
"type":"Feature",
"properties":{
"Name":"答志小学校",
"Jusho":"三重県鳥羽市答志町941－",
"Capacity":"－",
"la":"34.52489916380",
"ln":"136.89995648500"
},
"geometry":{
"type":"Point",
"coordinates":[
136.899956485,
34.5248991638
]
}
},
{
"type":"Feature",
"properties":{
"Name":"井戸小学校",
"Jusho":"三重県熊野市井戸町238",
"Capacity":"－",
"la":"33.89004700000",
"ln":"136.09109500000"
},
"geometry":{
"type":"Point",
"coordinates":[
136.091095,
33.890047
]
}
},
{
"type":"Feature",
"properties":{
"Name":"旧育生小学校",
"Jusho":"三重県熊野市育生町尾川",
"Capacity":"－",
"la":"33.92170800000",
"ln":"135.98360300000"
},
"geometry":{
"type":"Point",
"coordinates":[
135.983603,
33.921708
]
}
},
{
"type":"Feature",
"properties":{
"Name":"旧波田須小学校",
"Jusho":"三重県熊野市波田須町",
"Capacity":"－",
"la":"33.91376799910",
"ln":"136.13645300000"
},
"geometry":{
"type":"Point",
"coordinates":[
136.136453,
33.9137679991
]
}
},
{
"type":"Feature",
"properties":{
"Name":"旧泊小学校",
"Jusho":"三重県熊野市磯崎町",
"Capacity":"－",
"la":"33.89524799910",
"ln":"136.12676300000"
},
"geometry":{
"type":"Point",
"coordinates":[
136.126763,
33.8952479991
]
}
},
{
"type":"Feature",
"properties":{
"Name":"旧飛鳥小学校",
"Jusho":"三重県熊野市飛鳥町大又",
"Capacity":"－",
"la":"33.96295600000",
"ln":"136.10584200000"
},
"geometry":{
"type":"Point",
"coordinates":[
136.105842,
33.962956
]
}
},
{
"type":"Feature",
"properties":{
"Name":"金山小学校",
"Jusho":"三重県熊野市金山町2370-2",
"Capacity":"－",
"la":"33.86582700000",
"ln":"136.05704300000"
},
"geometry":{
"type":"Point",
"coordinates":[
136.057043,
33.865827
]
}
},
{
"type":"Feature",
"properties":{
"Name":"五郷小学校",
"Jusho":"三重県熊野市五郷町寺谷1123",
"Capacity":"－",
"la":"33.98524200000",
"ln":"136.04920400000"
},
"geometry":{
"type":"Point",
"coordinates":[
136.049204,
33.985242
]
}
},
{
"type":"Feature",
"properties":{
"Name":"荒坂小学校",
"Jusho":"三重県熊野市二木島町729",
"Capacity":"－",
"la":"33.94176500000",
"ln":"136.18017100000"
},
"geometry":{
"type":"Point",
"coordinates":[
136.180171,
33.941765
]
}
},
{
"type":"Feature",
"properties":{
"Name":"入鹿小学校",
"Jusho":"三重県熊野市紀和町大栗須1",
"Capacity":"－",
"la":"33.87692100000",
"ln":"135.92851200000"
},
"geometry":{
"type":"Point",
"coordinates":[
135.928512,
33.876921
]
}
},
{
"type":"Feature",
"properties":{
"Name":"飛鳥中学校（旧小阪小学校）",
"Jusho":"三重県熊野市飛鳥町小阪",
"Capacity":"－",
"la":"33.94256900000",
"ln":"136.09631500000"
},
"geometry":{
"type":"Point",
"coordinates":[
136.096315,
33.942569
]
}
},
{
"type":"Feature",
"properties":{
"Name":"木本小学校",
"Jusho":"三重県熊野市木本町349－0",
"Capacity":"－",
"la":"33.89099200000",
"ln":"136.10173300000"
},
"geometry":{
"type":"Point",
"coordinates":[
136.101733,
33.890992
]
}
},
{
"type":"Feature",
"properties":{
"Name":"有馬小学校",
"Jusho":"三重県熊野市有馬町530",
"Capacity":"－",
"la":"33.87568800000",
"ln":"136.08617900000"
},
"geometry":{
"type":"Point",
"coordinates":[
136.086179,
33.875688
]
}
},
{
"type":"Feature",
"properties":{
"Name":"遊木小学校",
"Jusho":"三重県熊野市遊木町108",
"Capacity":"－",
"la":"33.92862800000",
"ln":"136.17522700000"
},
"geometry":{
"type":"Point",
"coordinates":[
136.175227,
33.928628
]
}
},
{
"type":"Feature",
"properties":{
"Name":"員弁西小学校",
"Jusho":"三重県いなべ市員弁町笠田新田607",
"Capacity":"－",
"la":"35.11514500000",
"ln":"136.55463800000"
},
"geometry":{
"type":"Point",
"coordinates":[
136.554638,
35.115145
]
}
},
{
"type":"Feature",
"properties":{
"Name":"員弁東小学校",
"Jusho":"三重県いなべ市員弁町大泉1201",
"Capacity":"－",
"la":"35.09909100000",
"ln":"136.56808200000"
},
"geometry":{
"type":"Point",
"coordinates":[
136.568082,
35.099091
]
}
},
{
"type":"Feature",
"properties":{
"Name":"笠間小学校",
"Jusho":"三重県いなべ市大安町門前561",
"Capacity":"－",
"la":"35.08291800000",
"ln":"136.55260100000"
},
"geometry":{
"type":"Point",
"coordinates":[
136.552601,
35.082918
]
}
},
{
"type":"Feature",
"properties":{
"Name":"三里小学校",
"Jusho":"三重県いなべ市大安町平塚1247",
"Capacity":"－",
"la":"35.10262100000",
"ln":"136.53507300000"
},
"geometry":{
"type":"Point",
"coordinates":[
136.535073,
35.102621
]
}
},
{
"type":"Feature",
"properties":{
"Name":"山郷小学校",
"Jusho":"三重県いなべ市北勢町大辻新田276",
"Capacity":"－",
"la":"35.14966500000",
"ln":"136.54180900000"
},
"geometry":{
"type":"Point",
"coordinates":[
136.541809,
35.149665
]
}
},
{
"type":"Feature",
"properties":{
"Name":"治田小学校",
"Jusho":"三重県いなべ市北勢町東村30－",
"Capacity":"－",
"la":"35.13200100000",
"ln":"136.51158800000"
},
"geometry":{
"type":"Point",
"coordinates":[
136.511588,
35.132001
]
}
},
{
"type":"Feature",
"properties":{
"Name":"十社小学校",
"Jusho":"三重県いなべ市北勢町畑毛634",
"Capacity":"－",
"la":"35.18308100000",
"ln":"136.52486700000"
},
"geometry":{
"type":"Point",
"coordinates":[
136.524867,
35.183081
]
}
},
{
"type":"Feature",
"properties":{
"Name":"石榑小学校",
"Jusho":"三重県いなべ市大安町石榑南611",
"Capacity":"－",
"la":"35.10535400000",
"ln":"136.50392300000"
},
"geometry":{
"type":"Point",
"coordinates":[
136.503923,
35.105354
]
}
},
{
"type":"Feature",
"properties":{
"Name":"丹生川小学校",
"Jusho":"三重県いなべ市大安町丹生川中1189",
"Capacity":"－",
"la":"35.12301800000",
"ln":"136.52081600000"
},
"geometry":{
"type":"Point",
"coordinates":[
136.520816,
35.123018
]
}
},
{
"type":"Feature",
"properties":{
"Name":"中里小学校",
"Jusho":"三重県いなべ市藤原町上相場828",
"Capacity":"－",
"la":"35.19293200000",
"ln":"136.49327900000"
},
"geometry":{
"type":"Point",
"coordinates":[
136.493279,
35.192932
]
}
},
{
"type":"Feature",
"properties":{
"Name":"東藤原小学校",
"Jusho":"三重県いなべ市藤原町石川989",
"Capacity":"－",
"la":"35.15804000000",
"ln":"136.49825900000"
},
"geometry":{
"type":"Point",
"coordinates":[
136.498259,
35.15804
]
}
},
{
"type":"Feature",
"properties":{
"Name":"白瀬小学校",
"Jusho":"三重県いなべ市藤原町本郷303",
"Capacity":"－",
"la":"35.18490300000",
"ln":"136.47838800000"
},
"geometry":{
"type":"Point",
"coordinates":[
136.478388,
35.184903
]
}
},
{
"type":"Feature",
"properties":{
"Name":"立田小学校",
"Jusho":"三重県いなべ市藤原町古田1618",
"Capacity":"－",
"la":"35.22040200000",
"ln":"136.45807700000"
},
"geometry":{
"type":"Point",
"coordinates":[
136.458077,
35.220402
]
}
},
{
"type":"Feature",
"properties":{
"Name":"磯部小学校",
"Jusho":"三重県志摩市磯部町恵利原1275",
"Capacity":"－",
"la":"34.37410700000",
"ln":"136.80220500000"
},
"geometry":{
"type":"Point",
"coordinates":[
136.802205,
34.374107
]
}
},
{
"type":"Feature",
"properties":{
"Name":"鵜方小学校",
"Jusho":"三重県志摩市阿児町鵜方177-5",
"Capacity":"－",
"la":"34.33270600000",
"ln":"136.82593400000"
},
"geometry":{
"type":"Point",
"coordinates":[
136.825934,
34.332706
]
}
},
{
"type":"Feature",
"properties":{
"Name":"越賀小学校",
"Jusho":"三重県志摩市志摩町越賀1572",
"Capacity":"－",
"la":"34.26374700000",
"ln":"136.79190800000"
},
"geometry":{
"type":"Point",
"coordinates":[
136.791908,
34.263747
]
}
},
{
"type":"Feature",
"properties":{
"Name":"旧迫塩小学校（体育館）",
"Jusho":"三重県志摩市浜島町迫子497",
"Capacity":"－",
"la":"34.31638800000",
"ln":"136.77843000000"
},
"geometry":{
"type":"Point",
"coordinates":[
136.77843,
34.316388
]
}
},
{
"type":"Feature",
"properties":{
"Name":"御座小学校",
"Jusho":"三重県志摩市志摩町御座630",
"Capacity":"－",
"la":"34.27424900000",
"ln":"136.76705600000"
},
"geometry":{
"type":"Point",
"coordinates":[
136.767056,
34.274249
]
}
},
{
"type":"Feature",
"properties":{
"Name":"甲賀小学校",
"Jusho":"三重県志摩市阿児町甲賀2385",
"Capacity":"－",
"la":"34.31929700000",
"ln":"136.88022600000"
},
"geometry":{
"type":"Point",
"coordinates":[
136.880226,
34.319297
]
}
},
{
"type":"Feature",
"properties":{
"Name":"国府小学校",
"Jusho":"三重県志摩市阿児町国府2426",
"Capacity":"－",
"la":"34.33973700000",
"ln":"136.87300000000"
},
"geometry":{
"type":"Point",
"coordinates":[
136.873,
34.339737
]
}
},
{
"type":"Feature",
"properties":{
"Name":"志島小学校",
"Jusho":"三重県志摩市阿児町志島532",
"Capacity":"－",
"la":"34.31066200000",
"ln":"136.88725700000"
},
"geometry":{
"type":"Point",
"coordinates":[
136.887257,
34.310662
]
}
},
{
"type":"Feature",
"properties":{
"Name":"神明小学校",
"Jusho":"三重県志摩市阿児町神明522－",
"Capacity":"－",
"la":"34.31157200000",
"ln":"136.83355200000"
},
"geometry":{
"type":"Point",
"coordinates":[
136.833552,
34.311572
]
}
},
{
"type":"Feature",
"properties":{
"Name":"成基小学校",
"Jusho":"三重県志摩市磯部町山原785",
"Capacity":"－",
"la":"34.35744200000",
"ln":"136.76832200000"
},
"geometry":{
"type":"Point",
"coordinates":[
136.768322,
34.357442
]
}
},
{
"type":"Feature",
"properties":{
"Name":"船越小学校",
"Jusho":"三重県志摩市大王町船越1805",
"Capacity":"－",
"la":"34.27286200000",
"ln":"136.86323700000"
},
"geometry":{
"type":"Point",
"coordinates":[
136.863237,
34.272862
]
}
},
{
"type":"Feature",
"properties":{
"Name":"波切小学校※改修中のため使用中止（Ｈ２４．１．１現在）",
"Jusho":"三重県志摩市大王町波切877-3",
"Capacity":"－",
"la":"34.27863500000",
"ln":"136.89375200000"
},
"geometry":{
"type":"Point",
"coordinates":[
136.893752,
34.278635
]
}
},
{
"type":"Feature",
"properties":{
"Name":"畔名小学校",
"Jusho":"三重県志摩市大王町畔名54－",
"Capacity":"－",
"la":"34.30172200000",
"ln":"136.88447400000"
},
"geometry":{
"type":"Point",
"coordinates":[
136.884474,
34.301722
]
}
},
{
"type":"Feature",
"properties":{
"Name":"浜島小学校",
"Jusho":"三重県志摩市浜島町浜島1112",
"Capacity":"－",
"la":"34.29859400000",
"ln":"136.74908800000"
},
"geometry":{
"type":"Point",
"coordinates":[
136.749088,
34.298594
]
}
},
{
"type":"Feature",
"properties":{
"Name":"布施田小学校",
"Jusho":"三重県志摩市志摩町布施田1016-5",
"Capacity":"－",
"la":"34.25901800000",
"ln":"136.82515600000"
},
"geometry":{
"type":"Point",
"coordinates":[
136.825156,
34.259018
]
}
},
{
"type":"Feature",
"properties":{
"Name":"片田小学校",
"Jusho":"三重県志摩市志摩町片田2393",
"Capacity":"－",
"la":"34.25450500000",
"ln":"136.84419700000"
},
"geometry":{
"type":"Point",
"coordinates":[
136.844197,
34.254505
]
}
},
{
"type":"Feature",
"properties":{
"Name":"立神小学校",
"Jusho":"三重県志摩市阿児町立神1538",
"Capacity":"－",
"la":"34.29937800000",
"ln":"136.85659600000"
},
"geometry":{
"type":"Point",
"coordinates":[
136.856596,
34.299378
]
}
},
{
"type":"Feature",
"properties":{
"Name":"和具小学校",
"Jusho":"三重県志摩市志摩町和具314－",
"Capacity":"－",
"la":"34.25871400000",
"ln":"136.80972800000"
},
"geometry":{
"type":"Point",
"coordinates":[
136.809728,
34.258714
]
}
},
{
"type":"Feature",
"properties":{
"Name":"依那古小学校",
"Jusho":"三重県伊賀市沖265",
"Capacity":"－",
"la":"34.72048400000",
"ln":"136.15241000000"
},
"geometry":{
"type":"Point",
"coordinates":[
136.15241,
34.720484
]
}
},
{
"type":"Feature",
"properties":{
"Name":"河合小学校",
"Jusho":"三重県伊賀市馬場1045",
"Capacity":"－",
"la":"34.82697400000",
"ln":"136.17757300000"
},
"geometry":{
"type":"Point",
"coordinates":[
136.177573,
34.826974
]
}
},
{
"type":"Feature",
"properties":{
"Name":"花垣小学校",
"Jusho":"三重県伊賀市予野9669",
"Capacity":"－",
"la":"34.70562300000",
"ln":"136.09352800000"
},
"geometry":{
"type":"Point",
"coordinates":[
136.093528,
34.705623
]
}
},
{
"type":"Feature",
"properties":{
"Name":"花之木小学校",
"Jusho":"三重県伊賀市大内624",
"Capacity":"－",
"la":"34.73720300000",
"ln":"136.10280200000"
},
"geometry":{
"type":"Point",
"coordinates":[
136.102802,
34.737203
]
}
},
{
"type":"Feature",
"properties":{
"Name":"丸柱小学校",
"Jusho":"三重県伊賀市諏訪839",
"Capacity":"－",
"la":"34.82788900000",
"ln":"136.11982600000"
},
"geometry":{
"type":"Point",
"coordinates":[
136.119826,
34.827889
]
}
},
{
"type":"Feature",
"properties":{
"Name":"久米小学校",
"Jusho":"三重県伊賀市久米町544",
"Capacity":"－",
"la":"34.75511900000",
"ln":"136.13038300000"
},
"geometry":{
"type":"Point",
"coordinates":[
136.130383,
34.755119
]
}
},
{
"type":"Feature",
"properties":{
"Name":"旧比自岐小学校",
"Jusho":"三重県伊賀市比自岐512",
"Capacity":"－",
"la":"34.70868000000",
"ln":"136.18554600000"
},
"geometry":{
"type":"Point",
"coordinates":[
136.185546,
34.70868
]
}
},
{
"type":"Feature",
"properties":{
"Name":"玉滝小学校",
"Jusho":"三重県伊賀市玉滝9536-2",
"Capacity":"－",
"la":"34.86856800000",
"ln":"136.16333900000"
},
"geometry":{
"type":"Point",
"coordinates":[
136.163339,
34.868568
]
}
},
{
"type":"Feature",
"properties":{
"Name":"古山小学校",
"Jusho":"三重県伊賀市蔵縄手440－",
"Capacity":"－",
"la":"34.69328100000",
"ln":"136.11754700000"
},
"geometry":{
"type":"Point",
"coordinates":[
136.117547,
34.693281
]
}
},
{
"type":"Feature",
"properties":{
"Name":"三田小学校",
"Jusho":"三重県伊賀市三田1652",
"Capacity":"－",
"la":"34.79256000000",
"ln":"136.12888200000"
},
"geometry":{
"type":"Point",
"coordinates":[
136.128882,
34.79256
]
}
},
{
"type":"Feature",
"properties":{
"Name":"上野西小学校",
"Jusho":"三重県伊賀市上野丸之内112",
"Capacity":"－",
"la":"34.76850600000",
"ln":"136.12849400000"
},
"geometry":{
"type":"Point",
"coordinates":[
136.128494,
34.768506
]
}
},
{
"type":"Feature",
"properties":{
"Name":"上野東小学校",
"Jusho":"三重県伊賀市緑ヶ丘中町4352",
"Capacity":"－",
"la":"34.75989600000",
"ln":"136.14538100000"
},
"geometry":{
"type":"Point",
"coordinates":[
136.145381,
34.759896
]
}
},
{
"type":"Feature",
"properties":{
"Name":"新居小学校",
"Jusho":"三重県伊賀市西高倉3146",
"Capacity":"－",
"la":"34.78675400000",
"ln":"136.10693900000"
},
"geometry":{
"type":"Point",
"coordinates":[
136.106939,
34.786754
]
}
},
{
"type":"Feature",
"properties":{
"Name":"神戸小学校",
"Jusho":"三重県伊賀市上神戸40",
"Capacity":"－",
"la":"34.68770900000",
"ln":"136.15357800000"
},
"geometry":{
"type":"Point",
"coordinates":[
136.153578,
34.687709
]
}
},
{
"type":"Feature",
"properties":{
"Name":"壬生野小学校",
"Jusho":"三重県伊賀市川東1786-3",
"Capacity":"－",
"la":"34.79725600000",
"ln":"136.21007000000"
},
"geometry":{
"type":"Point",
"coordinates":[
136.21007,
34.797256
]
}
},
{
"type":"Feature",
"properties":{
"Name":"西柘植小学校",
"Jusho":"三重県伊賀市新堂160",
"Capacity":"－",
"la":"34.82008700000",
"ln":"136.21084800000"
},
"geometry":{
"type":"Point",
"coordinates":[
136.210848,
34.820087
]
}
},
{
"type":"Feature",
"properties":{
"Name":"青山小学校",
"Jusho":"三重県伊賀市阿保1789",
"Capacity":"－",
"la":"34.66501800000",
"ln":"136.18449300000"
},
"geometry":{
"type":"Point",
"coordinates":[
136.184493,
34.665018
]
}
},
{
"type":"Feature",
"properties":{
"Name":"大山田小学校",
"Jusho":"三重県伊賀市平田25",
"Capacity":"－",
"la":"34.76803600000",
"ln":"136.21126500000"
},
"geometry":{
"type":"Point",
"coordinates":[
136.211265,
34.768036
]
}
},
{
"type":"Feature",
"properties":{
"Name":"中瀬小学校",
"Jusho":"三重県伊賀市西明寺105",
"Capacity":"－",
"la":"34.77359000000",
"ln":"136.15482500000"
},
"geometry":{
"type":"Point",
"coordinates":[
136.154825,
34.77359
]
}
},
{
"type":"Feature",
"properties":{
"Name":"猪田小学校",
"Jusho":"三重県伊賀市猪田1350",
"Capacity":"－",
"la":"34.72726000000",
"ln":"136.13063400000"
},
"geometry":{
"type":"Point",
"coordinates":[
136.130634,
34.72726
]
}
},
{
"type":"Feature",
"properties":{
"Name":"長田小学校",
"Jusho":"三重県伊賀市長田2312－",
"Capacity":"－",
"la":"34.76411700000",
"ln":"136.10496800000"
},
"geometry":{
"type":"Point",
"coordinates":[
136.104968,
34.764117
]
}
},
{
"type":"Feature",
"properties":{
"Name":"柘植小学校",
"Jusho":"三重県伊賀市柘植町2343",
"Capacity":"－",
"la":"34.84222400000",
"ln":"136.24548300000"
},
"geometry":{
"type":"Point",
"coordinates":[
136.245483,
34.842224
]
}
},
{
"type":"Feature",
"properties":{
"Name":"島ヶ原小学校",
"Jusho":"三重県伊賀市島ヶ原514-2",
"Capacity":"－",
"la":"34.77743539450",
"ln":"136.05664257400"
},
"geometry":{
"type":"Point",
"coordinates":[
136.056642574,
34.7774353945
]
}
},
{
"type":"Feature",
"properties":{
"Name":"府中小学校",
"Jusho":"三重県伊賀市東条88",
"Capacity":"－",
"la":"34.79149300000",
"ln":"136.15230600000"
},
"geometry":{
"type":"Point",
"coordinates":[
136.152306,
34.791493
]
}
},
{
"type":"Feature",
"properties":{
"Name":"友生小学校",
"Jusho":"三重県伊賀市ゆめが丘二丁目11",
"Capacity":"－",
"la":"34.73689800000",
"ln":"136.16426900000"
},
"geometry":{
"type":"Point",
"coordinates":[
136.164269,
34.736898
]
}
},
{
"type":"Feature",
"properties":{
"Name":"鞆田小学校",
"Jusho":"三重県伊賀市中友田1000",
"Capacity":"－",
"la":"34.84822200000",
"ln":"136.19915400000"
},
"geometry":{
"type":"Point",
"coordinates":[
136.199154,
34.848222
]
}
},
{
"type":"Feature",
"properties":{
"Name":"木曽岬町立小学校",
"Jusho":"三重県桑名郡木曽岬町大字田代160",
"Capacity":"－",
"la":"35.07454099910",
"ln":"136.73170600000"
},
"geometry":{
"type":"Point",
"coordinates":[
136.731706,
35.0745409991
]
}
},
{
"type":"Feature",
"properties":{
"Name":"稲部小学校",
"Jusho":"三重県員弁郡東員町大木944番地",
"Capacity":"－",
"la":"35.08323100000",
"ln":"136.57447000000"
},
"geometry":{
"type":"Point",
"coordinates":[
136.57447,
35.083231
]
}
},
{
"type":"Feature",
"properties":{
"Name":"笹尾西小学校",
"Jusho":"三重県員弁郡東員町笹尾西2丁目1番1",
"Capacity":"－",
"la":"35.09986900000",
"ln":"136.59258000000"
},
"geometry":{
"type":"Point",
"coordinates":[
136.59258,
35.099869
]
}
},
{
"type":"Feature",
"properties":{
"Name":"笹尾東小学校",
"Jusho":"三重県員弁郡東員町笹尾東4丁目28番",
"Capacity":"－",
"la":"35.10203500000",
"ln":"136.60305100000"
},
"geometry":{
"type":"Point",
"coordinates":[
136.603051,
35.102035
]
}
},
{
"type":"Feature",
"properties":{
"Name":"三和小学校",
"Jusho":"三重県員弁郡東員町長深700番地",
"Capacity":"－",
"la":"35.06455984400",
"ln":"136.57723682900"
},
"geometry":{
"type":"Point",
"coordinates":[
136.577236829,
35.064559844
]
}
},
{
"type":"Feature",
"properties":{
"Name":"城山小学校",
"Jusho":"三重県員弁郡東員町城山1丁目48番",
"Capacity":"－",
"la":"35.09081400000",
"ln":"136.60549500000"
},
"geometry":{
"type":"Point",
"coordinates":[
136.605495,
35.090814
]
}
},
{
"type":"Feature",
"properties":{
"Name":"神田小学校",
"Jusho":"三重県員弁郡東員町六把野新田100番地",
"Capacity":"－",
"la":"35.07837000000",
"ln":"136.59285700000"
},
"geometry":{
"type":"Point",
"coordinates":[
136.592857,
35.07837
]
}
},
{
"type":"Feature",
"properties":{
"Name":"鵜川原小学校",
"Jusho":"三重県三重郡菰野町大強原913",
"Capacity":"220",
"la":"35.02729200000",
"ln":"136.53800200000"
},
"geometry":{
"type":"Point",
"coordinates":[
136.538002,
35.027292
]
}
},
{
"type":"Feature",
"properties":{
"Name":"鵜川原小学校・鵜川原保育園",
"Jusho":"三重県三重郡菰野町",
"Capacity":"270",
"la":"35.02648699910",
"ln":"136.53694600000"
},
"geometry":{
"type":"Point",
"coordinates":[
136.536946,
35.0264869991
]
}
},
{
"type":"Feature",
"properties":{
"Name":"菰野小学校",
"Jusho":"三重県三重郡菰野町菰野1490",
"Capacity":"380",
"la":"35.01232100000",
"ln":"136.50933800000"
},
"geometry":{
"type":"Point",
"coordinates":[
136.509338,
35.012321
]
}
},
{
"type":"Feature",
"properties":{
"Name":"菰野小学校・菰野保育園",
"Jusho":"三重県三重郡菰野町",
"Capacity":"440",
"la":"35.01359900000",
"ln":"136.50756000000"
},
"geometry":{
"type":"Point",
"coordinates":[
136.50756,
35.013599
]
}
},
{
"type":"Feature",
"properties":{
"Name":"菰野小学校・菰野幼稚園",
"Jusho":"三重県三重郡菰野町",
"Capacity":"240",
"la":"35.01271000000",
"ln":"136.51025400000"
},
"geometry":{
"type":"Point",
"coordinates":[
136.510254,
35.01271
]
}
},
{
"type":"Feature",
"properties":{
"Name":"千種小学校",
"Jusho":"三重県三重郡菰野町千草3861",
"Capacity":"380",
"la":"35.02979100000",
"ln":"136.50258800000"
},
"geometry":{
"type":"Point",
"coordinates":[
136.502588,
35.029791
]
}
},
{
"type":"Feature",
"properties":{
"Name":"千種小学校・千種保育園",
"Jusho":"三重県三重郡菰野町",
"Capacity":"420",
"la":"35.02829099910",
"ln":"136.50356000000"
},
"geometry":{
"type":"Point",
"coordinates":[
136.50356,
35.0282909991
]
}
},
{
"type":"Feature",
"properties":{
"Name":"千種小学校・千種幼稚園",
"Jusho":"三重県三重郡菰野町",
"Capacity":"170",
"la":"35.03026299910",
"ln":"136.50367100000"
},
"geometry":{
"type":"Point",
"coordinates":[
136.503671,
35.0302629991
]
}
},
{
"type":"Feature",
"properties":{
"Name":"竹永小学校",
"Jusho":"三重県三重郡菰野町竹成2593-5",
"Capacity":"250",
"la":"35.05093300000",
"ln":"136.52125600000"
},
"geometry":{
"type":"Point",
"coordinates":[
136.521256,
35.050933
]
}
},
{
"type":"Feature",
"properties":{
"Name":"竹永小学校・竹永保育園",
"Jusho":"三重県三重郡菰野町",
"Capacity":"120",
"la":"35.05176100000",
"ln":"136.52514100000"
},
"geometry":{
"type":"Point",
"coordinates":[
136.525141,
35.051761
]
}
},
{
"type":"Feature",
"properties":{
"Name":"朝上小学校",
"Jusho":"三重県三重郡菰野町田光66",
"Capacity":"300",
"la":"35.06931400000",
"ln":"136.50800400000"
},
"geometry":{
"type":"Point",
"coordinates":[
136.508004,
35.069314
]
}
},
{
"type":"Feature",
"properties":{
"Name":"朝上小学校・朝上保育園",
"Jusho":"三重県三重郡菰野町",
"Capacity":"410",
"la":"35.06987000000",
"ln":"136.51164200000"
},
"geometry":{
"type":"Point",
"coordinates":[
136.511642,
35.06987
]
}
},
{
"type":"Feature",
"properties":{
"Name":"朝上小学校・朝上幼稚園",
"Jusho":"三重県三重郡菰野町",
"Capacity":"270",
"la":"35.06800899910",
"ln":"136.51003100000"
},
"geometry":{
"type":"Point",
"coordinates":[
136.510031,
35.0680089991
]
}
},
{
"type":"Feature",
"properties":{
"Name":"朝日小学校",
"Jusho":"三重県三重郡朝日町柿750番地",
"Capacity":"1000",
"la":"35.03362600000",
"ln":"136.66535200000"
},
"geometry":{
"type":"Point",
"coordinates":[
136.665352,
35.033626
]
}
},
{
"type":"Feature",
"properties":{
"Name":"川越町立川越南小学校",
"Jusho":"三重県三重郡川越町大字高松258番地",
"Capacity":"－",
"la":"35.02223900000",
"ln":"136.66624100000"
},
"geometry":{
"type":"Point",
"coordinates":[
136.666241,
35.022239
]
}
},
{
"type":"Feature",
"properties":{
"Name":"川越町立川越北小学校",
"Jusho":"三重県三重郡川越町大字豊田一色69番地",
"Capacity":"－",
"la":"35.02362800000",
"ln":"136.66990700000"
},
"geometry":{
"type":"Point",
"coordinates":[
136.669907,
35.023628
]
}
},
{
"type":"Feature",
"properties":{
"Name":"外城田小学校体育館",
"Jusho":"三重県多気郡多気町森荘534－",
"Capacity":"－",
"la":"34.48399399910",
"ln":"136.57795700000"
},
"geometry":{
"type":"Point",
"coordinates":[
136.577957,
34.4839939991
]
}
},
{
"type":"Feature",
"properties":{
"Name":"旧丹生小学校",
"Jusho":"三重県多気郡多気町丹生1807",
"Capacity":"－",
"la":"34.48074200000",
"ln":"136.48904900000"
},
"geometry":{
"type":"Point",
"coordinates":[
136.489049,
34.480742
]
}
},
{
"type":"Feature",
"properties":{
"Name":"佐奈小学校体育館",
"Jusho":"三重県多気郡多気町仁田28",
"Capacity":"－",
"la":"34.48185400000",
"ln":"136.54665500000"
},
"geometry":{
"type":"Point",
"coordinates":[
136.546655,
34.481854
]
}
},
{
"type":"Feature",
"properties":{
"Name":"勢和小学校",
"Jusho":"三重県多気郡多気町片野2343",
"Capacity":"－",
"la":"34.46391000000",
"ln":"136.46066300000"
},
"geometry":{
"type":"Point",
"coordinates":[
136.460663,
34.46391
]
}
},
{
"type":"Feature",
"properties":{
"Name":"相可小学校体育館",
"Jusho":"三重県多気郡多気町兄国464",
"Capacity":"－",
"la":"34.51076800000",
"ln":"136.55637500000"
},
"geometry":{
"type":"Point",
"coordinates":[
136.556375,
34.510768
]
}
},
{
"type":"Feature",
"properties":{
"Name":"津田小学校体育館",
"Jusho":"三重県多気郡多気町井内林135",
"Capacity":"－",
"la":"34.50115699910",
"ln":"136.51379600000"
},
"geometry":{
"type":"Point",
"coordinates":[
136.513796,
34.5011569991
]
}
},
{
"type":"Feature",
"properties":{
"Name":"下御糸小学校",
"Jusho":"三重県多気郡明和町大字内座367",
"Capacity":"180",
"la":"34.58373300000",
"ln":"136.62247800000"
},
"geometry":{
"type":"Point",
"coordinates":[
136.622478,
34.583733
]
}
},
{
"type":"Feature",
"properties":{
"Name":"斎宮小学校",
"Jusho":"三重県多気郡明和町大字斎宮3385-2",
"Capacity":"230",
"la":"34.53782100000",
"ln":"136.61134100000"
},
"geometry":{
"type":"Point",
"coordinates":[
136.611341,
34.537821
]
}
},
{
"type":"Feature",
"properties":{
"Name":"修正小学校",
"Jusho":"三重県多気郡明和町大字有爾中816－",
"Capacity":"150",
"la":"34.52124000000",
"ln":"136.61973000000"
},
"geometry":{
"type":"Point",
"coordinates":[
136.61973,
34.52124
]
}
},
{
"type":"Feature",
"properties":{
"Name":"上御糸小学校",
"Jusho":"三重県多気郡明和町大字佐田2026",
"Capacity":"190",
"la":"34.56237400000",
"ln":"136.62253400000"
},
"geometry":{
"type":"Point",
"coordinates":[
136.622534,
34.562374
]
}
},
{
"type":"Feature",
"properties":{
"Name":"大淀小学校",
"Jusho":"三重県多気郡明和町大字大淀2650",
"Capacity":"190",
"la":"34.56637500000",
"ln":"136.65383700000"
},
"geometry":{
"type":"Point",
"coordinates":[
136.653837,
34.566375
]
}
},
{
"type":"Feature",
"properties":{
"Name":"明星小学校",
"Jusho":"三重県多気郡明和町大字明星1553",
"Capacity":"210",
"la":"34.52715700000",
"ln":"136.63706200000"
},
"geometry":{
"type":"Point",
"coordinates":[
136.637062,
34.527157
]
}
},
{
"type":"Feature",
"properties":{
"Name":"川添小学校",
"Jusho":"三重県多気郡大台町上楠420",
"Capacity":"－",
"la":"34.42097100000",
"ln":"136.47349600000"
},
"geometry":{
"type":"Point",
"coordinates":[
136.473496,
34.420971
]
}
},
{
"type":"Feature",
"properties":{
"Name":"日進小学校",
"Jusho":"三重県多気郡大台町新田278",
"Capacity":"－",
"la":"34.43894200000",
"ln":"136.52126700000"
},
"geometry":{
"type":"Point",
"coordinates":[
136.521267,
34.438942
]
}
},
{
"type":"Feature",
"properties":{
"Name":"下外城田小学校",
"Jusho":"三重県度会郡玉城町小社曽根776",
"Capacity":"－",
"la":"34.47744100000",
"ln":"136.65011600000"
},
"geometry":{
"type":"Point",
"coordinates":[
136.650116,
34.477441
]
}
},
{
"type":"Feature",
"properties":{
"Name":"外城田小学校",
"Jusho":"三重県度会郡玉城町蚊野2018",
"Capacity":"－",
"la":"34.48346700000",
"ln":"136.60164900000"
},
"geometry":{
"type":"Point",
"coordinates":[
136.601649,
34.483467
]
}
},
{
"type":"Feature",
"properties":{
"Name":"田丸小学校",
"Jusho":"三重県度会郡玉城町佐田1247",
"Capacity":"－",
"la":"34.49380000000",
"ln":"136.63345100000"
},
"geometry":{
"type":"Point",
"coordinates":[
136.633451,
34.4938
]
}
},
{
"type":"Feature",
"properties":{
"Name":"有田小学校",
"Jusho":"三重県度会郡玉城町長更376",
"Capacity":"－",
"la":"34.50682600000",
"ln":"136.63956200000"
},
"geometry":{
"type":"Point",
"coordinates":[
136.639562,
34.506826
]
}
},
{
"type":"Feature",
"properties":{
"Name":"一之瀬小学校",
"Jusho":"三重県度会郡度会町脇出372",
"Capacity":"－",
"la":"34.35164900000",
"ln":"136.58909800000"
},
"geometry":{
"type":"Point",
"coordinates":[
136.589098,
34.351649
]
}
},
{
"type":"Feature",
"properties":{
"Name":"中川小学校",
"Jusho":"三重県度会郡度会町麻加江516－",
"Capacity":"－",
"la":"34.43727600000",
"ln":"136.55659800000"
},
"geometry":{
"type":"Point",
"coordinates":[
136.556598,
34.437276
]
}
},
{
"type":"Feature",
"properties":{
"Name":"小川郷小学校",
"Jusho":"三重県度会郡度会町中之郷1025",
"Capacity":"－",
"la":"34.40550299910",
"ln":"136.60387200000"
},
"geometry":{
"type":"Point",
"coordinates":[
136.603872,
34.4055029991
]
}
},
{
"type":"Feature",
"properties":{
"Name":"内城田小学校",
"Jusho":"三重県度会郡度会町棚橋1679－",
"Capacity":"－",
"la":"34.43536200000",
"ln":"136.61756300000"
},
"geometry":{
"type":"Point",
"coordinates":[
136.617563,
34.435362
]
}
},
{
"type":"Feature",
"properties":{
"Name":"錦小学校",
"Jusho":"三重県度会郡大紀町錦426－",
"Capacity":"－",
"la":"34.22429000000",
"ln":"136.39590100000"
},
"geometry":{
"type":"Point",
"coordinates":[
136.395901,
34.22429
]
}
},
{
"type":"Feature",
"properties":{
"Name":"七保小学校",
"Jusho":"三重県度会郡大紀町打見388",
"Capacity":"－",
"la":"34.41237700000",
"ln":"136.48060200000"
},
"geometry":{
"type":"Point",
"coordinates":[
136.480602,
34.412377
]
}
},
{
"type":"Feature",
"properties":{
"Name":"大紀小学校",
"Jusho":"三重県度会郡大紀町大内山875",
"Capacity":"－",
"la":"34.27472329330",
"ln":"136.35893124400"
},
"geometry":{
"type":"Point",
"coordinates":[
136.358931244,
34.2747232933
]
}
},
{
"type":"Feature",
"properties":{
"Name":"大宮小学校",
"Jusho":"三重県度会郡大紀町滝原1748－",
"Capacity":"－",
"la":"34.35018700000",
"ln":"136.40815000000"
},
"geometry":{
"type":"Point",
"coordinates":[
136.40815,
34.350187
]
}
},
{
"type":"Feature",
"properties":{
"Name":"引本小学校",
"Jusho":"三重県北牟婁郡紀北町海山区引本浦239-2",
"Capacity":"－",
"la":"34.10654400000",
"ln":"136.23839400000"
},
"geometry":{
"type":"Point",
"coordinates":[
136.238394,
34.106544
]
}
},
{
"type":"Feature",
"properties":{
"Name":"海野小学校",
"Jusho":"三重県北牟婁郡紀北町紀伊長島区海野411",
"Capacity":"－",
"la":"34.18856900000",
"ln":"136.31797700000"
},
"geometry":{
"type":"Point",
"coordinates":[
136.317977,
34.188569
]
}
},
{
"type":"Feature",
"properties":{
"Name":"三浦小学校",
"Jusho":"三重県北牟婁郡紀北町紀伊長島区三浦432",
"Capacity":"－",
"la":"34.16738800000",
"ln":"136.27911300000"
},
"geometry":{
"type":"Point",
"coordinates":[
136.279113,
34.167388
]
}
},
{
"type":"Feature",
"properties":{
"Name":"志子小学校",
"Jusho":"三重県北牟婁郡紀北町紀伊長島区島原715",
"Capacity":"－",
"la":"34.22016400000",
"ln":"136.31924800000"
},
"geometry":{
"type":"Point",
"coordinates":[
136.319248,
34.220164
]
}
},
{
"type":"Feature",
"properties":{
"Name":"上里小学校",
"Jusho":"三重県北牟婁郡紀北町海山区上里801",
"Capacity":"－",
"la":"34.14156600000",
"ln":"136.23937000000"
},
"geometry":{
"type":"Point",
"coordinates":[
136.23937,
34.141566
]
}
},
{
"type":"Feature",
"properties":{
"Name":"西小学校",
"Jusho":"三重県北牟婁郡紀北町紀伊長島区長島1538",
"Capacity":"－",
"la":"34.19898500000",
"ln":"136.32925600000"
},
"geometry":{
"type":"Point",
"coordinates":[
136.329256,
34.198985
]
}
},
{
"type":"Feature",
"properties":{
"Name":"赤羽小学校",
"Jusho":"三重県北牟婁郡紀北町紀伊長島区島原2708-2",
"Capacity":"－",
"la":"34.21634400000",
"ln":"136.30074300000"
},
"geometry":{
"type":"Point",
"coordinates":[
136.300743,
34.216344
]
}
},
{
"type":"Feature",
"properties":{
"Name":"船津小学校",
"Jusho":"三重県北牟婁郡紀北町海山区船津1057",
"Capacity":"－",
"la":"34.12568200000",
"ln":"136.21466500000"
},
"geometry":{
"type":"Point",
"coordinates":[
136.214665,
34.125682
]
}
},
{
"type":"Feature",
"properties":{
"Name":"相賀小学校",
"Jusho":"三重県北牟婁郡紀北町海山区相賀368-3",
"Capacity":"－",
"la":"34.11049300000",
"ln":"136.22638300000"
},
"geometry":{
"type":"Point",
"coordinates":[
136.226383,
34.110493
]
}
},
{
"type":"Feature",
"properties":{
"Name":"島勝小学校",
"Jusho":"三重県北牟婁郡紀北町海山区島勝浦",
"Capacity":"－",
"la":"34.11062399910",
"ln":"136.29976700000"
},
"geometry":{
"type":"Point",
"coordinates":[
136.299767,
34.1106239991
]
}
},
{
"type":"Feature",
"properties":{
"Name":"東小学校",
"Jusho":"三重県北牟婁郡紀北町紀伊長島区東長島2458",
"Capacity":"－",
"la":"34.20896800000",
"ln":"136.34317100000"
},
"geometry":{
"type":"Point",
"coordinates":[
136.343171,
34.208968
]
}
},
{
"type":"Feature",
"properties":{
"Name":"白浦小学校",
"Jusho":"三重県北牟婁郡紀北町海山区白浦",
"Capacity":"－",
"la":"34.12769199910",
"ln":"136.28454700000"
},
"geometry":{
"type":"Point",
"coordinates":[
136.284547,
34.1276919991
]
}
},
{
"type":"Feature",
"properties":{
"Name":"矢口小学校",
"Jusho":"三重県北牟婁郡紀北町海山区矢口浦311",
"Capacity":"－",
"la":"34.13028300000",
"ln":"136.26807900000"
},
"geometry":{
"type":"Point",
"coordinates":[
136.268079,
34.130283
]
}
},
{
"type":"Feature",
"properties":{
"Name":"御浜小学校グラウンド",
"Jusho":"三重県南牟婁郡御浜町",
"Capacity":"－",
"la":"33.83202500000",
"ln":"136.04682100000"
},
"geometry":{
"type":"Point",
"coordinates":[
136.046821,
33.832025
]
}
},
{
"type":"Feature",
"properties":{
"Name":"井田小学校（体育館）",
"Jusho":"三重県南牟婁郡紀宝町",
"Capacity":"350",
"la":"33.75639499910",
"ln":"136.02235100000"
},
"geometry":{
"type":"Point",
"coordinates":[
136.022351,
33.7563949991
]
}
},
{
"type":"Feature",
"properties":{
"Name":"鵜殿小学校体育館",
"Jusho":"三重県南牟婁郡紀宝町",
"Capacity":"150",
"la":"33.74225800000",
"ln":"136.01170900000"
},
"geometry":{
"type":"Point",
"coordinates":[
136.011709,
33.742258
]
}
},
{
"type":"Feature",
"properties":{
"Name":"神内小学校（体育館）",
"Jusho":"三重県南牟婁郡紀宝町",
"Capacity":"300",
"la":"33.75220100000",
"ln":"136.01132500000"
},
"geometry":{
"type":"Point",
"coordinates":[
136.011325,
33.752201
]
}
},
{
"type":"Feature",
"properties":{
"Name":"成川小学校（体育館）",
"Jusho":"三重県南牟婁郡紀宝町",
"Capacity":"300",
"la":"33.73570300000",
"ln":"135.99382600000"
},
"geometry":{
"type":"Point",
"coordinates":[
135.993826,
33.735703
]
}
},
{
"type":"Feature",
"properties":{
"Name":"相野谷小学校",
"Jusho":"三重県南牟婁郡紀宝町井内98－",
"Capacity":"100",
"la":"33.78722500000",
"ln":"135.98671500000"
},
"geometry":{
"type":"Point",
"coordinates":[
135.986715,
33.787225
]
}
},
{
"type":"Feature",
"properties":{
"Name":"北桧杖小学校",
"Jusho":"三重県南牟婁郡紀宝町",
"Capacity":"100",
"la":"33.72841400000",
"ln":"135.96288500000"
},
"geometry":{
"type":"Point",
"coordinates":[
135.962885,
33.728414
]
}
},
{
"type":"Feature",
"properties":{
"Name":"明和小学校",
"Jusho":"三重県南牟婁郡紀宝町高岡233",
"Capacity":"100",
"la":"33.75836700000",
"ln":"135.97174500000"
},
"geometry":{
"type":"Point",
"coordinates":[
135.971745,
33.758367
]
}
},
{
"type":"Feature",
"properties":{
"Name":"五ヶ所小学校上",
"Jusho":"三重県度会郡南伊勢町",
"Capacity":"－",
"la":"34.34948399910",
"ln":"136.70889400000"
},
"geometry":{
"type":"Point",
"coordinates":[
136.708894,
34.3494839991
]
}
},
{
"type":"Feature",
"properties":{
"Name":"南海小学校上",
"Jusho":"三重県度会郡南伊勢町",
"Capacity":"－",
"la":"34.31168299910",
"ln":"136.63517800000"
},
"geometry":{
"type":"Point",
"coordinates":[
136.635178,
34.3116829991
]
}
},
{
"type":"Feature",
"properties":{
"Name":"旧小学校奥道",
"Jusho":"三重県度会郡南伊勢町",
"Capacity":"－",
"la":"34.27212226530",
"ln":"136.58406071400"
},
"geometry":{
"type":"Point",
"coordinates":[
136.584060714,
34.2721222653
]
}
},
{
"type":"Feature",
"properties":{
"Name":"御薗小学校校舎",
"Jusho":"三重県伊勢市御薗町長屋1074-9",
"Capacity":"－",
"la":"34.50863619900",
"ln":"136.70941654100"
},
"geometry":{
"type":"Point",
"coordinates":[
136.709416541,
34.508636199
]
}
},
{
"type":"Feature",
"properties":{
"Name":"厚生小学校校舎",
"Jusho":"三重県伊勢市一志町1-4",
"Capacity":"－",
"la":"34.49224600000",
"ln":"136.70525000000"
},
"geometry":{
"type":"Point",
"coordinates":[
136.70525,
34.492246
]
}
},
{
"type":"Feature",
"properties":{
"Name":"今一色小学校校舎",
"Jusho":"三重県伊勢市二見町今一色3",
"Capacity":"－",
"la":"34.51827399910",
"ln":"136.75059300000"
},
"geometry":{
"type":"Point",
"coordinates":[
136.750593,
34.5182739991
]
}
},
{
"type":"Feature",
"properties":{
"Name":"佐八小学校校舎",
"Jusho":"三重県伊勢市佐八町2287",
"Capacity":"－",
"la":"34.46491499910",
"ln":"136.66028100000"
},
"geometry":{
"type":"Point",
"coordinates":[
136.660281,
34.4649149991
]
}
},
{
"type":"Feature",
"properties":{
"Name":"四郷小学校校舎",
"Jusho":"三重県伊勢市楠部町2484",
"Capacity":"－",
"la":"34.47541600000",
"ln":"136.73785900000"
},
"geometry":{
"type":"Point",
"coordinates":[
136.737859,
34.475416
]
}
},
{
"type":"Feature",
"properties":{
"Name":"修道小学校校舎",
"Jusho":"三重県伊勢市久世戸町5",
"Capacity":"－",
"la":"34.48160900000",
"ln":"136.72358200000"
},
"geometry":{
"type":"Point",
"coordinates":[
136.723582,
34.481609
]
}
},
{
"type":"Feature",
"properties":{
"Name":"小俣小学校校舎",
"Jusho":"三重県伊勢市小俣町元町663－",
"Capacity":"－",
"la":"34.50659800000",
"ln":"136.67394200000"
},
"geometry":{
"type":"Point",
"coordinates":[
136.673942,
34.506598
]
}
},
{
"type":"Feature",
"properties":{
"Name":"上野小学校校舎",
"Jusho":"三重県伊勢市上野町2841-2",
"Capacity":"－",
"la":"34.43433499910",
"ln":"136.65428300000"
},
"geometry":{
"type":"Point",
"coordinates":[
136.654283,
34.4343349991
]
}
},
{
"type":"Feature",
"properties":{
"Name":"城田小学校校舎",
"Jusho":"三重県伊勢市上地町1478",
"Capacity":"－",
"la":"34.49099500000",
"ln":"136.66394800000"
},
"geometry":{
"type":"Point",
"coordinates":[
136.663948,
34.490995
]
}
},
{
"type":"Feature",
"properties":{
"Name":"神社小学校校舎",
"Jusho":"三重県伊勢市神社港294",
"Capacity":"－",
"la":"34.51227199910",
"ln":"136.73502400000"
},
"geometry":{
"type":"Point",
"coordinates":[
136.735024,
34.5122719991
]
}
},
{
"type":"Feature",
"properties":{
"Name":"進修小学校校舎",
"Jusho":"三重県伊勢市宇治浦田2丁目16-43",
"Capacity":"－",
"la":"34.46916600000",
"ln":"136.72180400000"
},
"geometry":{
"type":"Point",
"coordinates":[
136.721804,
34.469166
]
}
},
{
"type":"Feature",
"properties":{
"Name":"早修小学校校舎",
"Jusho":"三重県伊勢市常磐3丁目10－9",
"Capacity":"－",
"la":"34.48849700000",
"ln":"136.69672300000"
},
"geometry":{
"type":"Point",
"coordinates":[
136.696723,
34.488497
]
}
},
{
"type":"Feature",
"properties":{
"Name":"大湊小学校校舎",
"Jusho":"三重県伊勢市大湊町1118－94",
"Capacity":"－",
"la":"34.52652099910",
"ln":"136.74474500000"
},
"geometry":{
"type":"Point",
"coordinates":[
136.744745,
34.5265209991
]
}
},
{
"type":"Feature",
"properties":{
"Name":"中島小学校校舎",
"Jusho":"三重県伊勢市二俣1丁目2－7",
"Capacity":"－",
"la":"34.49252399910",
"ln":"136.69272400000"
},
"geometry":{
"type":"Point",
"coordinates":[
136.692724,
34.4925239991
]
}
},
{
"type":"Feature",
"properties":{
"Name":"東大淀小学校校舎",
"Jusho":"三重県伊勢市東大淀町351",
"Capacity":"－",
"la":"34.55665400000",
"ln":"136.66322500000"
},
"geometry":{
"type":"Point",
"coordinates":[
136.663225,
34.556654
]
}
},
{
"type":"Feature",
"properties":{
"Name":"二見小学校校舎",
"Jusho":"三重県伊勢市二見町荘1500",
"Capacity":"－",
"la":"34.50677399910",
"ln":"136.77451700000"
},
"geometry":{
"type":"Point",
"coordinates":[
136.774517,
34.5067739991
]
}
},
{
"type":"Feature",
"properties":{
"Name":"浜郷小学校校舎",
"Jusho":"三重県伊勢市黒瀬町1648",
"Capacity":"－",
"la":"34.49966300000",
"ln":"136.73660800000"
},
"geometry":{
"type":"Point",
"coordinates":[
136.736608,
34.499663
]
}
},
{
"type":"Feature",
"properties":{
"Name":"豊浜西小学校校舎",
"Jusho":"三重県伊勢市西豊浜町1779",
"Capacity":"－",
"la":"34.52035299910",
"ln":"136.69436200000"
},
"geometry":{
"type":"Point",
"coordinates":[
136.694362,
34.5203529991
]
}
},
{
"type":"Feature",
"properties":{
"Name":"豊浜東小学校校舎",
"Jusho":"三重県伊勢市東豊浜町299",
"Capacity":"－",
"la":"34.52946300000",
"ln":"136.71049900000"
},
"geometry":{
"type":"Point",
"coordinates":[
136.710499,
34.529463
]
}
},
{
"type":"Feature",
"properties":{
"Name":"北浜小学校校舎",
"Jusho":"三重県伊勢市村松町3293",
"Capacity":"－",
"la":"34.54396100000",
"ln":"136.69041700000"
},
"geometry":{
"type":"Point",
"coordinates":[
136.690417,
34.543961
]
}
},
{
"type":"Feature",
"properties":{
"Name":"明野小学校校舎",
"Jusho":"三重県伊勢市小俣町明野1939",
"Capacity":"－",
"la":"34.51527700000",
"ln":"136.66232200000"
},
"geometry":{
"type":"Point",
"coordinates":[
136.662322,
34.515277
]
}
},
{
"type":"Feature",
"properties":{
"Name":"明倫小学校校舎",
"Jusho":"三重県伊勢市岡本1丁目18-21",
"Capacity":"－",
"la":"34.48444199910",
"ln":"136.71052800000"
},
"geometry":{
"type":"Point",
"coordinates":[
136.710528,
34.4844419991
]
}
},
{
"type":"Feature",
"properties":{
"Name":"有緝小学校校舎",
"Jusho":"三重県伊勢市船江2丁目2-5",
"Capacity":"－",
"la":"34.49719000000",
"ln":"136.71586000000"
},
"geometry":{
"type":"Point",
"coordinates":[
136.71586,
34.49719
]
}
},
{
"type":"Feature",
"properties":{
"Name":"一志中学校",
"Jusho":"三重県津市一志町高野2609",
"Capacity":"－",
"la":"34.65640200000",
"ln":"136.42157000000"
},
"geometry":{
"type":"Point",
"coordinates":[
136.42157,
34.656402
]
}
},
{
"type":"Feature",
"properties":{
"Name":"一身田中学校",
"Jusho":"三重県津市一身田中野880－",
"Capacity":"－",
"la":"34.75398600000",
"ln":"136.50573200000"
},
"geometry":{
"type":"Point",
"coordinates":[
136.505732,
34.753986
]
}
},
{
"type":"Feature",
"properties":{
"Name":"久居西中学校",
"Jusho":"三重県津市久居一色町940",
"Capacity":"－",
"la":"34.68734300000",
"ln":"136.40604300000"
},
"geometry":{
"type":"Point",
"coordinates":[
136.406043,
34.687343
]
}
},
{
"type":"Feature",
"properties":{
"Name":"久居中学校",
"Jusho":"三重県津市久居西鷹跡町494",
"Capacity":"－",
"la":"34.67571400000",
"ln":"136.46077400000"
},
"geometry":{
"type":"Point",
"coordinates":[
136.460774,
34.675714
]
}
},
{
"type":"Feature",
"properties":{
"Name":"久居東中学校",
"Jusho":"三重県津市久居井戸山町721－",
"Capacity":"－",
"la":"34.66883200000",
"ln":"136.48515500000"
},
"geometry":{
"type":"Point",
"coordinates":[
136.485155,
34.668832
]
}
},
{
"type":"Feature",
"properties":{
"Name":"橋北中学校",
"Jusho":"三重県津市桜橋二丁目38－",
"Capacity":"－",
"la":"34.73135000000",
"ln":"136.51823500000"
},
"geometry":{
"type":"Point",
"coordinates":[
136.518235,
34.73135
]
}
},
{
"type":"Feature",
"properties":{
"Name":"橋南中学校",
"Jusho":"三重県津市上弁財町津興2537-4",
"Capacity":"－",
"la":"34.70280100000",
"ln":"136.51067700000"
},
"geometry":{
"type":"Point",
"coordinates":[
136.510677,
34.702801
]
}
},
{
"type":"Feature",
"properties":{
"Name":"芸濃中学校",
"Jusho":"三重県津市芸濃町椋本5147",
"Capacity":"－",
"la":"34.81111200000",
"ln":"136.42512900000"
},
"geometry":{
"type":"Point",
"coordinates":[
136.425129,
34.811112
]
}
},
{
"type":"Feature",
"properties":{
"Name":"香海中学校",
"Jusho":"三重県津市香良洲町128",
"Capacity":"－",
"la":"34.65184700000",
"ln":"136.53112900000"
},
"geometry":{
"type":"Point",
"coordinates":[
136.531129,
34.651847
]
}
},
{
"type":"Feature",
"properties":{
"Name":"西橋内中学校",
"Jusho":"三重県津市東古河町7－",
"Capacity":"－",
"la":"34.72068600000",
"ln":"136.49981700000"
},
"geometry":{
"type":"Point",
"coordinates":[
136.499817,
34.720686
]
}
},
{
"type":"Feature",
"properties":{
"Name":"西郊中学校グラウンド",
"Jusho":"三重県津市一色町219",
"Capacity":"－",
"la":"34.73046199910",
"ln":"136.47684700000"
},
"geometry":{
"type":"Point",
"coordinates":[
136.476847,
34.7304619991
]
}
},
{
"type":"Feature",
"properties":{
"Name":"朝陽中学校",
"Jusho":"三重県津市河芸町上野2010",
"Capacity":"－",
"la":"34.78320900000",
"ln":"136.53595700000"
},
"geometry":{
"type":"Point",
"coordinates":[
136.535957,
34.783209
]
}
},
{
"type":"Feature",
"properties":{
"Name":"東観中学校",
"Jusho":"三重県津市安濃町東観音寺494－",
"Capacity":"－",
"la":"34.76033700000",
"ln":"136.44641800000"
},
"geometry":{
"type":"Point",
"coordinates":[
136.446418,
34.760337
]
}
},
{
"type":"Feature",
"properties":{
"Name":"東橋内中学校",
"Jusho":"三重県津市中河原356-2",
"Capacity":"－",
"la":"34.72110300000",
"ln":"136.51895300000"
},
"geometry":{
"type":"Point",
"coordinates":[
136.518953,
34.721103
]
}
},
{
"type":"Feature",
"properties":{
"Name":"白山中学校",
"Jusho":"三重県津市白山町川口471-6",
"Capacity":"－",
"la":"34.64468200000",
"ln":"136.33661900000"
},
"geometry":{
"type":"Point",
"coordinates":[
136.336619,
34.644682
]
}
},
{
"type":"Feature",
"properties":{
"Name":"美杉中学校",
"Jusho":"三重県津市美杉町八知5800",
"Capacity":"－",
"la":"34.55532300000",
"ln":"136.26485200000"
},
"geometry":{
"type":"Point",
"coordinates":[
136.264852,
34.555323
]
}
},
{
"type":"Feature",
"properties":{
"Name":"南郊中学校",
"Jusho":"三重県津市高茶屋四丁目44－",
"Capacity":"－",
"la":"34.66935999910",
"ln":"136.50901300000"
},
"geometry":{
"type":"Point",
"coordinates":[
136.509013,
34.6693599991
]
}
},
{
"type":"Feature",
"properties":{
"Name":"羽津中学校",
"Jusho":"三重県四日市市大字羽津甲26",
"Capacity":"545",
"la":"34.99815700000",
"ln":"136.62224400000"
},
"geometry":{
"type":"Point",
"coordinates":[
136.622244,
34.998157
]
}
},
{
"type":"Feature",
"properties":{
"Name":"塩浜中学校",
"Jusho":"三重県四日市市大字塩浜4096",
"Capacity":"490",
"la":"34.92702700000",
"ln":"136.62080300000"
},
"geometry":{
"type":"Point",
"coordinates":[
136.620803,
34.927027
]
}
},
{
"type":"Feature",
"properties":{
"Name":"橋北中学校",
"Jusho":"三重県四日市市高浜町1-4",
"Capacity":"500",
"la":"34.97766100000",
"ln":"136.63543900000"
},
"geometry":{
"type":"Point",
"coordinates":[
136.635439,
34.977661
]
}
},
{
"type":"Feature",
"properties":{
"Name":"港中学校",
"Jusho":"三重県四日市市十七軒町10-41",
"Capacity":"630",
"la":"34.95735700000",
"ln":"136.62424600000"
},
"geometry":{
"type":"Point",
"coordinates":[
136.624246,
34.957357
]
}
},
{
"type":"Feature",
"properties":{
"Name":"桜中学校",
"Jusho":"三重県四日市市桜町1604",
"Capacity":"710",
"la":"34.99215700000",
"ln":"136.52444700000"
},
"geometry":{
"type":"Point",
"coordinates":[
136.524447,
34.992157
]
}
},
{
"type":"Feature",
"properties":{
"Name":"笹川中学校",
"Jusho":"三重県四日市市西日野町268-2",
"Capacity":"675",
"la":"34.95071800000",
"ln":"136.58969300000"
},
"geometry":{
"type":"Point",
"coordinates":[
136.589693,
34.950718
]
}
},
{
"type":"Feature",
"properties":{
"Name":"三重平中学校",
"Jusho":"三重県四日市市三重八丁目1",
"Capacity":"560",
"la":"34.98727000000",
"ln":"136.58327800000"
},
"geometry":{
"type":"Point",
"coordinates":[
136.583278,
34.98727
]
}
},
{
"type":"Feature",
"properties":{
"Name":"三滝中学校",
"Jusho":"三重県四日市市高角町2068-2",
"Capacity":"775",
"la":"34.98429700000",
"ln":"136.54936300000"
},
"geometry":{
"type":"Point",
"coordinates":[
136.549363,
34.984297
]
}
},
{
"type":"Feature",
"properties":{
"Name":"山手中学校",
"Jusho":"三重県四日市市大字東阿倉川（一区）70",
"Capacity":"650",
"la":"34.99013100000",
"ln":"136.62374500000"
},
"geometry":{
"type":"Point",
"coordinates":[
136.623745,
34.990131
]
}
},
{
"type":"Feature",
"properties":{
"Name":"私立暁学園（中学校・高校（６年生）高校３年生）",
"Jusho":"三重県四日市市萱生町238",
"Capacity":"1910",
"la":"35.03262367280",
"ln":"136.60178850700"
},
"geometry":{
"type":"Point",
"coordinates":[
136.601788507,
35.0326236728
]
}
},
{
"type":"Feature",
"properties":{
"Name":"常磐中学校",
"Jusho":"三重県四日市市大字松本810",
"Capacity":"735",
"la":"34.96305000000",
"ln":"136.58561000000"
},
"geometry":{
"type":"Point",
"coordinates":[
136.58561,
34.96305
]
}
},
{
"type":"Feature",
"properties":{
"Name":"西笹川中学校",
"Jusho":"三重県四日市市笹川四丁目104",
"Capacity":"720",
"la":"34.94552400000",
"ln":"136.56997300000"
},
"geometry":{
"type":"Point",
"coordinates":[
136.569973,
34.945524
]
}
},
{
"type":"Feature",
"properties":{
"Name":"西朝明中学校",
"Jusho":"三重県四日市市北山町1169",
"Capacity":"585",
"la":"35.03679100000",
"ln":"136.59685700000"
},
"geometry":{
"type":"Point",
"coordinates":[
136.596857,
35.036791
]
}
},
{
"type":"Feature",
"properties":{
"Name":"西陵中学校",
"Jusho":"三重県四日市市西山町7229",
"Capacity":"545",
"la":"34.95802200000",
"ln":"136.52308700000"
},
"geometry":{
"type":"Point",
"coordinates":[
136.523087,
34.958022
]
}
},
{
"type":"Feature",
"properties":{
"Name":"大池中学校",
"Jusho":"三重県四日市市下海老町2662－",
"Capacity":"855",
"la":"35.00457400000",
"ln":"136.57136100000"
},
"geometry":{
"type":"Point",
"coordinates":[
136.571361,
35.004574
]
}
},
{
"type":"Feature",
"properties":{
"Name":"中部中学校",
"Jusho":"三重県四日市市西浦二丁目5-36",
"Capacity":"870",
"la":"34.97260500000",
"ln":"136.61860700000"
},
"geometry":{
"type":"Point",
"coordinates":[
136.618607,
34.972605
]
}
},
{
"type":"Feature",
"properties":{
"Name":"朝明中学校",
"Jusho":"三重県四日市市平津町409-2",
"Capacity":"635",
"la":"35.02687600000",
"ln":"136.61679900000"
},
"geometry":{
"type":"Point",
"coordinates":[
136.616799,
35.026876
]
}
},
{
"type":"Feature",
"properties":{
"Name":"内部中学校",
"Jusho":"三重県四日市市波木町697",
"Capacity":"630",
"la":"34.93519200000",
"ln":"136.56958400000"
},
"geometry":{
"type":"Point",
"coordinates":[
136.569584,
34.935192
]
}
},
{
"type":"Feature",
"properties":{
"Name":"南中学校",
"Jusho":"三重県四日市市前田町18－7",
"Capacity":"580",
"la":"34.93619200000",
"ln":"136.59494300000"
},
"geometry":{
"type":"Point",
"coordinates":[
136.594943,
34.936192
]
}
},
{
"type":"Feature",
"properties":{
"Name":"楠中学校",
"Jusho":"三重県四日市市楠町北五味塚2092",
"Capacity":"3250",
"la":"34.91305900000",
"ln":"136.62740300000"
},
"geometry":{
"type":"Point",
"coordinates":[
136.627403,
34.913059
]
}
},
{
"type":"Feature",
"properties":{
"Name":"富洲原中学校",
"Jusho":"三重県四日市市天カ須賀五丁目3－0",
"Capacity":"505",
"la":"35.01429500000",
"ln":"136.66793500000"
},
"geometry":{
"type":"Point",
"coordinates":[
136.667935,
35.014295
]
}
},
{
"type":"Feature",
"properties":{
"Name":"富田中学校",
"Jusho":"三重県四日市市東茂福町4－9",
"Capacity":"740",
"la":"34.99751900000",
"ln":"136.64977000000"
},
"geometry":{
"type":"Point",
"coordinates":[
136.64977,
34.997519
]
}
},
{
"type":"Feature",
"properties":{
"Name":"保々中学校",
"Jusho":"三重県四日市市西村町2787-2",
"Capacity":"485",
"la":"35.05245600000",
"ln":"136.56077700000"
},
"geometry":{
"type":"Point",
"coordinates":[
136.560777,
35.052456
]
}
},
{
"type":"Feature",
"properties":{
"Name":"鎌田中学校",
"Jusho":"三重県松阪市鎌田町656",
"Capacity":"560",
"la":"34.58403700000",
"ln":"136.53990200000"
},
"geometry":{
"type":"Point",
"coordinates":[
136.539902,
34.584037
]
}
},
{
"type":"Feature",
"properties":{
"Name":"嬉野中学校",
"Jusho":"三重県松阪市嬉野下之庄町1725",
"Capacity":"600",
"la":"34.61951500000",
"ln":"136.47220100000"
},
"geometry":{
"type":"Point",
"coordinates":[
136.472201,
34.619515
]
}
},
{
"type":"Feature",
"properties":{
"Name":"久保中学校",
"Jusho":"三重県松阪市垣鼻町1790－",
"Capacity":"560",
"la":"34.56484400000",
"ln":"136.53684800000"
},
"geometry":{
"type":"Point",
"coordinates":[
136.536848,
34.564844
]
}
},
{
"type":"Feature",
"properties":{
"Name":"三雲中学校",
"Jusho":"三重県松阪市中道町345",
"Capacity":"600",
"la":"34.61929900000",
"ln":"136.51413900000"
},
"geometry":{
"type":"Point",
"coordinates":[
136.514139,
34.619299
]
}
},
{
"type":"Feature",
"properties":{
"Name":"西中学校",
"Jusho":"三重県松阪市曲町4-8",
"Capacity":"560",
"la":"34.57661900000",
"ln":"136.49873900000"
},
"geometry":{
"type":"Point",
"coordinates":[
136.498739,
34.576619
]
}
},
{
"type":"Feature",
"properties":{
"Name":"大江中学校",
"Jusho":"三重県松阪市小片野町228",
"Capacity":"400",
"la":"34.48232400000",
"ln":"136.44974700000"
},
"geometry":{
"type":"Point",
"coordinates":[
136.449747,
34.482324
]
}
},