var k={
"type": "FeatureCollection",
"features": [
{
"type": "Feature",
"properties": {
"Name": "羽黒山公園",
"Jusho": "宮城県石巻市羽黒町一丁目",
"Capacity": "－",
"la": "38.43095408000",
"ln": "141.30373986000"
},
"geometry": {
"type": "Point",
"coordinates": [
141.30373986,
38.43095408
]
}
},
{
"type": "Feature",
"properties": {
"Name": "雲雀野公園",
"Jusho": "宮城県石巻市雲雀野町一丁目",
"Capacity": "－",
"la": "38.41545381000",
"ln": "141.30366572000"
},
"geometry": {
"type": "Point",
"coordinates": [
141.30366572,
38.41545381
]
}
},
{
"type": "Feature",
"properties": {
"Name": "押切沼公園",
"Jusho": "宮城県石巻市広渕字砂四15番地1",
"Capacity": "－",
"la": "38.47755491000",
"ln": "141.22648005000"
},
"geometry": {
"type": "Point",
"coordinates": [
141.22648005,
38.47755491
]
}
},
{
"type": "Feature",
"properties": {
"Name": "河南中央公園",
"Jusho": "宮城県石巻市須江字横手1番地1",
"Capacity": "－",
"la": "38.45475451000",
"ln": "141.24407377000"
},
"geometry": {
"type": "Point",
"coordinates": [
141.24407377,
38.45475451
]
}
},
{
"type": "Feature",
"properties": {
"Name": "三軒屋公園",
"Jusho": "宮城県石巻市大街道東三丁目",
"Capacity": "－",
"la": "38.42576938000",
"ln": "141.28482571000"
},
"geometry": {
"type": "Point",
"coordinates": [
141.28482571,
38.42576938
]
}
},
{
"type": "Feature",
"properties": {
"Name": "鹿妻西公園",
"Jusho": "宮城県石巻市鹿妻南一丁目",
"Capacity": "－",
"la": "38.42060390000",
"ln": "141.33939335000"
},
"geometry": {
"type": "Point",
"coordinates": [
141.33939335,
38.4206039
]
}
},
{
"type": "Feature",
"properties": {
"Name": "鹿妻東公園",
"Jusho": "宮城県石巻市鹿妻南二丁目",
"Capacity": "－",
"la": "38.42092890000",
"ln": "141.34297352000"
},
"geometry": {
"type": "Point",
"coordinates": [
141.34297352,
38.4209289
]
}
},
{
"type": "Feature",
"properties": {
"Name": "鹿又農村公園",
"Jusho": "宮城県石巻市鹿又字道的前238番地",
"Capacity": "－",
"la": "38.47942830310",
"ln": "141.27961105800"
},
"geometry": {
"type": "Point",
"coordinates": [
141.279611058,
38.4794283031
]
}
},
{
"type": "Feature",
"properties": {
"Name": "蛇田団地南公園",
"Jusho": "宮城県石巻市向陽町三丁目",
"Capacity": "－",
"la": "38.44913184000",
"ln": "141.27946288000"
},
"geometry": {
"type": "Point",
"coordinates": [
141.27946288,
38.44913184
]
}
},
{
"type": "Feature",
"properties": {
"Name": "蛇田中央公園",
"Jusho": "宮城県石巻市向陽町四丁目",
"Capacity": "－",
"la": "38.45112671260",
"ln": "141.27736672500"
},
"geometry": {
"type": "Point",
"coordinates": [
141.277366725,
38.4511267126
]
}
},
{
"type": "Feature",
"properties": {
"Name": "松並公園",
"Jusho": "宮城県石巻市松並二丁目",
"Capacity": "－",
"la": "38.41758718000",
"ln": "141.33122673000"
},
"geometry": {
"type": "Point",
"coordinates": [
141.33122673,
38.41758718
]
}
},
{
"type": "Feature",
"properties": {
"Name": "新下前沼公園",
"Jusho": "宮城県石巻市蛇田字新下前沼",
"Capacity": "－",
"la": "38.43781007000",
"ln": "141.27432707000"
},
"geometry": {
"type": "Point",
"coordinates": [
141.27432707,
38.43781007
]
}
},
{
"type": "Feature",
"properties": {
"Name": "新境谷地南公園",
"Jusho": "宮城県石巻市中里六丁目",
"Capacity": "－",
"la": "38.44209595000",
"ln": "141.29107154000"
},
"geometry": {
"type": "Point",
"coordinates": [
141.29107154,
38.44209595
]
}
},
{
"type": "Feature",
"properties": {
"Name": "前谷地農村公園",
"Jusho": "宮城県石巻市前谷地字中埣19番地1",
"Capacity": "－",
"la": "38.51269414370",
"ln": "141.19538655400"
},
"geometry": {
"type": "Point",
"coordinates": [
141.195386554,
38.5126941437
]
}
},
{
"type": "Feature",
"properties": {
"Name": "総合運動公園",
"Jusho": "宮城県石巻市南境字新小堤18番地",
"Capacity": "－",
"la": "38.45656999910",
"ln": "141.30812000000"
},
"geometry": {
"type": "Point",
"coordinates": [
141.30812,
38.4565699991
]
}
},
{
"type": "Feature",
"properties": {
"Name": "筒場公園",
"Jusho": "宮城県石巻市緑町一丁目",
"Capacity": "－",
"la": "38.41787885000",
"ln": "141.33782570000"
},
"geometry": {
"type": "Point",
"coordinates": [
141.3378257,
38.41787885
]
}
},
{
"type": "Feature",
"properties": {
"Name": "日和山公園",
"Jusho": "宮城県石巻市日和が丘二丁目",
"Capacity": "－",
"la": "38.42314561000",
"ln": "141.30760603000"
},
"geometry": {
"type": "Point",
"coordinates": [
141.30760603,
38.42314561
]
}
},
{
"type": "Feature",
"properties": {
"Name": "北上公園",
"Jusho": "宮城県石巻市中里三丁目",
"Capacity": "－",
"la": "38.44352931000",
"ln": "141.29843315000"
},
"geometry": {
"type": "Point",
"coordinates": [
141.29843315,
38.44352931
]
}
},
{
"type": "Feature",
"properties": {
"Name": "北村農村公園",
"Jusho": "宮城県石巻市北村字長沢一2番地1",
"Capacity": "－",
"la": "38.48320233230",
"ln": "141.18396478400"
},
"geometry": {
"type": "Point",
"coordinates": [
141.183964784,
38.4832023323
]
}
},
{
"type": "Feature",
"properties": {
"Name": "万石浦公園",
"Jusho": "宮城県石巻市流留字七勺",
"Capacity": "－",
"la": "38.42436230000",
"ln": "141.37387109000"
},
"geometry": {
"type": "Point",
"coordinates": [
141.37387109,
38.4243623
]
}
},
{
"type": "Feature",
"properties": {
"Name": "雄勝森林公園",
"Jusho": "宮城県石巻市雄勝町雄勝字原39番地",
"Capacity": "100",
"la": "38.49016326000",
"ln": "141.44186408900"
},
"geometry": {
"type": "Point",
"coordinates": [
141.441864089,
38.49016326
]
}
},
{
"type": "Feature",
"properties": {
"Name": "雄勝中央公園",
"Jusho": "宮城県石巻市雄勝町雄勝字下雄勝18番地2",
"Capacity": "－",
"la": "38.52057617000",
"ln": "141.46684013000"
},
"geometry": {
"type": "Point",
"coordinates": [
141.46684013,
38.52057617
]
}
},
{
"type": "Feature",
"properties": {
"Name": "伊保石公園",
"Jusho": "宮城県塩竈市伊保石95－",
"Capacity": "1000",
"la": "38.34192942000",
"ln": "141.01863384000"
},
"geometry": {
"type": "Point",
"coordinates": [
141.01863384,
38.34192942
]
}
},
{
"type": "Feature",
"properties": {
"Name": "玉川児童公園",
"Jusho": "宮城県塩竈市母子沢町120-43",
"Capacity": "400",
"la": "38.31022414910",
"ln": "140.99918790000"
},
"geometry": {
"type": "Point",
"coordinates": [
140.9991879,
38.3102241491
]
}
},
{
"type": "Feature",
"properties": {
"Name": "松陽台公園",
"Jusho": "宮城県塩竈市松陽台一丁目18番地内",
"Capacity": "1900",
"la": "38.33113772000",
"ln": "141.02493353000"
},
"geometry": {
"type": "Point",
"coordinates": [
141.02493353,
38.33113772
]
}
},
{
"type": "Feature",
"properties": {
"Name": "新浜町公園",
"Jusho": "宮城県塩竈市新浜町三丁目109－7",
"Capacity": "4200",
"la": "38.33256483000",
"ln": "141.04574729000"
},
"geometry": {
"type": "Point",
"coordinates": [
141.04574729,
38.33256483
]
}
},
{
"type": "Feature",
"properties": {
"Name": "清水沢公園",
"Jusho": "宮城県塩竈市清水沢一丁目5-81",
"Capacity": "5400",
"la": "38.32725224000",
"ln": "141.00797271000"
},
"geometry": {
"type": "Point",
"coordinates": [
141.00797271,
38.32725224
]
}
},
{
"type": "Feature",
"properties": {
"Name": "清水沢市営住宅児童公園",
"Jusho": "宮城県塩竈市清水沢二丁目18-4",
"Capacity": "300",
"la": "38.32906898820",
"ln": "141.00601918800"
},
"geometry": {
"type": "Point",
"coordinates": [
141.006019188,
38.3290689882
]
}
},
{
"type": "Feature",
"properties": {
"Name": "青葉ケ丘公園",
"Jusho": "宮城県塩竈市青葉ケ丘3番地内",
"Capacity": "1600",
"la": "38.33558571910",
"ln": "141.02976624000"
},
"geometry": {
"type": "Point",
"coordinates": [
141.02976624,
38.3355857191
]
}
},
{
"type": "Feature",
"properties": {
"Name": "千賀の台公園",
"Jusho": "宮城県塩竈市千賀の台二丁目6番地内",
"Capacity": "3900",
"la": "38.33783576000",
"ln": "141.02117329000"
},
"geometry": {
"type": "Point",
"coordinates": [
141.02117329,
38.33783576
]
}
},
{
"type": "Feature",
"properties": {
"Name": "東玉川公園",
"Jusho": "宮城県塩竈市石堂2",
"Capacity": "300",
"la": "38.31127548000",
"ln": "141.01121431000"
},
"geometry": {
"type": "Point",
"coordinates": [
141.01121431,
38.31127548
]
}
},
{
"type": "Feature",
"properties": {
"Name": "益岡公園（含野球場）",
"Jusho": "宮城県白石市益岡町",
"Capacity": "－",
"la": "38.00213000000",
"ln": "140.61598000000"
},
"geometry": {
"type": "Point",
"coordinates": [
140.61598,
38.00213
]
}
},
{
"type": "Feature",
"properties": {
"Name": "鎌先公園",
"Jusho": "宮城県白石市福岡蔵本字鎌先一番40－",
"Capacity": "－",
"la": "38.02455531550",
"ln": "140.57588513500"
},
"geometry": {
"type": "Point",
"coordinates": [
140.575885135,
38.0245553155
]
}
},
{
"type": "Feature",
"properties": {
"Name": "中央公園",
"Jusho": "宮城県白石市字本町",
"Capacity": "－",
"la": "38.00009258000",
"ln": "140.62380876000"
},
"geometry": {
"type": "Point",
"coordinates": [
140.62380876,
38.00009258
]
}
},
{
"type": "Feature",
"properties": {
"Name": "白石市緑地公園",
"Jusho": "宮城県白石市字中河原",
"Capacity": "－",
"la": "38.00841419820",
"ln": "140.61425845000"
},
"geometry": {
"type": "Point",
"coordinates": [
140.61425845,
38.0084141982
]
}
},
{
"type": "Feature",
"properties": {
"Name": "駅前公園",
"Jusho": "宮城県角田市角田字泉町144",
"Capacity": "－",
"la": "37.97779158000",
"ln": "140.77319535000"
},
"geometry": {
"type": "Point",
"coordinates": [
140.77319535,
37.97779158
]
}
},
{
"type": "Feature",
"properties": {
"Name": "台山公園",
"Jusho": "宮城県角田市角田字牛舘100外",
"Capacity": "－",
"la": "37.97230042000",
"ln": "140.77538223000"
},
"geometry": {
"type": "Point",
"coordinates": [
140.77538223,
37.97230042
]
}
},
{
"type": "Feature",
"properties": {
"Name": "石越総合運動公園",
"Jusho": "宮城県登米市石越町南郷字矢作122－",
"Capacity": "－",
"la": "38.75523219270",
"ln": "141.17890058700"
},
"geometry": {
"type": "Point",
"coordinates": [
141.178900587,
38.7552321927
]
}
},
{
"type": "Feature",
"properties": {
"Name": "東和総合運動公園",
"Jusho": "宮城県登米市東和町錦織雷神山15-3",
"Capacity": "－",
"la": "38.72768162270",
"ln": "141.28033947800"
},
"geometry": {
"type": "Point",
"coordinates": [
141.280339478,
38.7276816227
]
}
},
{
"type": "Feature",
"properties": {
"Name": "築館総合運動公園（体育館）",
"Jusho": "宮城県栗原市字荒田沢41-241",
"Capacity": "440",
"la": "38.72263700000",
"ln": "141.00829400000"
},
"geometry": {
"type": "Point",
"coordinates": [
141.008294,
38.722637
]
}
},
{
"type": "Feature",
"properties": {
"Name": "愛宕山公園",
"Jusho": "宮城県大崎市古川宮沢字愛宕山11番17号",
"Capacity": "－",
"la": "38.62603730260",
"ln": "140.94984796300"
},
"geometry": {
"type": "Point",
"coordinates": [
140.949847963,
38.6260373026
]
}
},
{
"type": "Feature",
"properties": {
"Name": "駅南一号公園",
"Jusho": "宮城県大崎市古川駅南1丁目7番地",
"Capacity": "－",
"la": "38.57029361000",
"ln": "140.96995469000"
},
"geometry": {
"type": "Point",
"coordinates": [
140.96995469,
38.57029361
]
}
},
{
"type": "Feature",
"properties": {
"Name": "沖稲葉団地公園",
"Jusho": "宮城県大崎市古川稲葉4丁目230番地20",
"Capacity": "－",
"la": "38.55302957350",
"ln": "140.95594209100"
},
"geometry": {
"type": "Point",
"coordinates": [
140.955942091,
38.5530295735
]
}
},
{
"type": "Feature",
"properties": {
"Name": "古川羽黒山公園",
"Jusho": "宮城県大崎市",
"Capacity": "－",
"la": "38.62076459760",
"ln": "140.98301388400"
},
"geometry": {
"type": "Point",
"coordinates": [
140.983013884,
38.6207645976
]
}
},
{
"type": "Feature",
"properties": {
"Name": "古川駅前一号公園",
"Jusho": "宮城県大崎市",
"Capacity": "－",
"la": "38.57277370000",
"ln": "140.96533647000"
},
"geometry": {
"type": "Point",
"coordinates": [
140.96533647,
38.5727737
]
}
},
{
"type": "Feature",
"properties": {
"Name": "古川駅前二号公園",
"Jusho": "宮城県大崎市",
"Capacity": "－",
"la": "38.57235368000",
"ln": "140.96761592000"
},
"geometry": {
"type": "Point",
"coordinates": [
140.96761592,
38.57235368
]
}
},
{
"type": "Feature",
"properties": {
"Name": "古川駅南二号公園",
"Jusho": "宮城県大崎市",
"Capacity": "－",
"la": "38.56819354000",
"ln": "140.96926831000"
},
"geometry": {
"type": "Point",
"coordinates": [
140.96926831,
38.56819354
]
}
},
{
"type": "Feature",
"properties": {
"Name": "江合川緑地公園",
"Jusho": "宮城県大崎市",
"Capacity": "－",
"la": "38.65830905000",
"ln": "140.87018849000"
},
"geometry": {
"type": "Point",
"coordinates": [
140.87018849,
38.65830905
]
}
},
{
"type": "Feature",
"properties": {
"Name": "荒雄公園",
"Jusho": "宮城県大崎市古川福沼1丁目2番地",
"Capacity": "－",
"la": "38.58075429000",
"ln": "140.97208916000"
},
"geometry": {
"type": "Point",
"coordinates": [
140.97208916,
38.58075429
]
}
},
{
"type": "Feature",
"properties": {
"Name": "三日町公園",
"Jusho": "宮城県大崎市古川三日町1丁目63番地1",
"Capacity": "－",
"la": "38.57402041000",
"ln": "140.95588819000"
},
"geometry": {
"type": "Point",
"coordinates": [
140.95588819,
38.57402041
]
}
},
{
"type": "Feature",
"properties": {
"Name": "車湯児童公園",
"Jusho": "宮城県大崎市",
"Capacity": "－",
"la": "38.74876791000",
"ln": "140.72171505000"
},
"geometry": {
"type": "Point",
"coordinates": [
140.72171505,
38.74876791
]
}
},
{
"type": "Feature",
"properties": {
"Name": "上古川公園",
"Jusho": "宮城県大崎市古川字上古川113番地1",
"Capacity": "－",
"la": "38.58642466000",
"ln": "140.94483505000"
},
"geometry": {
"type": "Point",
"coordinates": [
140.94483505,
38.58642466
]
}
},
{
"type": "Feature",
"properties": {
"Name": "城山公園",
"Jusho": "宮城県大崎市岩出山字城山",
"Capacity": "－",
"la": "38.65510582000",
"ln": "140.86310493000"
},
"geometry": {
"type": "Point",
"coordinates": [
140.86310493,
38.65510582
]
}
},
{
"type": "Feature",
"properties": {
"Name": "新沼運動公園",
"Jusho": "宮城県大崎市三本木字新沼字天神4",
"Capacity": "－",
"la": "38.54052870270",
"ln": "140.91957066300"
},
"geometry": {
"type": "Point",
"coordinates": [
140.919570663,
38.5405287027
]
}
},
{
"type": "Feature",
"properties": {
"Name": "諏訪スポーツ公園",
"Jusho": "宮城県大崎市古川諏訪2丁目119番地3",
"Capacity": "－",
"la": "38.58274071000",
"ln": "140.95201567000"
},
"geometry": {
"type": "Point",
"coordinates": [
140.95201567,
38.58274071
]
}
},
{
"type": "Feature",
"properties": {
"Name": "諏訪運動公園",
"Jusho": "宮城県大崎市古川諏訪2丁目116番地1",
"Capacity": "－",
"la": "38.58121398910",
"ln": "140.95006670000"
},
"geometry": {
"type": "Point",
"coordinates": [
140.9500667,
38.5812139891
]
}
},
{
"type": "Feature",
"properties": {
"Name": "前田町公園",
"Jusho": "宮城県大崎市古川前田町133番地",
"Capacity": "－",
"la": "38.57856057000",
"ln": "140.95887097000"
},
"geometry": {
"type": "Point",
"coordinates": [
140.95887097,
38.57856057
]
}
},
{
"type": "Feature",
"properties": {
"Name": "前迫公園",
"Jusho": "宮城県大崎市鹿島台木間塚字前迫96番地1",
"Capacity": "－",
"la": "38.48856360000",
"ln": "141.11364453000"
},
"geometry": {
"type": "Point",
"coordinates": [
141.11364453,
38.4885636
]
}
},
{
"type": "Feature",
"properties": {
"Name": "田尻農村運動公園",
"Jusho": "宮城県大崎市",
"Capacity": "－",
"la": "38.58950700000",
"ln": "141.07197300000"
},
"geometry": {
"type": "Point",
"coordinates": [
141.071973,
38.589507
]
}
},
{
"type": "Feature",
"properties": {
"Name": "東鳴子公園",
"Jusho": "宮城県大崎市鳴子温泉字赤湯（河川敷内）",
"Capacity": "－",
"la": "38.74844237000",
"ln": "140.73550152000"
},
"geometry": {
"type": "Point",
"coordinates": [
140.73550152,
38.74844237
]
}
},
{
"type": "Feature",
"properties": {
"Name": "福浦団地公園",
"Jusho": "宮城県大崎市古川福浦1丁目14番地6",
"Capacity": "－",
"la": "38.59026544580",
"ln": "140.96052137900"
},
"geometry": {
"type": "Point",
"coordinates": [
140.960521379,
38.5902654458
]
}
},
{
"type": "Feature",
"properties": {
"Name": "有備館森の公園",
"Jusho": "宮城県大崎市",
"Capacity": "－",
"la": "38.65802258000",
"ln": "140.86240981000"
},
"geometry": {
"type": "Point",
"coordinates": [
140.86240981,
38.65802258
]
}
},
{
"type": "Feature",
"properties": {
"Name": "大河原公園",
"Jusho": "宮城県柴田郡大河原町字緑町30",
"Capacity": "2500",
"la": "38.04218750000",
"ln": "140.72272876000"
},
"geometry": {
"type": "Point",
"coordinates": [
140.72272876,
38.0421875
]
}
},
{
"type": "Feature",
"properties": {
"Name": "華園集会所及び公園",
"Jusho": "宮城県宮城郡松島町磯崎字華園地113",
"Capacity": "－",
"la": "38.38641399910",
"ln": "141.07511800000"
},
"geometry": {
"type": "Point",
"coordinates": [
141.075118,
38.3864139991
]
}
},
{
"type": "Feature",
"properties": {
"Name": "西行戻しの松公園",
"Jusho": "宮城県宮城郡松島町松島字犬田1－",
"Capacity": "－",
"la": "38.36705099310",
"ln": "141.05350969500"
},
"geometry": {
"type": "Point",
"coordinates": [
141.053509695,
38.3670509931
]
}
},
{
"type": "Feature",
"properties": {
"Name": "夕陽が丘児童公園",
"Jusho": "宮城県宮城郡松島町磯崎字夕日丘9－0",
"Capacity": "－",
"la": "38.38092925960",
"ln": "141.07772601400"
},
"geometry": {
"type": "Point",
"coordinates": [
141.077726014,
38.3809292596
]
}
},
{
"type": "Feature",
"properties": {
"Name": "花渕浜児童公園",
"Jusho": "宮城県宮城郡七ヶ浜町花渕浜字後田56",
"Capacity": "300",
"la": "38.30004394690",
"ln": "141.08068767300"
},
"geometry": {
"type": "Point",
"coordinates": [
141.080687673,
38.3000439469
]
}
},
{
"type": "Feature",
"properties": {
"Name": "君ヶ岡公園",
"Jusho": "宮城県宮城郡七ヶ浜町吉田浜東君ヶ岡",
"Capacity": "3000",
"la": "38.30451785000",
"ln": "141.07221412000"
},
"geometry": {
"type": "Point",
"coordinates": [
141.07221412,
38.30451785
]
}
},
{
"type": "Feature",
"properties": {
"Name": "向山農村公園",
"Jusho": "宮城県宮城郡七ヶ浜町菖蒲田浜字堤渕5",
"Capacity": "600",
"la": "38.28423380630",
"ln": "141.05881186600"
},
"geometry": {
"type": "Point",
"coordinates": [
141.058811866,
38.2842338063
]
}
},
{
"type": "Feature",
"properties": {
"Name": "汐見台南１号公園（春公園）",
"Jusho": "宮城県宮城郡七ヶ浜町汐見台南1丁目",
"Capacity": "600",
"la": "38.29602174910",
"ln": "141.05737560000"
},
"geometry": {
"type": "Point",
"coordinates": [
141.0573756,
38.2960217491
]
}
},
{
"type": "Feature",
"properties": {
"Name": "汐見台二丁目中央公園",
"Jusho": "宮城県宮城郡七ヶ浜町汐見台2丁目",
"Capacity": "800",
"la": "38.29938498910",
"ln": "141.05291974000"
},
"geometry": {
"type": "Point",
"coordinates": [
141.05291974,
38.2993849891
]
}
},
{
"type": "Feature",
"properties": {
"Name": "代ヶ崎浜清水児童公園",
"Jusho": "宮城県宮城郡七ヶ浜町代ヶ崎浜字清水",
"Capacity": "300",
"la": "38.31588729590",
"ln": "141.06375700000"
},
"geometry": {
"type": "Point",
"coordinates": [
141.063757,
38.3158872959
]
}
},
{
"type": "Feature",
"properties": {
"Name": "代ヶ崎浜西児童公園",
"Jusho": "宮城県宮城郡七ヶ浜町代ヶ崎浜字西21",
"Capacity": "500",
"la": "38.32121330500",
"ln": "141.06541439200"
},
"geometry": {
"type": "Point",
"coordinates": [
141.065414392,
38.321213305
]
}
},
{
"type": "Feature",
"properties": {
"Name": "大木囲貝塚遺跡公園",
"Jusho": "宮城県宮城郡七ヶ浜町東宮浜字東大木",
"Capacity": "3000",
"la": "38.30314981040",
"ln": "141.04468624300"
},
"geometry": {
"type": "Point",
"coordinates": [
141.044686243,
38.3031498104
]
}
},
{
"type": "Feature",
"properties": {
"Name": "ダイナヒルズ運動公園",
"Jusho": "宮城県黒川郡大和町松坂平二丁目",
"Capacity": "－",
"la": "38.46276207520",
"ln": "140.91984683200"
},
"geometry": {
"type": "Point",
"coordinates": [
140.919846832,
38.4627620752
]
}
},
{
"type": "Feature",
"properties": {
"Name": "わかば公園",
"Jusho": "宮城県黒川郡大和町もみじケ丘三丁目30",
"Capacity": "－",
"la": "38.38199999000",
"ln": "140.86366287000"
},
"geometry": {
"type": "Point",
"coordinates": [
140.86366287,
38.38199999
]
}
},
{
"type": "Feature",
"properties": {
"Name": "吉岡南中央公園",
"Jusho": "宮城県黒川郡大和町吉岡南三丁目3-4",
"Capacity": "－",
"la": "38.43968463910",
"ln": "140.88226549000"
},
"geometry": {
"type": "Point",
"coordinates": [
140.88226549,
38.4396846391
]
}
},
{
"type": "Feature",
"properties": {
"Name": "大和町総合運動公園",
"Jusho": "宮城県黒川郡大和町宮床字松倉92",
"Capacity": "－",
"la": "38.42572477730",
"ln": "140.86294765400"
},
"geometry": {
"type": "Point",
"coordinates": [
140.862947654,
38.4257247773
]
}
},
{
"type": "Feature",
"properties": {
"Name": "さわざくら公園",
"Jusho": "宮城県加美郡加美町字西田1-33",
"Capacity": "9000",
"la": "38.57351919980",
"ln": "140.85236928600"
},
"geometry": {
"type": "Point",
"coordinates": [
140.852369286,
38.5735191998
]
}
},
{
"type": "Feature",
"properties": {
"Name": "陶芸の里スポーツ公園",
"Jusho": "宮城県加美郡加美町宮崎字新土手浦1",
"Capacity": "48500",
"la": "38.61407108780",
"ln": "140.74757824600"
},
"geometry": {
"type": "Point",
"coordinates": [
140.747578246,
38.6140710878
]
}
},
{
"type": "Feature",
"properties": {
"Name": "駅前公園",
"Jusho": "宮城県遠田郡美里町北浦1丁目53",
"Capacity": "350",
"la": "38.54123198910",
"ln": "141.06010980900"
},
"geometry": {
"type": "Point",
"coordinates": [
141.060109809,
38.5412319891
]
}
},
{
"type": "Feature",
"properties": {
"Name": "下二郷運動公園",
"Jusho": "宮城県遠田郡美里町二郷字砂山東9－",
"Capacity": "800",
"la": "38.45625336220",
"ln": "141.11518992500"
},
"geometry": {
"type": "Point",
"coordinates": [
141.115189925,
38.4562533622
]
}
},
{
"type": "Feature",
"properties": {
"Name": "牛飼公園",
"Jusho": "宮城県遠田郡美里町牛飼字御蔵場地内",
"Capacity": "1100",
"la": "38.56053590000",
"ln": "141.05352085000"
},
"geometry": {
"type": "Point",
"coordinates": [
141.05352085,
38.5605359
]
}
},
{
"type": "Feature",
"properties": {
"Name": "佐野運動公園",
"Jusho": "宮城県遠田郡美里町二郷字佐野六号144－",
"Capacity": "1400",
"la": "38.47010656840",
"ln": "141.13002892100"
},
"geometry": {
"type": "Point",
"coordinates": [
141.130028921,
38.4701065684
]
}
},
{
"type": "Feature",
"properties": {
"Name": "小牛田公園",
"Jusho": "宮城県遠田郡美里町字桜木町204",
"Capacity": "5000",
"la": "38.53707449000",
"ln": "141.05622187000"
},
"geometry": {
"type": "Point",
"coordinates": [
141.05622187,
38.53707449
]
}
},
{
"type": "Feature",
"properties": {
"Name": "赤谷運動公園",
"Jusho": "宮城県遠田郡美里町練牛字二十二号10",
"Capacity": "800",
"la": "38.50767199910",
"ln": "141.13733300000"
},
"geometry": {
"type": "Point",
"coordinates": [
141.137333,
38.5076719991
]
}
},
{
"type": "Feature",
"properties": {
"Name": "大柳運動公園",
"Jusho": "宮城県遠田郡美里町大柳字宮前38",
"Capacity": "1000",
"la": "38.49998463610",
"ln": "141.12291570300"
},
"geometry": {
"type": "Point",
"coordinates": [
141.122915703,
38.4999846361
]
}
},
{
"type": "Feature",
"properties": {
"Name": "鳥谷坂運動公園",
"Jusho": "宮城県遠田郡美里町字鳥谷坂一33",
"Capacity": "200",
"la": "38.51800017150",
"ln": "141.17531079500"
},
"geometry": {
"type": "Point",
"coordinates": [
141.175310795,
38.5180001715
]
}
},
{
"type": "Feature",
"properties": {
"Name": "鶴頭公園",
"Jusho": "宮城県遠田郡美里町字西舘28－",
"Capacity": "900",
"la": "38.52834001000",
"ln": "141.07848676000"
},
"geometry": {
"type": "Point",
"coordinates": [
141.07848676,
38.52834001
]
}
},
{
"type": "Feature",
"properties": {
"Name": "蜂谷森公園",
"Jusho": "宮城県遠田郡美里町北浦字蜂谷森112",
"Capacity": "5000",
"la": "38.53985819000",
"ln": "141.05275821000"
},
"geometry": {
"type": "Point",
"coordinates": [
141.05275821,
38.53985819
]
}
},
{
"type": "Feature",
"properties": {
"Name": "荒町児童公園",
"Jusho": "宮城県本吉郡南三陸町戸倉",
"Capacity": "－",
"la": "38.64316171860",
"ln": "141.41355289300"
},
"geometry": {
"type": "Point",
"coordinates": [
141.413552893,
38.6431617186
]
}
},
{
"type": "Feature",
"properties": {
"Name": "折立松原公園",
"Jusho": "宮城県本吉郡南三陸町戸倉",
"Capacity": "－",
"la": "38.64339687440",
"ln": "141.44198726000"
},
"geometry": {
"type": "Point",
"coordinates": [
141.44198726,
38.6433968744
]
}
},
{
"type": "Feature",
"properties": {
"Name": "東山公園",
"Jusho": "宮城県本吉郡南三陸町志津川字大森",
"Capacity": "－",
"la": "38.67862089890",
"ln": "141.45399803100"
},
"geometry": {
"type": "Point",
"coordinates": [
141.453998031,
38.6786208989
]
}
},
{
"type": "Feature",
"properties": {
"Name": "本浜公園",
"Jusho": "宮城県本吉郡南三陸町志津川字十日町",
"Capacity": "－",
"la": "38.67755919890",
"ln": "141.45011093000"
},
"geometry": {
"type": "Point",
"coordinates": [
141.45011093,
38.6775591989
]
}
}
]
};