var st={
"type":"FeatureCollection",
"features":[
{
"type":"Feature",
"properties":{
"Name":"愛子小学校",
"Jusho":"宮城県仙台市青葉区上愛子字新宮前1",
"Capacity":"2700",
"la":"38.26839700000",
"ln":"140.75940000000"
},
"geometry":{
"type":"Point",
"coordinates":[
140.7594,
38.268397
]
}
},
{
"type":"Feature",
"properties":{
"Name":"旭丘小学校",
"Jusho":"宮城県仙台市青葉区旭ケ丘3-27－",
"Capacity":"3700",
"la":"38.29685700000",
"ln":"140.88545300000"
},
"geometry":{
"type":"Point",
"coordinates":[
140.885453,
38.296857
]
}
},
{
"type":"Feature",
"properties":{
"Name":"貝森小学校",
"Jusho":"宮城県仙台市青葉区貝ケ森5-6－",
"Capacity":"4200",
"la":"38.28657800000",
"ln":"140.83934900000"
},
"geometry":{
"type":"Point",
"coordinates":[
140.839349,
38.286578
]
}
},
{
"type":"Feature",
"properties":{
"Name":"吉成小学校",
"Jusho":"宮城県仙台市青葉区吉成1－2-2",
"Capacity":"5500",
"la":"38.29007500000",
"ln":"140.82557600000"
},
"geometry":{
"type":"Point",
"coordinates":[
140.825576,
38.290075
]
}
},
{
"type":"Feature",
"properties":{
"Name":"栗生小学校",
"Jusho":"宮城県仙台市青葉区栗生6-6－",
"Capacity":"4100",
"la":"38.26741300000",
"ln":"140.78629900000"
},
"geometry":{
"type":"Point",
"coordinates":[
140.786299,
38.267413
]
}
},
{
"type":"Feature",
"properties":{
"Name":"広瀬小学校",
"Jusho":"宮城県仙台市青葉区下愛子字二本松40",
"Capacity":"6300",
"la":"38.27185600000",
"ln":"140.77629900000"
},
"geometry":{
"type":"Point",
"coordinates":[
140.776299,
38.271856
]
}
},
{
"type":"Feature",
"properties":{
"Name":"荒巻小学校",
"Jusho":"宮城県仙台市青葉区荒巻神明町21－",
"Capacity":"3600",
"la":"38.28657800000",
"ln":"140.85684800000"
},
"geometry":{
"type":"Point",
"coordinates":[
140.856848,
38.286578
]
}
},
{
"type":"Feature",
"properties":{
"Name":"国見小学校",
"Jusho":"宮城県仙台市青葉区国見2－6－",
"Capacity":"2700",
"la":"38.27685700000",
"ln":"140.84434900000"
},
"geometry":{
"type":"Point",
"coordinates":[
140.844349,
38.276857
]
}
},
{
"type":"Feature",
"properties":{
"Name":"作並小学校",
"Jusho":"宮城県仙台市青葉区作並字北子原6",
"Capacity":"1700",
"la":"38.31684600000",
"ln":"140.63603000000"
},
"geometry":{
"type":"Point",
"coordinates":[
140.63603,
38.316846
]
}
},
{
"type":"Feature",
"properties":{
"Name":"作並小学校新川分校",
"Jusho":"宮城県仙台市青葉区新川字北野尻34",
"Capacity":"2000",
"la":"38.30379200000",
"ln":"140.63269700000"
},
"geometry":{
"type":"Point",
"coordinates":[
140.632697,
38.303792
]
}
},
{
"type":"Feature",
"properties":{
"Name":"桜丘小学校",
"Jusho":"宮城県仙台市青葉区桜ケ丘8－－",
"Capacity":"7000",
"la":"38.30352000000",
"ln":"140.84990200000"
},
"geometry":{
"type":"Point",
"coordinates":[
140.849902,
38.30352
]
}
},
{
"type":"Feature",
"properties":{
"Name":"小松島小学校",
"Jusho":"宮城県仙台市青葉区小松島2－－",
"Capacity":"4000",
"la":"38.28047000000",
"ln":"140.88906600000"
},
"geometry":{
"type":"Point",
"coordinates":[
140.889066,
38.28047
]
}
},
{
"type":"Feature",
"properties":{
"Name":"上愛子小学校",
"Jusho":"宮城県仙台市青葉区上愛子字白沢14",
"Capacity":"5400",
"la":"38.28463000000",
"ln":"140.69269400000"
},
"geometry":{
"type":"Point",
"coordinates":[
140.692694,
38.28463
]
}
},
{
"type":"Feature",
"properties":{
"Name":"上杉山通小学校",
"Jusho":"宮城県仙台市青葉区上杉1－0－",
"Capacity":"2300",
"la":"38.27158100000",
"ln":"140.87351300000"
},
"geometry":{
"type":"Point",
"coordinates":[
140.873513,
38.271581
]
}
},
{
"type":"Feature",
"properties":{
"Name":"折立小学校",
"Jusho":"宮城県仙台市青葉区折立4-2－",
"Capacity":"3400",
"la":"38.26047000000",
"ln":"140.80824200000"
},
"geometry":{
"type":"Point",
"coordinates":[
140.808242,
38.26047
]
}
},
{
"type":"Feature",
"properties":{
"Name":"川前小学校",
"Jusho":"宮城県仙台市青葉区芋沢字赤坂16",
"Capacity":"2900",
"la":"38.29018600000",
"ln":"140.74741200000"
},
"geometry":{
"type":"Point",
"coordinates":[
140.747412,
38.290186
]
}
},
{
"type":"Feature",
"properties":{
"Name":"川平小学校",
"Jusho":"宮城県仙台市青葉区川平3-36－",
"Capacity":"3300",
"la":"38.30546400000",
"ln":"140.83768100000"
},
"geometry":{
"type":"Point",
"coordinates":[
140.837681,
38.305464
]
}
},
{
"type":"Feature",
"properties":{
"Name":"台原小学校",
"Jusho":"宮城県仙台市青葉区台原5－6－",
"Capacity":"4400",
"la":"38.28602400000",
"ln":"140.87989900000"
},
"geometry":{
"type":"Point",
"coordinates":[
140.879899,
38.286024
]
}
},
{
"type":"Feature",
"properties":{
"Name":"大倉小学校",
"Jusho":"宮城県仙台市青葉区大倉字墓前1",
"Capacity":"3700",
"la":"38.33434600000",
"ln":"140.69880300000"
},
"geometry":{
"type":"Point",
"coordinates":[
140.698803,
38.334346
]
}
},
{
"type":"Feature",
"properties":{
"Name":"大沢小学校",
"Jusho":"宮城県仙台市青葉区芋沢字長坂22",
"Capacity":"4300",
"la":"38.29963000000",
"ln":"140.77407600000"
},
"geometry":{
"type":"Point",
"coordinates":[
140.774076,
38.29963
]
}
},
{
"type":"Feature",
"properties":{
"Name":"中山小学校",
"Jusho":"宮城県仙台市青葉区中山1-6－",
"Capacity":"4900",
"la":"38.29185500000",
"ln":"140.85018100000"
},
"geometry":{
"type":"Point",
"coordinates":[
140.850181,
38.291855
]
}
},
{
"type":"Feature",
"properties":{
"Name":"通町小学校",
"Jusho":"宮城県仙台市青葉区通町1－－",
"Capacity":"1900",
"la":"38.27685800000",
"ln":"140.86268000000"
},
"geometry":{
"type":"Point",
"coordinates":[
140.86268,
38.276858
]
}
},
{
"type":"Feature",
"properties":{
"Name":"東二番丁小学校",
"Jusho":"宮城県仙台市青葉区一番町2－-4",
"Capacity":"1500",
"la":"38.25936000000",
"ln":"140.87462500000"
},
"geometry":{
"type":"Point",
"coordinates":[
140.874625,
38.25936
]
}
},
{
"type":"Feature",
"properties":{
"Name":"東六番丁小学校",
"Jusho":"宮城県仙台市青葉区宮町1-2－",
"Capacity":"2200",
"la":"38.26602600000",
"ln":"140.88406700000"
},
"geometry":{
"type":"Point",
"coordinates":[
140.884067,
38.266026
]
}
},
{
"type":"Feature",
"properties":{
"Name":"南吉成小学校",
"Jusho":"宮城県仙台市青葉区南吉成5－8－",
"Capacity":"5700",
"la":"38.29102100000",
"ln":"140.81379600000"
},
"geometry":{
"type":"Point",
"coordinates":[
140.813796,
38.291021
]
}
},
{
"type":"Feature",
"properties":{
"Name":"八幡小学校",
"Jusho":"宮城県仙台市青葉区八幡2-9－",
"Capacity":"4000",
"la":"38.27158000000",
"ln":"140.85323700000"
},
"geometry":{
"type":"Point",
"coordinates":[
140.853237,
38.27158
]
}
},
{
"type":"Feature",
"properties":{
"Name":"片平丁小学校",
"Jusho":"宮城県仙台市青葉区片平1-7－",
"Capacity":"1900",
"la":"38.25602700000",
"ln":"140.86907000000"
},
"geometry":{
"type":"Point",
"coordinates":[
140.86907,
38.256027
]
}
},
{
"type":"Feature",
"properties":{
"Name":"北仙台小学校",
"Jusho":"宮城県仙台市青葉区東勝山3-6－",
"Capacity":"3500",
"la":"38.29741100000",
"ln":"140.86129000000"
},
"geometry":{
"type":"Point",
"coordinates":[
140.86129,
38.297411
]
}
},
{
"type":"Feature",
"properties":{
"Name":"北六番丁小学校",
"Jusho":"宮城県仙台市青葉区宮町4-4－7",
"Capacity":"1700",
"la":"38.27630300000",
"ln":"140.88240000000"
},
"geometry":{
"type":"Point",
"coordinates":[
140.8824,
38.276303
]
}
},
{
"type":"Feature",
"properties":{
"Name":"木町通小学校",
"Jusho":"宮城県仙台市青葉区木町通1-7-36",
"Capacity":"3700",
"la":"38.27102500000",
"ln":"140.86434700000"
},
"geometry":{
"type":"Point",
"coordinates":[
140.864347,
38.271025
]
}
},
{
"type":"Feature",
"properties":{
"Name":"立町小学校",
"Jusho":"宮城県仙台市青葉区立町8－",
"Capacity":"2600",
"la":"38.26213700000",
"ln":"140.86379200000"
},
"geometry":{
"type":"Point",
"coordinates":[
140.863792,
38.262137
]
}
},
{
"type":"Feature",
"properties":{
"Name":"燕沢小学校",
"Jusho":"宮城県仙台市宮城野区燕沢東3-8－",
"Capacity":"3300",
"la":"38.28852500000",
"ln":"140.92933900000"
},
"geometry":{
"type":"Point",
"coordinates":[
140.929339,
38.288525
]
}
},
{
"type":"Feature",
"properties":{
"Name":"岡田小学校",
"Jusho":"宮城県仙台市宮城野区岡田字北在家67",
"Capacity":"3700",
"la":"38.25686400000",
"ln":"140.97878100000"
},
"geometry":{
"type":"Point",
"coordinates":[
140.978781,
38.256864
]
}
},
{
"type":"Feature",
"properties":{
"Name":"岩切小学校",
"Jusho":"宮城県仙台市宮城野区岩切字今市東1-2",
"Capacity":"3400",
"la":"38.30001699910",
"ln":"140.94299500000"
},
"geometry":{
"type":"Point",
"coordinates":[
140.942995,
38.3000169991
]
}
},
{
"type":"Feature",
"properties":{
"Name":"宮城野小学校",
"Jusho":"宮城県仙台市宮城野区東宮城野2－",
"Capacity":"3400",
"la":"38.26075100000",
"ln":"140.91600900000"
},
"geometry":{
"type":"Point",
"coordinates":[
140.916009,
38.260751
]
}
},
{
"type":"Feature",
"properties":{
"Name":"原町小学校",
"Jusho":"宮城県仙台市宮城野区原町2-6－",
"Capacity":"1800",
"la":"38.26658300000",
"ln":"140.90323200000"
},
"geometry":{
"type":"Point",
"coordinates":[
140.903232,
38.266583
]
}
},
{
"type":"Feature",
"properties":{
"Name":"幸町小学校",
"Jusho":"宮城県仙台市宮城野区幸町2－9－",
"Capacity":"3300",
"la":"38.27685900000",
"ln":"140.89795400000"
},
"geometry":{
"type":"Point",
"coordinates":[
140.897954,
38.276859
]
}
},
{
"type":"Feature",
"properties":{
"Name":"幸町南小学校",
"Jusho":"宮城県仙台市宮城野区幸町5-2－",
"Capacity":"5100",
"la":"38.27408200000",
"ln":"140.89934300000"
},
"geometry":{
"type":"Point",
"coordinates":[
140.899343,
38.274082
]
}
},
{
"type":"Feature",
"properties":{
"Name":"高砂小学校",
"Jusho":"宮城県仙台市宮城野区福田町1－1－",
"Capacity":"3000",
"la":"38.27380500000",
"ln":"140.95794900000"
},
"geometry":{
"type":"Point",
"coordinates":[
140.957949,
38.273805
]
}
},
{
"type":"Feature",
"properties":{
"Name":"新田小学校",
"Jusho":"宮城県仙台市宮城野区新田4-30－",
"Capacity":"4000",
"la":"38.27630400000",
"ln":"140.92822900000"
},
"geometry":{
"type":"Point",
"coordinates":[
140.928229,
38.276304
]
}
},
{
"type":"Feature",
"properties":{
"Name":"西山小学校",
"Jusho":"宮城県仙台市宮城野区燕沢2-23－",
"Capacity":"3000",
"la":"38.28324800000",
"ln":"140.91489700000"
},
"geometry":{
"type":"Point",
"coordinates":[
140.914897,
38.283248
]
}
},
{
"type":"Feature",
"properties":{
"Name":"中野栄小学校",
"Jusho":"宮城県仙台市宮城野区栄3－2－",
"Capacity":"4500",
"la":"38.28297300000",
"ln":"140.98239100000"
},
"geometry":{
"type":"Point",
"coordinates":[
140.982391,
38.282973
]
}
},
{
"type":"Feature",
"properties":{
"Name":"中野小学校",
"Jusho":"宮城県仙台市宮城野区中野字西原152",
"Capacity":"2600",
"la":"38.25714300000",
"ln":"141.00294600000"
},
"geometry":{
"type":"Point",
"coordinates":[
141.002946,
38.257143
]
}
},
{
"type":"Feature",
"properties":{
"Name":"鶴巻小学校",
"Jusho":"宮城県仙台市宮城野区鶴巻1－5－",
"Capacity":"5000",
"la":"38.26297400000",
"ln":"140.96767100000"
},
"geometry":{
"type":"Point",
"coordinates":[
140.967671,
38.262974
]
}
},
{
"type":"Feature",
"properties":{
"Name":"鶴谷小学校",
"Jusho":"宮城県仙台市宮城野区鶴ケ谷3－7",
"Capacity":"7800",
"la":"38.29074600000",
"ln":"140.91045200000"
},
"geometry":{
"type":"Point",
"coordinates":[
140.910452,
38.290746
]
}
},
{
"type":"Feature",
"properties":{
"Name":"鶴谷東小学校",
"Jusho":"宮城県仙台市宮城野区鶴ケ谷6-2",
"Capacity":"3700",
"la":"38.29102500000",
"ln":"140.91989600000"
},
"geometry":{
"type":"Point",
"coordinates":[
140.919896,
38.291025
]
}
},
{
"type":"Feature",
"properties":{
"Name":"田子小学校",
"Jusho":"宮城県仙台市宮城野区田子2－－",
"Capacity":"6200",
"la":"38.28019400000",
"ln":"140.96239300000"
},
"geometry":{
"type":"Point",
"coordinates":[
140.962393,
38.280194
]
}
},
{
"type":"Feature",
"properties":{
"Name":"東宮城野小学校",
"Jusho":"宮城県仙台市宮城野区東宮城野5－",
"Capacity":"1900",
"la":"38.25908400000",
"ln":"140.91934300000"
},
"geometry":{
"type":"Point",
"coordinates":[
140.919343,
38.259084
]
}
},
{
"type":"Feature",
"properties":{
"Name":"東仙台小学校",
"Jusho":"宮城県仙台市宮城野区東仙台5-26－",
"Capacity":"2300",
"la":"38.27769300000",
"ln":"140.91267500000"
},
"geometry":{
"type":"Point",
"coordinates":[
140.912675,
38.277693
]
}
},
{
"type":"Feature",
"properties":{
"Name":"福室小学校",
"Jusho":"宮城県仙台市宮城野区福室5－6－",
"Capacity":"4600",
"la":"38.28047300000",
"ln":"140.97211500000"
},
"geometry":{
"type":"Point",
"coordinates":[
140.972115,
38.280473
]
}
},
{
"type":"Feature",
"properties":{
"Name":"枡江小学校",
"Jusho":"宮城県仙台市宮城野区枡江15－",
"Capacity":"2700",
"la":"38.28113041970",
"ln":"140.90430634800"
},
"geometry":{
"type":"Point",
"coordinates":[
140.904306348,
38.2811304197
]
}
},
{
"type":"Feature",
"properties":{
"Name":"榴岡小学校",
"Jusho":"宮城県仙台市宮城野区東九番丁88－",
"Capacity":"2500",
"la":"38.26158300000",
"ln":"140.89073400000"
},
"geometry":{
"type":"Point",
"coordinates":[
140.890734,
38.261583
]
}
},
{
"type":"Feature",
"properties":{
"Name":"遠見塚小学校",
"Jusho":"宮城県仙台市若林区遠見塚1-22－",
"Capacity":"4000",
"la":"38.23825200000",
"ln":"140.91267800000"
},
"geometry":{
"type":"Point",
"coordinates":[
140.912678,
38.238252
]
}
},
{
"type":"Feature",
"properties":{
"Name":"沖野小学校",
"Jusho":"宮城県仙台市若林区沖野3-20－",
"Capacity":"3500",
"la":"38.22590804040",
"ln":"140.91380088400"
},
"geometry":{
"type":"Point",
"coordinates":[
140.913800884,
38.2259080404
]
}
},
{
"type":"Feature",
"properties":{
"Name":"沖野東小学校",
"Jusho":"宮城県仙台市若林区沖野字高野南89",
"Capacity":"4900",
"la":"38.22242100000",
"ln":"140.92240000000"
},
"geometry":{
"type":"Point",
"coordinates":[
140.9224,
38.222421
]
}
},
{
"type":"Feature",
"properties":{
"Name":"蒲町小学校",
"Jusho":"宮城県仙台市若林区蒲町41－",
"Capacity":"5200",
"la":"38.24241900000",
"ln":"140.92906500000"
},
"geometry":{
"type":"Point",
"coordinates":[
140.929065,
38.242419
]
}
},
{
"type":"Feature",
"properties":{
"Name":"古城小学校",
"Jusho":"宮城県仙台市若林区古城2－－",
"Capacity":"4700",
"la":"38.23603000000",
"ln":"140.89740100000"
},
"geometry":{
"type":"Point",
"coordinates":[
140.897401,
38.23603
]
}
},
{
"type":"Feature",
"properties":{
"Name":"荒町小学校",
"Jusho":"宮城県仙台市若林区荒町86",
"Capacity":"2200",
"la":"38.24880500000",
"ln":"140.88101300000"
},
"geometry":{
"type":"Point",
"coordinates":[
140.881013,
38.248805
]
}
},
{
"type":"Feature",
"properties":{
"Name":"荒浜小学校",
"Jusho":"宮城県仙台市若林区荒浜字新堀端32－",
"Capacity":"2200",
"la":"38.22242400000",
"ln":"140.98045000000"
},
"geometry":{
"type":"Point",
"coordinates":[
140.98045,
38.222424
]
}
},
{
"type":"Feature",
"properties":{
"Name":"七郷小学校",
"Jusho":"宮城県仙台市若林区荒井字堀添53-2",
"Capacity":"3600",
"la":"38.24103000000",
"ln":"140.94212000000"
},
"geometry":{
"type":"Point",
"coordinates":[
140.94212,
38.24103
]
}
},
{
"type":"Feature",
"properties":{
"Name":"若林小学校",
"Jusho":"宮城県仙台市若林区若林4-3－",
"Capacity":"3600",
"la":"38.22991900000",
"ln":"140.89934600000"
},
"geometry":{
"type":"Point",
"coordinates":[
140.899346,
38.229919
]
}
},
{
"type":"Feature",
"properties":{
"Name":"大和小学校",
"Jusho":"宮城県仙台市若林区大和町3－6－",
"Capacity":"2000",
"la":"38.24658500000",
"ln":"140.91739900000"
},
"geometry":{
"type":"Point",
"coordinates":[
140.917399,
38.246585
]
}
},
{
"type":"Feature",
"properties":{
"Name":"東六郷小学校",
"Jusho":"宮城県仙台市若林区種次字山王前2-6",
"Capacity":"3600",
"la":"38.19909200000",
"ln":"140.94851000000"
},
"geometry":{
"type":"Point",
"coordinates":[
140.94851,
38.199092
]
}
},
{
"type":"Feature",
"properties":{
"Name":"南材木町小学校",
"Jusho":"宮城県仙台市若林区南材木町84",
"Capacity":"2800",
"la":"38.24130700000",
"ln":"140.88962400000"
},
"geometry":{
"type":"Point",
"coordinates":[
140.889624,
38.241307
]
}
},
{
"type":"Feature",
"properties":{
"Name":"南小泉小学校",
"Jusho":"宮城県仙台市若林区一本杉町17－0",
"Capacity":"3300",
"la":"38.24436300000",
"ln":"140.90545600000"
},
"geometry":{
"type":"Point",
"coordinates":[
140.905456,
38.244363
]
}
},
{
"type":"Feature",
"properties":{
"Name":"連坊小路小学校",
"Jusho":"宮城県仙台市若林区連坊1-7-27",
"Capacity":"3300",
"la":"38.25297200000",
"ln":"140.88851200000"
},
"geometry":{
"type":"Point",
"coordinates":[
140.888512,
38.252972
]
}
},
{
"type":"Feature",
"properties":{
"Name":"六郷小学校",
"Jusho":"宮城県仙台市若林区六郷11－1",
"Capacity":"3200",
"la":"38.21520000000",
"ln":"140.93295500000"
},
"geometry":{
"type":"Point",
"coordinates":[
140.932955,
38.2152
]
}
},
{
"type":"Feature",
"properties":{
"Name":"芦口小学校",
"Jusho":"宮城県仙台市太白区芦の口1－",
"Capacity":"3500",
"la":"38.23075200000",
"ln":"140.85601600000"
},
"geometry":{
"type":"Point",
"coordinates":[
140.856016,
38.230752
]
}
},
{
"type":"Feature",
"properties":{
"Name":"金剛沢小学校",
"Jusho":"宮城県仙台市太白区金剛沢1－－",
"Capacity":"2300",
"la":"38.22936300000",
"ln":"140.84879400000"
},
"geometry":{
"type":"Point",
"coordinates":[
140.848794,
38.229363
]
}
},
{
"type":"Feature",
"properties":{
"Name":"郡山小学校",
"Jusho":"宮城県仙台市太白区郡山字行新田1－",
"Capacity":"5700",
"la":"38.21658800000",
"ln":"140.89962400000"
},
"geometry":{
"type":"Point",
"coordinates":[
140.899624,
38.216588
]
}
},
{
"type":"Feature",
"properties":{
"Name":"向山小学校",
"Jusho":"宮城県仙台市太白区向山3－9－",
"Capacity":"5900",
"la":"38.24408300000",
"ln":"140.86712600000"
},
"geometry":{
"type":"Point",
"coordinates":[
140.867126,
38.244083
]
}
},
{
"type":"Feature",
"properties":{
"Name":"四郎丸小学校",
"Jusho":"宮城県仙台市太白区四郎丸字吹上6-3",
"Capacity":"4600",
"la":"38.19353500000",
"ln":"140.91073500000"
},
"geometry":{
"type":"Point",
"coordinates":[
140.910735,
38.193535
]
}
},
{
"type":"Feature",
"properties":{
"Name":"鹿野小学校",
"Jusho":"宮城県仙台市太白区鹿野2-9－",
"Capacity":"4000",
"la":"38.22853000000",
"ln":"140.87045900000"
},
"geometry":{
"type":"Point",
"coordinates":[
140.870459,
38.22853
]
}
},
{
"type":"Feature",
"properties":{
"Name":"秋保小学校",
"Jusho":"宮城県仙台市太白区秋保町長袋字町15",
"Capacity":"3500",
"la":"38.25629900000",
"ln":"140.68019600000"
},
"geometry":{
"type":"Point",
"coordinates":[
140.680196,
38.256299
]
}
},
{
"type":"Feature",
"properties":{
"Name":"上野山小学校",
"Jusho":"宮城県仙台市太白区上野山1-20－",
"Capacity":"3900",
"la":"38.22686300000",
"ln":"140.82963000000"
},
"geometry":{
"type":"Point",
"coordinates":[
140.82963,
38.226863
]
}
},
{
"type":"Feature",
"properties":{
"Name":"人来田小学校",
"Jusho":"宮城県仙台市太白区人来田1－－",
"Capacity":"4100",
"la":"38.22464000000",
"ln":"140.80991000000"
},
"geometry":{
"type":"Point",
"coordinates":[
140.80991,
38.22464
]
}
},
{
"type":"Feature",
"properties":{
"Name":"生出小学校",
"Jusho":"宮城県仙台市太白区茂字中ノ瀬西5-2",
"Capacity":"3000",
"la":"38.21964000000",
"ln":"140.78852300000"
},
"geometry":{
"type":"Point",
"coordinates":[
140.788523,
38.21964
]
}
},
{
"type":"Feature",
"properties":{
"Name":"生出小学校赤石分校",
"Jusho":"宮城県仙台市太白区茂庭字合ノ沢南31",
"Capacity":"2800",
"la":"38.21713900000",
"ln":"140.75547000000"
},
"geometry":{
"type":"Point",
"coordinates":[
140.75547,
38.217139
]
}
},
{
"type":"Feature",
"properties":{
"Name":"西多賀小学校",
"Jusho":"宮城県仙台市太白区西多賀2-3－",
"Capacity":"3300",
"la":"38.21992000000",
"ln":"140.85907100000"
},
"geometry":{
"type":"Point",
"coordinates":[
140.859071,
38.21992
]
}
},
{
"type":"Feature",
"properties":{
"Name":"西中田小学校",
"Jusho":"宮城県仙台市太白区西中田7-7－",
"Capacity":"4500",
"la":"38.19270100000",
"ln":"140.87573800000"
},
"geometry":{
"type":"Point",
"coordinates":[
140.875738,
38.192701
]
}
},
{
"type":"Feature",
"properties":{
"Name":"太白小学校",
"Jusho":"宮城県仙台市太白区太白1-5－",
"Capacity":"3600",
"la":"38.23130700000",
"ln":"140.81740900000"
},
"geometry":{
"type":"Point",
"coordinates":[
140.817409,
38.231307
]
}
},
{
"type":"Feature",
"properties":{
"Name":"袋原小学校",
"Jusho":"宮城県仙台市太白区中田町字法地南4-2",
"Capacity":"3800",
"la":"38.19631200000",
"ln":"140.90268000000"
},
"geometry":{
"type":"Point",
"coordinates":[
140.90268,
38.196312
]
}
},
{
"type":"Feature",
"properties":{
"Name":"大野田小学校",
"Jusho":"宮城県仙台市太白区大野田字六反田10-5",
"Capacity":"4000",
"la":"38.21686500000",
"ln":"140.87490300000"
},
"geometry":{
"type":"Point",
"coordinates":[
140.874903,
38.216865
]
}
},
{
"type":"Feature",
"properties":{
"Name":"中田小学校",
"Jusho":"宮城県仙台市太白区中田4－－",
"Capacity":"6400",
"la":"38.20047800000",
"ln":"140.88712600000"
},
"geometry":{
"type":"Point",
"coordinates":[
140.887126,
38.200478
]
}
},
{
"type":"Feature",
"properties":{
"Name":"長町小学校",
"Jusho":"宮城県仙台市太白区長町4-6－",
"Capacity":"3600",
"la":"38.23214100000",
"ln":"140.88073600000"
},
"geometry":{
"type":"Point",
"coordinates":[
140.880736,
38.232141
]
}
},
{
"type":"Feature",
"properties":{
"Name":"長町南小学校",
"Jusho":"宮城県仙台市太白区長町7-23－",
"Capacity":"3500",
"la":"38.22630800000",
"ln":"140.87407000000"
},
"geometry":{
"type":"Point",
"coordinates":[
140.87407,
38.226308
]
}
},
{
"type":"Feature",
"properties":{
"Name":"坪沼小学校",
"Jusho":"宮城県仙台市太白区坪沼字長田中9－",
"Capacity":"1200",
"la":"38.19158700000",
"ln":"140.77213600000"
},
"geometry":{
"type":"Point",
"coordinates":[
140.772136,
38.191587
]
}
},
{
"type":"Feature",
"properties":{
"Name":"東四郎丸小学校",
"Jusho":"宮城県仙台市太白区四郎丸字昭和北1",
"Capacity":"5900",
"la":"38.19325800000",
"ln":"140.92379000000"
},
"geometry":{
"type":"Point",
"coordinates":[
140.92379,
38.193258
]
}
},
{
"type":"Feature",
"properties":{
"Name":"東長町小学校",
"Jusho":"宮城県仙台市太白区郡山6-5－",
"Capacity":"5400",
"la":"38.21880900000",
"ln":"140.88934700000"
},
"geometry":{
"type":"Point",
"coordinates":[
140.889347,
38.218809
]
}
},
{
"type":"Feature",
"properties":{
"Name":"湯元小学校",
"Jusho":"宮城県仙台市太白区秋保町湯向29-3",
"Capacity":"4400",
"la":"38.22991400000",
"ln":"140.71963900000"
},
"geometry":{
"type":"Point",
"coordinates":[
140.719639,
38.229914
]
}
},
{
"type":"Feature",
"properties":{
"Name":"馬場小学校",
"Jusho":"宮城県仙台市太白区秋保町馬場字町北25",
"Capacity":"1700",
"la":"38.27036800000",
"ln":"140.64409600000"
},
"geometry":{
"type":"Point",
"coordinates":[
140.644096,
38.270368
]
}
},
{
"type":"Feature",
"properties":{
"Name":"八本松小学校",
"Jusho":"宮城県仙台市太白区八本松1－6－",
"Capacity":"2500",
"la":"38.22603100000",
"ln":"140.89767900000"
},
"geometry":{
"type":"Point",
"coordinates":[
140.897679,
38.226031
]
}
},
{
"type":"Feature",
"properties":{
"Name":"八木山小学校",
"Jusho":"宮城県仙台市太白区八木山本町1-40－",
"Capacity":"7400",
"la":"38.23963900000",
"ln":"140.84823900000"
},
"geometry":{
"type":"Point",
"coordinates":[
140.848239,
38.239639
]
}
},
{
"type":"Feature",
"properties":{
"Name":"八木山南小学校",
"Jusho":"宮城県仙台市太白区八木山南5-3-2",
"Capacity":"3400",
"la":"38.23408400000",
"ln":"140.83185200000"
},
"geometry":{
"type":"Point",
"coordinates":[
140.831852,
38.234084
]
}
},
{
"type":"Feature",
"properties":{
"Name":"富沢小学校",
"Jusho":"宮城県仙台市太白区富沢字中河原17－",
"Capacity":"3000",
"la":"38.20979634120",
"ln":"140.86312968400"
},
"geometry":{
"type":"Point",
"coordinates":[
140.863129684,
38.2097963412
]
}
},
{
"type":"Feature",
"properties":{
"Name":"茂庭台小学校",
"Jusho":"宮城県仙台市太白区茂庭台4－7－",
"Capacity":"4300",
"la":"38.23713800000",
"ln":"140.78380000000"
},
"geometry":{
"type":"Point",
"coordinates":[
140.7838,
38.237138
]
}
},
{
"type":"Feature",
"properties":{
"Name":"柳生小学校",
"Jusho":"宮城県仙台市太白区柳生字台畑100",
"Capacity":"4100",
"la":"38.19881100000",
"ln":"140.87184900000"
},
"geometry":{
"type":"Point",
"coordinates":[
140.871849,
38.198811
]
}
},
{
"type":"Feature",
"properties":{
"Name":"加茂小学校",
"Jusho":"宮城県仙台市泉区加茂4-3",
"Capacity":"7100",
"la":"38.31324100000",
"ln":"140.85379000000"
},
"geometry":{
"type":"Point",
"coordinates":[
140.85379,
38.313241
]
}
},
{
"type":"Feature",
"properties":{
"Name":"館小学校",
"Jusho":"宮城県仙台市泉区館7－－7",
"Capacity":"8300",
"la":"38.31240700000",
"ln":"140.79935200000"
},
"geometry":{
"type":"Point",
"coordinates":[
140.799352,
38.312407
]
}
},
{
"type":"Feature",
"properties":{
"Name":"桂小学校",
"Jusho":"宮城県仙台市泉区桂3－－",
"Capacity":"5000",
"la":"38.33879500000",
"ln":"140.86517600000"
},
"geometry":{
"type":"Point",
"coordinates":[
140.865176,
38.338795
]
}
},
{
"type":"Feature",
"properties":{
"Name":"向陽台小学校",
"Jusho":"宮城県仙台市泉区向陽台5-6－2",
"Capacity":"5800",
"la":"38.33518500000",
"ln":"140.89795100000"
},
"geometry":{
"type":"Point",
"coordinates":[
140.897951,
38.335185
]
}
},
{
"type":"Feature",
"properties":{
"Name":"高森小学校",
"Jusho":"宮城県仙台市泉区高森3－",
"Capacity":"5200",
"la":"38.34073800000",
"ln":"140.84545600000"
},
"geometry":{
"type":"Point",
"coordinates":[
140.845456,
38.340738
]
}
},
{
"type":"Feature",
"properties":{
"Name":"高森東小学校",
"Jusho":"宮城県仙台市泉区高森7－－",
"Capacity":"4300",
"la":"38.33935000000",
"ln":"140.85490000000"
},
"geometry":{
"type":"Point",
"coordinates":[
140.8549,
38.33935
]
}
},
{
"type":"Feature",
"properties":{
"Name":"黒松小学校",
"Jusho":"宮城県仙台市泉区黒松3－1－",
"Capacity":"4600",
"la":"38.30852200000",
"ln":"140.88656400000"
},
"geometry":{
"type":"Point",
"coordinates":[
140.886564,
38.308522
]
}
},
{
"type":"Feature",
"properties":{
"Name":"根白石小学校",
"Jusho":"宮城県仙台市泉区根白石字杉下前15",
"Capacity":"5500",
"la":"38.34157100000",
"ln":"140.79657200000"
},
"geometry":{
"type":"Point",
"coordinates":[
140.796572,
38.341571
]
}
},
{
"type":"Feature",
"properties":{
"Name":"市名坂小学校",
"Jusho":"宮城県仙台市泉区市名坂字高玉1",
"Capacity":"3300",
"la":"38.31763500000",
"ln":"140.89075300000"
},
"geometry":{
"type":"Point",
"coordinates":[
140.890753,
38.317635
]
}
},
{
"type":"Feature",
"properties":{
"Name":"寺岡小学校",
"Jusho":"宮城県仙台市泉区寺岡2－4－",
"Capacity":"6200",
"la":"38.34018300000",
"ln":"140.82823600000"
},
"geometry":{
"type":"Point",
"coordinates":[
140.828236,
38.340183
]
}
},
{
"type":"Feature",
"properties":{
"Name":"七北田小学校",
"Jusho":"宮城県仙台市泉区七北田字東裏90",
"Capacity":"4700",
"la":"38.32296400000",
"ln":"140.89267400000"
},
"geometry":{
"type":"Point",
"coordinates":[
140.892674,
38.322964
]
}
},
{
"type":"Feature",
"properties":{
"Name":"実沢小学校",
"Jusho":"宮城県仙台市泉区実沢字一本橋20",
"Capacity":"2800",
"la":"38.32879500000",
"ln":"140.82212600000"
},
"geometry":{
"type":"Point",
"coordinates":[
140.822126,
38.328795
]
}
},
{
"type":"Feature",
"properties":{
"Name":"住吉台小学校",
"Jusho":"宮城県仙台市泉区住吉台西4－－",
"Capacity":"6600",
"la":"38.32946485950",
"ln":"140.78249982600"
},
"geometry":{
"type":"Point",
"coordinates":[
140.782499826,
38.3294648595
]
}
},
{
"type":"Feature",
"properties":{
"Name":"将監小学校",
"Jusho":"宮城県仙台市泉区将監3－0－",
"Capacity":"6800",
"la":"38.33379600000",
"ln":"140.88295300000"
},
"geometry":{
"type":"Point",
"coordinates":[
140.882953,
38.333796
]
}
},
{
"type":"Feature",
"properties":{
"Name":"将監西小学校",
"Jusho":"宮城県仙台市泉区将監10-29－",
"Capacity":"4400",
"la":"38.33490600000",
"ln":"140.86962100000"
},
"geometry":{
"type":"Point",
"coordinates":[
140.869621,
38.334906
]
}
},
{
"type":"Feature",
"properties":{
"Name":"将監中央小学校",
"Jusho":"宮城県仙台市泉区将監10-3－",
"Capacity":"6200",
"la":"38.33657300000",
"ln":"140.87378700000"
},
"geometry":{
"type":"Point",
"coordinates":[
140.873787,
38.336573
]
}
},
{
"type":"Feature",
"properties":{
"Name":"松森小学校",
"Jusho":"宮城県仙台市泉区鶴が丘2-2",
"Capacity":"4900",
"la":"38.31991000000",
"ln":"140.91933900000"
},
"geometry":{
"type":"Point",
"coordinates":[
140.919339,
38.31991
]
}
},
{
"type":"Feature",
"properties":{
"Name":"松陵小学校",
"Jusho":"宮城県仙台市泉区松陵4-28-2",
"Capacity":"6100",
"la":"38.33268600000",
"ln":"140.91711600000"
},
"geometry":{
"type":"Point",
"coordinates":[
140.917116,
38.332686
]
}
},
{
"type":"Feature",
"properties":{
"Name":"松陵西小学校",
"Jusho":"宮城県仙台市泉区松陵3-35",
"Capacity":"5000",
"la":"38.33129700000",
"ln":"140.90739500000"
},
"geometry":{
"type":"Point",
"coordinates":[
140.907395,
38.331297
]
}
},
{
"type":"Feature",
"properties":{
"Name":"泉ケ丘小学校",
"Jusho":"宮城県仙台市泉区明通4－2－",
"Capacity":"7900",
"la":"38.35657100000",
"ln":"140.86184300000"
},
"geometry":{
"type":"Point",
"coordinates":[
140.861843,
38.356571
]
}
},
{
"type":"Feature",
"properties":{
"Name":"長命ケ丘小学校",
"Jusho":"宮城県仙台市泉区長命ケ丘5－4－",
"Capacity":"5600",
"la":"38.31490800000",
"ln":"140.83379200000"
},
"geometry":{
"type":"Point",
"coordinates":[
140.833792,
38.314908
]
}
},
{
"type":"Feature",
"properties":{
"Name":"鶴が丘小学校",
"Jusho":"宮城県仙台市泉区鶴が丘1-350",
"Capacity":"5400",
"la":"38.31630000000",
"ln":"140.93044900000"
},
"geometry":{
"type":"Point",
"coordinates":[
140.930449,
38.3163
]
}
},
{
"type":"Feature",
"properties":{
"Name":"南光台小学校",
"Jusho":"宮城県仙台市泉区南光台7－0－",
"Capacity":"6400",
"la":"38.30074500000",
"ln":"140.90073000000"
},
"geometry":{
"type":"Point",
"coordinates":[
140.90073,
38.300745
]
}
},
{
"type":"Feature",
"properties":{
"Name":"南光台東小学校",
"Jusho":"宮城県仙台市泉区南光台東2－6－",
"Capacity":"5400",
"la":"38.29880100000",
"ln":"140.91184000000"
},
"geometry":{
"type":"Point",
"coordinates":[
140.91184,
38.298801
]
}
},
{
"type":"Feature",
"properties":{
"Name":"南中山小学校",
"Jusho":"宮城県仙台市泉区南中山2-24－4",
"Capacity":"6800",
"la":"38.30851900000",
"ln":"140.82323800000"
},
"geometry":{
"type":"Point",
"coordinates":[
140.823238,
38.308519
]
}
},
{
"type":"Feature",
"properties":{
"Name":"虹の丘小学校",
"Jusho":"宮城県仙台市泉区虹の丘1－0－",
"Capacity":"4800",
"la":"38.30796500000",
"ln":"140.87323200000"
},
"geometry":{
"type":"Point",
"coordinates":[
140.873232,
38.307965
]
}
},
{
"type":"Feature",
"properties":{
"Name":"八乙女小学校",
"Jusho":"宮城県仙台市泉区松森字不動148",
"Capacity":"3600",
"la":"38.30768900000",
"ln":"140.89461900000"
},
"geometry":{
"type":"Point",
"coordinates":[
140.894619,
38.307689
]
}
},
{
"type":"Feature",
"properties":{
"Name":"福岡小学校",
"Jusho":"宮城県仙台市泉区福岡字堰添10",
"Capacity":"3900",
"la":"38.35434700000",
"ln":"140.78157300000"
},
"geometry":{
"type":"Point",
"coordinates":[
140.781573,
38.354347
]
}
},
{
"type":"Feature",
"properties":{
"Name":"北中山小学校",
"Jusho":"宮城県仙台市泉区北中山2-27-5",
"Capacity":"5200",
"la":"38.31574100000",
"ln":"140.81518200000"
},
"geometry":{
"type":"Point",
"coordinates":[
140.815182,
38.315741
]
}
},
{
"type":"Feature",
"properties":{
"Name":"野村小学校",
"Jusho":"宮城県仙台市泉区野村字東原前7",
"Capacity":"2100",
"la":"38.32490700000",
"ln":"140.86128900000"
},
"geometry":{
"type":"Point",
"coordinates":[
140.861289,
38.324907
]
}
},
{
"type":"Feature",
"properties":{
"Name":"（旧）水浜小学校",
"Jusho":"宮城県石巻市雄勝町水浜字水浜68番地",
"Capacity":"－",
"la":"38.50006000000",
"ln":"141.48606300000"
},
"geometry":{
"type":"Point",
"coordinates":[
141.486063,
38.50006
]
}
},
{
"type":"Feature",
"properties":{
"Name":"鮎川小学校",
"Jusho":"宮城県石巻市鮎川浜清崎山1番地1",
"Capacity":"260",
"la":"38.30270800000",
"ln":"141.50178000000"
},
"geometry":{
"type":"Point",
"coordinates":[
141.50178,
38.302708
]
}
},
{
"type":"Feature",
"properties":{
"Name":"稲井小学校",
"Jusho":"宮城県石巻市真野字八の坪116番地1",
"Capacity":"355",
"la":"38.44796300000",
"ln":"141.35734500000"
},
"geometry":{
"type":"Point",
"coordinates":[
141.357345,
38.447963
]
}
},
{
"type":"Feature",
"properties":{
"Name":"荻浜小学校",
"Jusho":"宮城県石巻市桃浦字米久保5番地",
"Capacity":"213",
"la":"38.39602800000",
"ln":"141.43761500000"
},
"geometry":{
"type":"Point",
"coordinates":[
141.437615,
38.396028
]
}
},
{
"type":"Feature",
"properties":{
"Name":"開北小学校",
"Jusho":"宮城県石巻市大橋一丁目2番1",
"Capacity":"391",
"la":"38.44296200000",
"ln":"141.31373800000"
},
"geometry":{
"type":"Point",
"coordinates":[
141.313738,
38.442962
]
}
},
{
"type":"Feature",
"properties":{
"Name":"釜小学校",
"Jusho":"宮城県石巻市大街道西二丁目5番1号",
"Capacity":"364",
"la":"38.43268400000",
"ln":"141.27374100000"
},
"geometry":{
"type":"Point",
"coordinates":[
141.273741,
38.432684
]
}
},
{
"type":"Feature",
"properties":{
"Name":"寄磯小学校",
"Jusho":"宮城県石巻市寄磯浜五梅沢24番地",
"Capacity":"－",
"la":"38.39158467140",
"ln":"141.52288500000"
},
"geometry":{
"type":"Point",
"coordinates":[
141.522885,
38.3915846714
]
}
},
{
"type":"Feature",
"properties":{
"Name":"吉浜小学校",
"Jusho":"宮城県石巻市北上町十三浜字東田50番地3",
"Capacity":"602",
"la":"38.57651900000",
"ln":"141.45211200000"
},
"geometry":{
"type":"Point",
"coordinates":[
141.452112,
38.576519
]
}
},
{
"type":"Feature",
"properties":{
"Name":"橋浦小学校",
"Jusho":"宮城県石巻市北上町長尾字松崎1番地",
"Capacity":"422",
"la":"38.55377800000",
"ln":"141.40841600000"
},
"geometry":{
"type":"Point",
"coordinates":[
141.408416,
38.553778
]
}
},
{
"type":"Feature",
"properties":{
"Name":"向陽小学校",
"Jusho":"宮城県石巻市向陽町四丁目13番24号",
"Capacity":"364",
"la":"38.45212700000",
"ln":"141.27846200000"
},
"geometry":{
"type":"Point",
"coordinates":[
141.278462,
38.452127
]
}
},
{
"type":"Feature",
"properties":{
"Name":"広渕小学校",
"Jusho":"宮城県石巻市広渕字町北233番地",
"Capacity":"548",
"la":"38.47323300000",
"ln":"141.20930000000"
},
"geometry":{
"type":"Point",
"coordinates":[
141.2093,
38.473233
]
}
},
{
"type":"Feature",
"properties":{
"Name":"山下小学校",
"Jusho":"宮城県石巻市山下町一丁目10番10号",
"Capacity":"364",
"la":"38.43240700000",
"ln":"141.29568400000"
},
"geometry":{
"type":"Point",
"coordinates":[
141.295684,
38.432407
]
}
},
{
"type":"Feature",
"properties":{
"Name":"鹿妻小学校",
"Jusho":"宮城県石巻市鹿妻北二丁目2番地1号",
"Capacity":"558",
"la":"38.42319100000",
"ln":"141.34622000000"
},
"geometry":{
"type":"Point",
"coordinates":[
141.34622,
38.423191
]
}
},
{
"type":"Feature",
"properties":{
"Name":"鹿又小学校",
"Jusho":"宮城県石巻市鹿又字矢袋屋敷合31番地",
"Capacity":"239",
"la":"38.48379000000",
"ln":"141.28207100000"
},
"geometry":{
"type":"Point",
"coordinates":[
141.282071,
38.48379
]
}
},
{
"type":"Feature",
"properties":{
"Name":"蛇田小学校",
"Jusho":"宮城県石巻市蛇田字上中埣97番地の1",
"Capacity":"353",
"la":"38.44462800000",
"ln":"141.27874000000"
},
"geometry":{
"type":"Point",
"coordinates":[
141.27874,
38.444628
]
}
},
{
"type":"Feature",
"properties":{
"Name":"住吉小学校",
"Jusho":"宮城県石巻市住吉町二丁目4番27号",
"Capacity":"601",
"la":"38.43768500000",
"ln":"141.31262700000"
},
"geometry":{
"type":"Point",
"coordinates":[
141.312627,
38.437685
]
}
},
{
"type":"Feature",
"properties":{
"Name":"真野小学校跡地",
"Jusho":"宮城県石巻市真野字馬場前77番地",
"Capacity":"－",
"la":"38.47061400000",
"ln":"141.37542600000"
},
"geometry":{
"type":"Point",
"coordinates":[
141.375426,
38.470614
]
}
},
{
"type":"Feature",
"properties":{
"Name":"須江小学校",
"Jusho":"宮城県石巻市須江字代官43番地",
"Capacity":"225",
"la":"38.47379000000",
"ln":"141.24068600000"
},
"geometry":{
"type":"Point",
"coordinates":[
141.240686,
38.47379
]
}
},
{
"type":"Feature",
"properties":{
"Name":"石巻小学校",
"Jusho":"宮城県石巻市泉町一丁目1番2号",
"Capacity":"523",
"la":"38.42879700000",
"ln":"141.30540600000"
},
"geometry":{
"type":"Point",
"coordinates":[
141.305406,
38.428797
]
}
},
{
"type":"Feature",
"properties":{
"Name":"船越小学校",
"Jusho":"宮城県石巻市雄勝町船越字天王山43番地",
"Capacity":"352",
"la":"38.53182200000",
"ln":"141.51241100000"
},
"geometry":{
"type":"Point",
"coordinates":[
141.512411,
38.531822
]
}
},
{
"type":"Feature",
"properties":{
"Name":"船越小学校立浜分校跡地",
"Jusho":"宮城県石巻市雄勝町立浜字寺下7番地1",
"Capacity":"－",
"la":"38.43167771960",
"ln":"141.30722153900"
},
"geometry":{
"type":"Point",
"coordinates":[
141.307221539,
38.4316777196
]
}
},
{
"type":"Feature",
"properties":{
"Name":"前谷地小学校",
"Jusho":"宮城県石巻市前谷地字沖埣125番地",
"Capacity":"248",
"la":"38.52072700000",
"ln":"141.18957800000"
},
"geometry":{
"type":"Point",
"coordinates":[
141.189578,
38.520727
]
}
},
{
"type":"Feature",
"properties":{
"Name":"相川小学校",
"Jusho":"宮城県石巻市北上町十三浜字相川100番地",
"Capacity":"291",
"la":"38.60399100000",
"ln":"141.49883600000"
},
"geometry":{
"type":"Point",
"coordinates":[
141.498836,
38.603991
]
}
},
{
"type":"Feature",
"properties":{
"Name":"大街道小学校",
"Jusho":"宮城県石巻市大街道南一丁目3番1号",
"Capacity":"493",
"la":"38.42824100000",
"ln":"141.28207400000"
},
"geometry":{
"type":"Point",
"coordinates":[
141.282074,
38.428241
]
}
},
{
"type":"Feature",
"properties":{
"Name":"大原小学校",
"Jusho":"宮城県石巻市大原浜大光寺1番地",
"Capacity":"240",
"la":"38.33464800000",
"ln":"141.47511400000"
},
"geometry":{
"type":"Point",
"coordinates":[
141.475114,
38.334648
]
}
},
{
"type":"Feature",
"properties":{
"Name":"大須小学校",
"Jusho":"宮城県石巻市雄勝町大須大須251-2",
"Capacity":"592",
"la":"38.51277100000",
"ln":"141.53594400000"
},
"geometry":{
"type":"Point",
"coordinates":[
141.535944,
38.512771
]
}
},
{
"type":"Feature",
"properties":{
"Name":"大川小学校",
"Jusho":"宮城県石巻市釜谷字山根1番地",
"Capacity":"339",
"la":"38.54628800000",
"ln":"141.42816700000"
},
"geometry":{
"type":"Point",
"coordinates":[
141.428167,
38.546288
]
}
},
{
"type":"Feature",
"properties":{
"Name":"大谷地小学校",
"Jusho":"宮城県石巻市小船越字角田16番地2",
"Capacity":"510",
"la":"38.51073200000",
"ln":"141.28373700000"
},
"geometry":{
"type":"Point",
"coordinates":[
141.283737,
38.510732
]
}
},
{
"type":"Feature",
"properties":{
"Name":"谷川小学校",
"Jusho":"宮城県石巻市大谷川浜二重坂1番地1",
"Capacity":"240",
"la":"38.37242100000",
"ln":"141.48344500000"
},
"geometry":{
"type":"Point",
"coordinates":[
141.483445,
38.372421
]
}
},
{
"type":"Feature",
"properties":{
"Name":"中津山第一小学校",
"Jusho":"宮城県石巻市桃生町給人町字東町96番地",
"Capacity":"366",
"la":"38.54118700000",
"ln":"141.23826500000"
},
"geometry":{
"type":"Point",
"coordinates":[
141.238265,
38.541187
]
}
},
{
"type":"Feature",
"properties":{
"Name":"中津山第二小学校",
"Jusho":"宮城県石巻市桃生町中津山字江下57番地",
"Capacity":"418",
"la":"38.56115000000",
"ln":"141.24383000000"
},
"geometry":{
"type":"Point",
"coordinates":[
141.24383,
38.56115
]
}
},
{
"type":"Feature",
"properties":{
"Name":"中里小学校",
"Jusho":"宮城県石巻市中里五丁目7番1号",
"Capacity":"492",
"la":"38.44379500000",
"ln":"141.29707200000"
},
"geometry":{
"type":"Point",
"coordinates":[
141.297072,
38.443795
]
}
},
{
"type":"Feature",
"properties":{
"Name":"貞山小学校",
"Jusho":"宮城県石巻市貞山五丁目3番1号",
"Capacity":"378",
"la":"38.43740600000",
"ln":"141.28429600000"
},
"geometry":{
"type":"Point",
"coordinates":[
141.284296,
38.437406
]
}
},
{
"type":"Feature",
"properties":{
"Name":"渡波小学校",
"Jusho":"宮城県石巻市渡波町一丁目5番22号",
"Capacity":"739",
"la":"38.41852200000",
"ln":"141.36428900000"
},
"geometry":{
"type":"Point",
"coordinates":[
141.364289,
38.418522
]
}
},
{
"type":"Feature",
"properties":{
"Name":"東浜小学校",
"Jusho":"宮城県石巻市牧浜字竹浜道22番地2",
"Capacity":"376",
"la":"38.36381000000",
"ln":"141.43428400000"
},
"geometry":{
"type":"Point",
"coordinates":[
141.434284,
38.36381
]
}
},
{
"type":"Feature",
"properties":{
"Name":"桃生小学校",
"Jusho":"宮城県石巻市桃生町樫崎字高附5番地",
"Capacity":"334",
"la":"38.56609800000",
"ln":"141.27566300000"
},
"geometry":{
"type":"Point",
"coordinates":[
141.275663,
38.566098
]
}
},
{
"type":"Feature",
"properties":{
"Name":"二俣小学校",
"Jusho":"宮城県石巻市大森字大平6番地",
"Capacity":"440",
"la":"38.50184500000",
"ln":"141.31679000000"
},
"geometry":{
"type":"Point",
"coordinates":[
141.31679,
38.501845
]
}
},
{
"type":"Feature",
"properties":{
"Name":"飯野川第一小学校",
"Jusho":"宮城県石巻市相野谷字旧屋敷56番地",
"Capacity":"548",
"la":"38.51767600000",
"ln":"141.31734500000"
},
"geometry":{
"type":"Point",
"coordinates":[
141.317345,
38.517676
]
}
},
{
"type":"Feature",
"properties":{
"Name":"飯野川第二小学校",
"Jusho":"宮城県石巻市皿貝字宮田7番地",
"Capacity":"326",
"la":"38.53906400000",
"ln":"141.35039700000"
},
"geometry":{
"type":"Point",
"coordinates":[
141.350397,
38.539064
]
}
},
{
"type":"Feature",
"properties":{
"Name":"北村小学校",
"Jusho":"宮城県石巻市北村字幕ケ崎一17番地",
"Capacity":"258",
"la":"38.48424700000",
"ln":"141.19208000000"
},
"geometry":{
"type":"Point",
"coordinates":[
141.19208,
38.484247
]
}
},
{
"type":"Feature",
"properties":{
"Name":"万石浦小学校",
"Jusho":"宮城県石巻市渡波字境釜1番地1",
"Capacity":"491",
"la":"38.42380000000",
"ln":"141.37428800000"
},
"geometry":{
"type":"Point",
"coordinates":[
141.374288,
38.4238
]
}
},
{
"type":"Feature",
"properties":{
"Name":"湊小学校",
"Jusho":"宮城県石巻市吉野町一丁目3番21号",
"Capacity":"476",
"la":"38.42740900000",
"ln":"141.31651600000"
},
"geometry":{
"type":"Point",
"coordinates":[
141.316516,
38.427409
]
}
},
{
"type":"Feature",
"properties":{
"Name":"湊第二小学校",
"Jusho":"宮城県石巻市大門町二丁目2番1号",
"Capacity":"364",
"la":"38.41879900000",
"ln":"141.32068200000"
},
"geometry":{
"type":"Point",
"coordinates":[
141.320682,
38.418799
]
}
},
{
"type":"Feature",
"properties":{
"Name":"門脇小学校",
"Jusho":"宮城県石巻市門脇町四丁目2番11号",
"Capacity":"602",
"la":"38.42129800000",
"ln":"141.30457300000"
},
"geometry":{
"type":"Point",
"coordinates":[
141.304573,
38.421298
]
}
},
{
"type":"Feature",
"properties":{
"Name":"雄勝小学校",
"Jusho":"宮城県石巻市雄勝町雄勝字小渕38番地",
"Capacity":"401",
"la":"38.51337600000",
"ln":"141.46026800000"
},
"geometry":{
"type":"Point",
"coordinates":[
141.460268,
38.513376
]
}
},
{
"type":"Feature",
"properties":{
"Name":"和渕小学校",
"Jusho":"宮城県石巻市和渕字佐沼川200番地",
"Capacity":"203",
"la":"38.52517200000",
"ln":"141.22540800000"
},
"geometry":{
"type":"Point",
"coordinates":[
141.225408,
38.525172
]
}
},
{
"type":"Feature",
"properties":{
"Name":"旧市立浦戸第一小学校",
"Jusho":"宮城県塩竈市浦戸寒風沢字中月21",
"Capacity":"1400",
"la":"38.33400122360",
"ln":"141.11959486700"
},
"geometry":{
"type":"Point",
"coordinates":[
141.119594867,
38.3340012236
]
}
},
{
"type":"Feature",
"properties":{
"Name":"旧市立浦戸第二小学校",
"Jusho":"宮城県塩竈市浦戸桂島字台23",
"Capacity":"1500",
"la":"38.33491345280",
"ln":"141.09514691100"
},
"geometry":{
"type":"Point",
"coordinates":[
141.095146911,
38.3349134528
]
}
},
{
"type":"Feature",
"properties":{
"Name":"市立浦戸中学校、市立浦戸第二小学校",
"Jusho":"宮城県塩竈市浦戸浦戸野々島字馬越8",
"Capacity":"1100",
"la":"38.33963800000",
"ln":"141.11654000000"
},
"geometry":{
"type":"Point",
"coordinates":[
141.11654,
38.339638
]
}
},
{
"type":"Feature",
"properties":{
"Name":"市立玉川小学校",
"Jusho":"宮城県塩竈市玉川二丁目9－",
"Capacity":"2700",
"la":"38.31074700000",
"ln":"141.00738700000"
},
"geometry":{
"type":"Point",
"coordinates":[
141.007387,
38.310747
]
}
},
{
"type":"Feature",
"properties":{
"Name":"市立月見ケ丘小学校",
"Jusho":"宮城県塩竈市月見ケ丘2－",
"Capacity":"3300",
"la":"38.31935800000",
"ln":"141.00349800000"
},
"geometry":{
"type":"Point",
"coordinates":[
141.003498,
38.319358
]
}
},
{
"type":"Feature",
"properties":{
"Name":"市立杉の入小学校",
"Jusho":"宮城県塩竈市杉の入一丁目19－",
"Capacity":"12100",
"la":"38.33130200000",
"ln":"141.03460500000"
},
"geometry":{
"type":"Point",
"coordinates":[
141.034605,
38.331302
]
}
},
{
"type":"Feature",
"properties":{
"Name":"市立第一小学校",
"Jusho":"宮城県塩竈市泉ヶ岡1－",
"Capacity":"3000",
"la":"38.31519200000",
"ln":"141.01544200000"
},
"geometry":{
"type":"Point",
"coordinates":[
141.015442,
38.315192
]
}
},
{
"type":"Feature",
"properties":{
"Name":"市立第三小学校",
"Jusho":"宮城県塩竈市花立町15－",
"Capacity":"2800",
"la":"38.30880400000",
"ln":"141.02044100000"
},
"geometry":{
"type":"Point",
"coordinates":[
141.020441,
38.308804
]
}
},
{
"type":"Feature",
"properties":{
"Name":"市立第二小学校",
"Jusho":"宮城県塩竈市小松崎10－",
"Capacity":"3700",
"la":"38.32491300000",
"ln":"141.02044000000"
},
"geometry":{
"type":"Point",
"coordinates":[
141.02044,
38.324913
]
}
},
{
"type":"Feature",
"properties":{
"Name":"浦島小学校",
"Jusho":"宮城県気仙沼市ニノ浜83-2",
"Capacity":"－",
"la":"38.89153000000",
"ln":"141.60147000000"
},
"geometry":{
"type":"Point",
"coordinates":[
141.60147,
38.89153
]
}
},
{
"type":"Feature",
"properties":{
"Name":"階上小学校",
"Jusho":"宮城県気仙沼市長磯鳥子沢23",
"Capacity":"－",
"la":"38.84292500000",
"ln":"141.57897400000"
},
"geometry":{
"type":"Point",
"coordinates":[
141.578974,
38.842925
]
}
},
{
"type":"Feature",
"properties":{
"Name":"気仙沼小学校",
"Jusho":"宮城県気仙沼市笹が陣3－",
"Capacity":"－",
"la":"38.90319500000",
"ln":"141.57147200000"
},
"geometry":{
"type":"Point",
"coordinates":[
141.571472,
38.903195
]
}
},
{
"type":"Feature",
"properties":{
"Name":"九条小学校",
"Jusho":"宮城県気仙沼市九条327",
"Capacity":"－",
"la":"38.89403000000",
"ln":"141.55314100000"
},
"geometry":{
"type":"Point",
"coordinates":[
141.553141,
38.89403
]
}
},
{
"type":"Feature",
"properties":{
"Name":"月立小学校",
"Jusho":"宮城県気仙沼市塚沢72",
"Capacity":"－",
"la":"38.95207700000",
"ln":"141.51953000000"
},
"geometry":{
"type":"Point",
"coordinates":[
141.51953,
38.952077
]
}
},
{
"type":"Feature",
"properties":{
"Name":"鹿折小学校",
"Jusho":"宮城県気仙沼市西八幡町54－",
"Capacity":"－",
"la":"38.92208200000",
"ln":"141.58174900000"
},
"geometry":{
"type":"Point",
"coordinates":[
141.581749,
38.922082
]
}
},
{
"type":"Feature",
"properties":{
"Name":"小泉小学校",
"Jusho":"宮城県気仙沼市本吉町平貝63",
"Capacity":"－",
"la":"38.76598899910",
"ln":"141.50676200000"
},
"geometry":{
"type":"Point",
"coordinates":[
141.506762,
38.7659889991
]
}
},
{
"type":"Feature",
"properties":{
"Name":"松岩小学校",
"Jusho":"宮城県気仙沼市松崎五駄鱈5",
"Capacity":"－",
"la":"38.87847600000",
"ln":"141.57258400000"
},
"geometry":{
"type":"Point",
"coordinates":[
141.572584,
38.878476
]
}
},
{
"type":"Feature",
"properties":{
"Name":"新城小学校",
"Jusho":"宮城県気仙沼市茗荷沢239－3",
"Capacity":"－",
"la":"38.90263900000",
"ln":"141.53869800000"
},
"geometry":{
"type":"Point",
"coordinates":[
141.538698,
38.902639
]
}
},
{
"type":"Feature",
"properties":{
"Name":"水梨小学校",
"Jusho":"宮城県気仙沼市物倉山6",
"Capacity":"－",
"la":"38.86307800000",
"ln":"141.53305000000"
},
"geometry":{
"type":"Point",
"coordinates":[
141.53305,
38.863078
]
}
},
{
"type":"Feature",
"properties":{
"Name":"大谷小学校",
"Jusho":"宮城県気仙沼市本吉町三島28",
"Capacity":"－",
"la":"38.81764999910",
"ln":"141.56231000000"
},
"geometry":{
"type":"Point",
"coordinates":[
141.56231,
38.8176499991
]
}
},
{
"type":"Feature",
"properties":{
"Name":"大島小学校",
"Jusho":"宮城県気仙沼市高井40-2",
"Capacity":"－",
"la":"38.85653500000",
"ln":"141.61591400000"
},
"geometry":{
"type":"Point",
"coordinates":[
141.615914,
38.856535
]
}
},
{
"type":"Feature",
"properties":{
"Name":"中井小学校",
"Jusho":"宮城県気仙沼市唐桑町中井134-3",
"Capacity":"－",
"la":"38.88039600000",
"ln":"141.66018600000"
},
"geometry":{
"type":"Point",
"coordinates":[
141.660186,
38.880396
]
}
},
{
"type":"Feature",
"properties":{
"Name":"津谷小学校",
"Jusho":"宮城県気仙沼市本吉町津谷松岡126",
"Capacity":"－",
"la":"38.79042999910",
"ln":"141.50703800000"
},
"geometry":{
"type":"Point",
"coordinates":[
141.507038,
38.7904299991
]
}
},
{
"type":"Feature",
"properties":{
"Name":"唐桑小学校",
"Jusho":"宮城県気仙沼市唐桑町宿浦400-2",
"Capacity":"－",
"la":"38.90179000000",
"ln":"141.64475700000"
},
"geometry":{
"type":"Point",
"coordinates":[
141.644757,
38.90179
]
}
},
{
"type":"Feature",
"properties":{
"Name":"馬籠小学校",
"Jusho":"宮城県気仙沼市本吉町小金山1－",
"Capacity":"－",
"la":"38.77431899910",
"ln":"141.44732200000"
},
"geometry":{
"type":"Point",
"coordinates":[
141.447322,
38.7743189991
]
}
},
{
"type":"Feature",
"properties":{
"Name":"白山小学校",
"Jusho":"宮城県気仙沼市上東側根245",
"Capacity":"－",
"la":"38.96179900000",
"ln":"141.56563700000"
},
"geometry":{
"type":"Point",
"coordinates":[
141.565637,
38.961799
]
}
},
{
"type":"Feature",
"properties":{
"Name":"面瀬小学校",
"Jusho":"宮城県気仙沼市松崎下赤田58",
"Capacity":"－",
"la":"38.86681100000",
"ln":"141.57314100000"
},
"geometry":{
"type":"Point",
"coordinates":[
141.573141,
38.866811
]
}
},
{
"type":"Feature",
"properties":{
"Name":"落合小学校",
"Jusho":"宮城県気仙沼市象ケ鼻114",
"Capacity":"－",
"la":"38.91129200000",
"ln":"141.49974900000"
},
"geometry":{
"type":"Point",
"coordinates":[
141.499749,
38.911292
]
}
},
{
"type":"Feature",
"properties":{
"Name":"越河小学校",
"Jusho":"宮城県白石市越河字丑山下44",
"Capacity":"－",
"la":"37.92188600000",
"ln":"140.59799600000"
},
"geometry":{
"type":"Point",
"coordinates":[
140.597996,
37.921886
]
}
},
{
"type":"Feature",
"properties":{
"Name":"斎川小学校",
"Jusho":"宮城県白石市斎川字町尻南1－",
"Capacity":"－",
"la":"37.96132700000",
"ln":"140.61216000000"
},
"geometry":{
"type":"Point",
"coordinates":[
140.61216,
37.961327
]
}
},
{
"type":"Feature",
"properties":{
"Name":"小原小学校",
"Jusho":"宮城県白石市小原字伊勢原道上1",
"Capacity":"－",
"la":"37.95271500000",
"ln":"140.56021900000"
},
"geometry":{
"type":"Point",
"coordinates":[
140.560219,
37.952715
]
}
},
{
"type":"Feature",
"properties":{
"Name":"深谷小学校",
"Jusho":"宮城県白石市福岡深谷字松田23",
"Capacity":"－",
"la":"38.03742900000",
"ln":"140.62798800000"
},
"geometry":{
"type":"Point",
"coordinates":[
140.627988,
38.037429
]
}
},
{
"type":"Feature",
"properties":{
"Name":"大鷹沢小学校",
"Jusho":"宮城県白石市大鷹沢三沢字5-24－",
"Capacity":"－",
"la":"37.98521400000",
"ln":"140.64549000000"
},
"geometry":{
"type":"Point",
"coordinates":[
140.64549,
37.985214
]
}
},
{
"type":"Feature",
"properties":{
"Name":"大平小学校",
"Jusho":"宮城県白石市大平森合字権現山1",
"Capacity":"－",
"la":"37.98799000000",
"ln":"140.60938100000"
},
"geometry":{
"type":"Point",
"coordinates":[
140.609381,
37.98799
]
}
},
{
"type":"Feature",
"properties":{
"Name":"白石第一小学校",
"Jusho":"宮城県白石市字半沢屋敷前2-2",
"Capacity":"－",
"la":"38.00937600000",
"ln":"140.62215700000"
},
"geometry":{
"type":"Point",
"coordinates":[
140.622157,
38.009376
]
}
},
{
"type":"Feature",
"properties":{
"Name":"白石第二小学校",
"Jusho":"宮城県白石市字白石沖29",
"Capacity":"－",
"la":"37.99854400000",
"ln":"140.62326800000"
},
"geometry":{
"type":"Point",
"coordinates":[
140.623268,
37.998544
]
}
},
{
"type":"Feature",
"properties":{
"Name":"白川小学校",
"Jusho":"宮城県白石市白川津田大淵30",
"Capacity":"－",
"la":"38.02021000000",
"ln":"140.67659700000"
},
"geometry":{
"type":"Point",
"coordinates":[
140.676597,
38.02021
]
}
},
{
"type":"Feature",
"properties":{
"Name":"福岡小学校",
"Jusho":"宮城県白石市福岡蔵本字陣場1",
"Capacity":"－",
"la":"38.01215300000",
"ln":"140.61521200000"
},
"geometry":{
"type":"Point",
"coordinates":[
140.615212,
38.012153
]
}
},
{
"type":"Feature",
"properties":{
"Name":"ゆりが丘小学校",
"Jusho":"宮城県名取市ゆりが丘3-21",
"Capacity":"－",
"la":"38.20103200000",
"ln":"140.83018600000"
},
"geometry":{
"type":"Point",
"coordinates":[
140.830186,
38.201032
]
}
},
{
"type":"Feature",
"properties":{
"Name":"愛島小学校",
"Jusho":"宮城県名取市愛島笠島字東蔵神34",
"Capacity":"－",
"la":"38.15187000000",
"ln":"140.84796500000"
},
"geometry":{
"type":"Point",
"coordinates":[
140.847965,
38.15187
]
}
},
{
"type":"Feature",
"properties":{
"Name":"下増田小学校",
"Jusho":"宮城県名取市下増田字土手北101",
"Capacity":"－",
"la":"38.15826100000",
"ln":"140.91046000000"
},
"geometry":{
"type":"Point",
"coordinates":[
140.91046,
38.158261
]
}
},
{
"type":"Feature",
"properties":{
"Name":"館腰小学校",
"Jusho":"宮城県名取市植松1-2－7",
"Capacity":"－",
"la":"38.15159400000",
"ln":"140.88185100000"
},
"geometry":{
"type":"Point",
"coordinates":[
140.881851,
38.151594
]
}
},
{
"type":"Feature",
"properties":{
"Name":"高舘小学校",
"Jusho":"宮城県名取市高舘吉田字長六反117-3",
"Capacity":"－",
"la":"38.18770100000",
"ln":"140.85546200000"
},
"geometry":{
"type":"Point",
"coordinates":[
140.855462,
38.187701
]
}
},
{
"type":"Feature",
"properties":{
"Name":"相互台小学校",
"Jusho":"宮城県名取市相互台1-27－",
"Capacity":"－",
"la":"38.20936400000",
"ln":"140.81102100000"
},
"geometry":{
"type":"Point",
"coordinates":[
140.811021,
38.209364
]
}
},
{
"type":"Feature",
"properties":{
"Name":"増田小学校",
"Jusho":"宮城県名取市増田3-9-20",
"Capacity":"－",
"la":"38.17159200000",
"ln":"140.88823800000"
},
"geometry":{
"type":"Point",
"coordinates":[
140.888238,
38.171592
]
}
},
{
"type":"Feature",
"properties":{
"Name":"増田西小学校",
"Jusho":"宮城県名取市手倉田字堰根330",
"Capacity":"－",
"la":"38.17270200000",
"ln":"140.87157300000"
},
"geometry":{
"type":"Point",
"coordinates":[
140.871573,
38.172702
]
}
},
{
"type":"Feature",
"properties":{
"Name":"那智が丘小学校",
"Jusho":"宮城県名取市那智が丘2－－",
"Capacity":"－",
"la":"38.19143300000",
"ln":"140.84149600000"
},
"geometry":{
"type":"Point",
"coordinates":[
140.841496,
38.191433
]
}
},
{
"type":"Feature",
"properties":{
"Name":"不二が丘小学校",
"Jusho":"宮城県名取市名取が丘6－1－",
"Capacity":"－",
"la":"38.15492600000",
"ln":"140.87129600000"
},
"geometry":{
"type":"Point",
"coordinates":[
140.871296,
38.154926
]
}
},
{
"type":"Feature",
"properties":{
"Name":"閖上小学校",
"Jusho":"宮城県名取市閖上字鶴塚52",
"Capacity":"－",
"la":"38.17772200000",
"ln":"140.94026800000"
},
"geometry":{
"type":"Point",
"coordinates":[
140.940268,
38.177722
]
}
},
{
"type":"Feature",
"properties":{
"Name":"横倉小学校",
"Jusho":"宮城県角田市横倉字杉の堂7",
"Capacity":"－",
"la":"37.98799400000",
"ln":"140.77159000000"
},
"geometry":{
"type":"Point",
"coordinates":[
140.77159,
37.987994
]
}
},
{
"type":"Feature",
"properties":{
"Name":"角田小学校",
"Jusho":"宮城県角田市角田字牛舘41",
"Capacity":"－",
"la":"37.97077400000",
"ln":"140.78103400000"
},
"geometry":{
"type":"Point",
"coordinates":[
140.781034,
37.970774
]
}
},
{
"type":"Feature",
"properties":{
"Name":"旧小田小学校",
"Jusho":"宮城県角田市小田字福田56－",
"Capacity":"－",
"la":"37.96077500000",
"ln":"140.75048300000"
},
"geometry":{
"type":"Point",
"coordinates":[
140.750483,
37.960775
]
}
},
{
"type":"Feature",
"properties":{
"Name":"桜小学校",
"Jusho":"宮城県角田市佐倉字小山78－",
"Capacity":"－",
"la":"37.99216100000",
"ln":"140.79242100000"
},
"geometry":{
"type":"Point",
"coordinates":[
140.792421,
37.992161
]
}
},
{
"type":"Feature",
"properties":{
"Name":"枝野小学校",
"Jusho":"宮城県角田市島田字三口71",
"Capacity":"－",
"la":"37.94145367250",
"ln":"140.82047105800"
},
"geometry":{
"type":"Point",
"coordinates":[
140.820471058,
37.9414536725
]
}
},
{
"type":"Feature",
"properties":{
"Name":"西根小学校",
"Jusho":"宮城県角田市高倉字打越32-3",
"Capacity":"－",
"la":"38.00326900000",
"ln":"140.72270400000"
},
"geometry":{
"type":"Point",
"coordinates":[
140.722704,
38.003269
]
}
},
{
"type":"Feature",
"properties":{
"Name":"東根小学校",
"Jusho":"宮城県角田市平貫字前河2",
"Capacity":"－",
"la":"38.03271400000",
"ln":"140.81825000000"
},
"geometry":{
"type":"Point",
"coordinates":[
140.81825,
38.032714
]
}
},
{
"type":"Feature",
"properties":{
"Name":"藤尾小学校",
"Jusho":"宮城県角田市藤田字梶内51-2",
"Capacity":"－",
"la":"37.97299800000",
"ln":"140.82353100000"
},
"geometry":{
"type":"Point",
"coordinates":[
140.823531,
37.972998
]
}
},
{
"type":"Feature",
"properties":{
"Name":"北郷小学校",
"Jusho":"宮城県角田市岡字阿弥陀入11-2",
"Capacity":"－",
"la":"38.02034687830",
"ln":"140.77286172600"
},
"geometry":{
"type":"Point",
"coordinates":[
140.772861726,
38.0203468783
]
}
},
{
"type":"Feature",
"properties":{
"Name":"山王小学校",
"Jusho":"宮城県多賀城市新田字北320",
"Capacity":"－",
"la":"38.29519300000",
"ln":"140.97044700000"
},
"geometry":{
"type":"Point",
"coordinates":[
140.970447,
38.295193
]
}
},
{
"type":"Feature",
"properties":{
"Name":"城南小学校",
"Jusho":"宮城県多賀城市城南1－7－",
"Capacity":"－",
"la":"38.29991500000",
"ln":"140.99183400000"
},
"geometry":{
"type":"Point",
"coordinates":[
140.991834,
38.299915
]
}
},
{
"type":"Feature",
"properties":{
"Name":"多賀城小学校",
"Jusho":"宮城県多賀城市伝上山1－－",
"Capacity":"－",
"la":"38.29575000000",
"ln":"141.00961000000"
},
"geometry":{
"type":"Point",
"coordinates":[
141.00961,
38.29575
]
}
},
{
"type":"Feature",
"properties":{
"Name":"多賀城東小学校",
"Jusho":"宮城県多賀城市笠神5-8－",
"Capacity":"－",
"la":"38.30019500000",
"ln":"141.03405200000"
},
"geometry":{
"type":"Point",
"coordinates":[
141.034052,
38.300195
]
}
},
{
"type":"Feature",
"properties":{
"Name":"多賀城八幡小学校",
"Jusho":"宮城県多賀城市八幡字六貫田172",
"Capacity":"－",
"la":"38.28769500000",
"ln":"140.99377900000"
},
"geometry":{
"type":"Point",
"coordinates":[
140.993779,
38.287695
]
}
},
{
"type":"Feature",
"properties":{
"Name":"天真小学校",
"Jusho":"宮城県多賀城市鶴ヶ谷2-21－",
"Capacity":"－",
"la":"38.29686100000",
"ln":"141.01710900000"
},
"geometry":{
"type":"Point",
"coordinates":[
141.017109,
38.296861
]
}
},
{
"type":"Feature",
"properties":{
"Name":"岩沼小学校",
"Jusho":"宮城県岩沼市中央二丁目1－",
"Capacity":"1850",
"la":"38.10965300000",
"ln":"140.86574300000"
},
"geometry":{
"type":"Point",
"coordinates":[
140.865743,
38.109653
]
}
},
{
"type":"Feature",
"properties":{
"Name":"岩沼西小学校",
"Jusho":"宮城県岩沼市松ヶ丘一丁目17",
"Capacity":"2000",
"la":"38.11048500000",
"ln":"140.85157800000"
},
"geometry":{
"type":"Point",
"coordinates":[
140.851578,
38.110485
]
}
},
{
"type":"Feature",
"properties":{
"Name":"岩沼南小学校",
"Jusho":"宮城県岩沼市桑原四丁目4－",
"Capacity":"1800",
"la":"38.09965300000",
"ln":"140.86602100000"
},
"geometry":{
"type":"Point",
"coordinates":[
140.866021,
38.099653
]
}
},
{
"type":"Feature",
"properties":{
"Name":"玉浦小学校",
"Jusho":"宮城県岩沼市早股字小林396－",
"Capacity":"1400",
"la":"38.10465500000",
"ln":"140.91018500000"
},
"geometry":{
"type":"Point",
"coordinates":[
140.910185,
38.104655
]
}
},
{
"type":"Feature",
"properties":{
"Name":"横山小学校",
"Jusho":"宮城県登米市津山町横山字本町91",
"Capacity":"－",
"la":"38.63223900000",
"ln":"141.35309500000"
},
"geometry":{
"type":"Point",
"coordinates":[
141.353095,
38.632239
]
}
},
{
"type":"Feature",
"properties":{
"Name":"加賀野小学校",
"Jusho":"宮城県登米市中田町石森字加賀野1－7－",
"Capacity":"－",
"la":"38.70319100000",
"ln":"141.21628700000"
},
"geometry":{
"type":"Point",
"coordinates":[
141.216287,
38.703191
]
}
},
{
"type":"Feature",
"properties":{
"Name":"旧嵯峨立小学校",
"Jusho":"宮城県登米市東和町錦織岩ノ沢150",
"Capacity":"－",
"la":"38.77141399910",
"ln":"141.28537000000"
},
"geometry":{
"type":"Point",
"coordinates":[
141.28537,
38.7714139991
]
}
},
{
"type":"Feature",
"properties":{
"Name":"旧上沼小学校",
"Jusho":"宮城県登米市中田町上沼字八幡山78",
"Capacity":"－",
"la":"38.74871465010",
"ln":"141.26676312000"
},
"geometry":{
"type":"Point",
"coordinates":[
141.26676312,
38.7487146501
]
}
},
{
"type":"Feature",
"properties":{
"Name":"旧新田第二小学校",
"Jusho":"宮城県登米市迫町新田字対馬51-7",
"Capacity":"－",
"la":"38.68109700000",
"ln":"141.09545000000"
},
"geometry":{
"type":"Point",
"coordinates":[
141.09545,
38.681097
]
}
},
{
"type":"Feature",
"properties":{
"Name":"旧善王寺小学校",
"Jusho":"宮城県登米市米山町字善王寺字石神68",
"Capacity":"－",
"la":"38.64243399910",
"ln":"141.23518500000"
},
"geometry":{
"type":"Point",
"coordinates":[
141.235185,
38.6424339991
]
}
},
{
"type":"Feature",
"properties":{
"Name":"旧豊里小学校",
"Jusho":"宮城県登米市豊里町蕪木90－",
"Capacity":"－",
"la":"38.58987999910",
"ln":"141.25198300000"
},
"geometry":{
"type":"Point",
"coordinates":[
141.251983,
38.5898799991
]
}
},
{
"type":"Feature",
"properties":{
"Name":"旧鱒淵小学校",
"Jusho":"宮城県登米市東和町米川寺内31",
"Capacity":"－",
"la":"38.75188699910",
"ln":"141.33980900000"
},
"geometry":{
"type":"Point",
"coordinates":[
141.339809,
38.7518869991
]
}
},
{
"type":"Feature",
"properties":{
"Name":"錦織小学校",
"Jusho":"宮城県登米市東和町錦織字山居沢15",
"Capacity":"－",
"la":"38.72944900000",
"ln":"141.27389900000"
},
"geometry":{
"type":"Point",
"coordinates":[
141.273899,
38.729449
]
}
},
{
"type":"Feature",
"properties":{
"Name":"佐沼小学校",
"Jusho":"宮城県登米市迫町佐沼字錦108",
"Capacity":"－",
"la":"38.68808800000",
"ln":"141.20193300000"
},
"geometry":{
"type":"Point",
"coordinates":[
141.201933,
38.688088
]
}
},
{
"type":"Feature",
"properties":{
"Name":"上沼小学校",
"Jusho":"宮城県登米市中田町上沼字弥勒寺大下91-2",
"Capacity":"－",
"la":"38.73027300000",
"ln":"141.25827500000"
},
"geometry":{
"type":"Point",
"coordinates":[
141.258275,
38.730273
]
}
},
{
"type":"Feature",
"properties":{
"Name":"森小学校",
"Jusho":"宮城県登米市迫町森字西表195",
"Capacity":"－",
"la":"38.67211700000",
"ln":"141.21570300000"
},
"geometry":{
"type":"Point",
"coordinates":[
141.215703,
38.672117
]
}
},
{
"type":"Feature",
"properties":{
"Name":"西郷小学校",
"Jusho":"宮城県登米市南方町尼池10－",
"Capacity":"－",
"la":"38.65788000000",
"ln":"141.11937400000"
},
"geometry":{
"type":"Point",
"coordinates":[
141.119374,
38.65788
]
}
},
{
"type":"Feature",
"properties":{
"Name":"石越小学校",
"Jusho":"宮城県登米市石越町北郷字長根134",
"Capacity":"－",
"la":"38.75769800000",
"ln":"141.18235300000"
},
"geometry":{
"type":"Point",
"coordinates":[
141.182353,
38.757698
]
}
},
{
"type":"Feature",
"properties":{
"Name":"石森小学校",
"Jusho":"宮城県登米市中田町石森字前田29",
"Capacity":"－",
"la":"38.72311100000",
"ln":"141.21116000000"
},
"geometry":{
"type":"Point",
"coordinates":[
141.21116,
38.723111
]
}
},
{
"type":"Feature",
"properties":{
"Name":"浅水小学校",
"Jusho":"宮城県登米市中田町浅水字下川面188",
"Capacity":"－",
"la":"38.70805300000",
"ln":"141.26643000000"
},
"geometry":{
"type":"Point",
"coordinates":[
141.26643,
38.708053
]
}
},
{
"type":"Feature",
"properties":{
"Name":"中津山小学校",
"Jusho":"宮城県登米市米山町中津山字城内前4",
"Capacity":"－",
"la":"38.62368300000",
"ln":"141.16556300000"
},
"geometry":{
"type":"Point",
"coordinates":[
141.165563,
38.623683
]
}
},
{
"type":"Feature",
"properties":{
"Name":"中田生涯学習センター（旧桜場小学校）",
"Jusho":"宮城県登米市中田町上沼字舘43番地",
"Capacity":"－",
"la":"38.71909400000",
"ln":"141.24350900000"
},
"geometry":{
"type":"Point",
"coordinates":[
141.243509,
38.719094
]
}
},
{
"type":"Feature",
"properties":{
"Name":"中田幼稚園（旧新井田小学校）",
"Jusho":"宮城県登米市中田町室江新井田字要害3－",
"Capacity":"－",
"la":"38.67927899910",
"ln":"141.24723000000"
},
"geometry":{
"type":"Point",
"coordinates":[
141.24723,
38.6792789991
]
}
},
{
"type":"Feature",
"properties":{
"Name":"登米小学校",
"Jusho":"宮城県登米市登米町寺池桜小路6",
"Capacity":"－",
"la":"38.65601900000",
"ln":"141.28039600000"
},
"geometry":{
"type":"Point",
"coordinates":[
141.280396,
38.656019
]
}
},
{
"type":"Feature",
"properties":{
"Name":"東郷小学校",
"Jusho":"宮城県登米市南方町堂地193-2",
"Capacity":"－",
"la":"38.66083300000",
"ln":"141.19402500000"
},
"geometry":{
"type":"Point",
"coordinates":[
141.194025,
38.660833
]
}
},
{
"type":"Feature",
"properties":{
"Name":"南方小学校",
"Jusho":"宮城県登米市南方町山成95-6",
"Capacity":"－",
"la":"38.65918300000",
"ln":"141.16639100000"
},
"geometry":{
"type":"Point",
"coordinates":[
141.166391,
38.659183
]
}
},
{
"type":"Feature",
"properties":{
"Name":"米岡小学校",
"Jusho":"宮城県登米市米山町西野字古舘廻27-2",
"Capacity":"－",
"la":"38.63292800000",
"ln":"141.19734700000"
},
"geometry":{
"type":"Point",
"coordinates":[
141.197347,
38.632928
]
}
},
{
"type":"Feature",
"properties":{
"Name":"米山東小学校",
"Jusho":"宮城県登米市米山町字桜岡鈴根1",
"Capacity":"－",
"la":"38.62024200000",
"ln":"141.21758500000"
},
"geometry":{
"type":"Point",
"coordinates":[
141.217585,
38.620242
]
}
},
{
"type":"Feature",
"properties":{
"Name":"米川小学校",
"Jusho":"宮城県登米市東和町米川字東綱木31",
"Capacity":"－",
"la":"38.77323800000",
"ln":"141.33111800000"
},
"geometry":{
"type":"Point",
"coordinates":[
141.331118,
38.773238
]
}
},
{
"type":"Feature",
"properties":{
"Name":"米谷小学校",
"Jusho":"宮城県登米市東和町米谷字越路75",
"Capacity":"－",
"la":"38.70714200000",
"ln":"141.29626100000"
},
"geometry":{
"type":"Point",
"coordinates":[
141.296261,
38.707142
]
}
},
{
"type":"Feature",
"properties":{
"Name":"宝江小学校",
"Jusho":"宮城県登米市中田町宝江新井田字後田22",
"Capacity":"－",
"la":"38.69386100000",
"ln":"141.24343400000"
},
"geometry":{
"type":"Point",
"coordinates":[
141.243434,
38.693861
]
}
},
{
"type":"Feature",
"properties":{
"Name":"北方小学校",
"Jusho":"宮城県登米市迫町北方字富永110-5",
"Capacity":"－",
"la":"38.70101899910",
"ln":"141.16004200000"
},
"geometry":{
"type":"Point",
"coordinates":[
141.160042,
38.7010189991
]
}
},
{
"type":"Feature",
"properties":{
"Name":"柳津小学校",
"Jusho":"宮城県登米市津山町柳津字本町57",
"Capacity":"－",
"la":"38.61613700000",
"ln":"141.29978000000"
},
"geometry":{
"type":"Point",
"coordinates":[
141.29978,
38.616137
]
}
},
{
"type":"Feature",
"properties":{
"Name":"宮野小学校",
"Jusho":"宮城県栗原市字上宮野台291",
"Capacity":"740",
"la":"38.75161700000",
"ln":"141.00497800000"
},
"geometry":{
"type":"Point",
"coordinates":[
141.004978,
38.751617
]
}
},
{
"type":"Feature",
"properties":{
"Name":"玉沢小学校",
"Jusho":"宮城県栗原市字照越大ケ原43－",
"Capacity":"510",
"la":"38.71533700000",
"ln":"141.03515300000"
},
"geometry":{
"type":"Point",
"coordinates":[
141.035153,
38.715337
]
}
},
{
"type":"Feature",
"properties":{
"Name":"築館小学校",
"Jusho":"宮城県栗原市薬師一丁目6－",
"Capacity":"1700",
"la":"38.73139400000",
"ln":"141.02011400000"
},
"geometry":{
"type":"Point",
"coordinates":[
141.020114,
38.731394
]
}
},
{
"type":"Feature",
"properties":{
"Name":"富野小学校",
"Jusho":"宮城県栗原市字城生野北田沖274",
"Capacity":"630",
"la":"38.77093000000",
"ln":"141.03803000000"
},
"geometry":{
"type":"Point",
"coordinates":[
141.03803,
38.77093
]
}
},
{
"type":"Feature",
"properties":{
"Name":"宮戸小学校",
"Jusho":"宮城県東松島市宮戸字二ツ橋1",
"Capacity":"－",
"la":"38.33436200000",
"ln":"141.15598000000"
},
"geometry":{
"type":"Point",
"coordinates":[
141.15598,
38.334362
]
}
},
{
"type":"Feature",
"properties":{
"Name":"小野小学校",
"Jusho":"宮城県東松島市小野字裏丁39",
"Capacity":"－",
"la":"38.40796300000",
"ln":"141.15375400000"
},
"geometry":{
"type":"Point",
"coordinates":[
141.153754,
38.407963
]
}
},
{
"type":"Feature",
"properties":{
"Name":"赤井小学校",
"Jusho":"宮城県東松島市赤井字中二号11－",
"Capacity":"－",
"la":"38.44657100000",
"ln":"141.22680000000"
},
"geometry":{
"type":"Point",
"coordinates":[
141.2268,
38.446571
]
}
},
{
"type":"Feature",
"properties":{
"Name":"赤井南小学校",
"Jusho":"宮城県東松島市赤井字川前一107",
"Capacity":"－",
"la":"38.43360400000",
"ln":"141.24246800000"
},
"geometry":{
"type":"Point",
"coordinates":[
141.242468,
38.433604
]
}
},
{
"type":"Feature",
"properties":{
"Name":"大塩小学校",
"Jusho":"宮城県東松島市大塩字中沢下5",
"Capacity":"－",
"la":"38.44184800000",
"ln":"141.17708300000"
},
"geometry":{
"type":"Point",
"coordinates":[
141.177083,
38.441848
]
}
},
{
"type":"Feature",
"properties":{
"Name":"大曲小学校",
"Jusho":"宮城県東松島市大曲字寺前5-2",
"Capacity":"－",
"la":"38.42546200000",
"ln":"141.23485500000"
},
"geometry":{
"type":"Point",
"coordinates":[
141.234855,
38.425462
]
}
},
{
"type":"Feature",
"properties":{
"Name":"浜市小学校",
"Jusho":"宮城県東松島市浜市字新田81",
"Capacity":"－",
"la":"38.39018800000",
"ln":"141.17653000000"
},
"geometry":{
"type":"Point",
"coordinates":[
141.17653,
38.390188
]
}
},
{
"type":"Feature",
"properties":{
"Name":"野蒜小学校",
"Jusho":"宮城県東松島市野蒜字亀岡80－",
"Capacity":"－",
"la":"38.37558100000",
"ln":"141.15322300000"
},
"geometry":{
"type":"Point",
"coordinates":[
141.153223,
38.375581
]
}
},
{
"type":"Feature",
"properties":{
"Name":"矢本西小学校",
"Jusho":"宮城県東松島市矢本字四反走63",
"Capacity":"－",
"la":"38.42240600000",
"ln":"141.20319200000"
},
"geometry":{
"type":"Point",
"coordinates":[
141.203192,
38.422406
]
}
},
{
"type":"Feature",
"properties":{
"Name":"矢本東小学校",
"Jusho":"宮城県東松島市矢本字大溜126－",
"Capacity":"－",
"la":"38.42601700000",
"ln":"141.21319100000"
},
"geometry":{
"type":"Point",
"coordinates":[
141.213191,
38.426017
]
}
},
{
"type":"Feature",
"properties":{
"Name":"下伊場野小学校",
"Jusho":"宮城県大崎市松山下伊場野字大柳22",
"Capacity":"－",
"la":"38.52981100000",
"ln":"141.00391500000"
},
"geometry":{
"type":"Point",
"coordinates":[
141.003915,
38.529811
]
}
},
{
"type":"Feature",
"properties":{
"Name":"岩出山小学校",
"Jusho":"宮城県大崎市岩出山字城山31",
"Capacity":"－",
"la":"38.65323100000",
"ln":"140.86325000000"
},
"geometry":{
"type":"Point",
"coordinates":[
140.86325,
38.653231
]
}
},
{
"type":"Feature",
"properties":{
"Name":"岩出山小学校川北分校",
"Jusho":"宮城県大崎市岩出山下野目字向山1－",
"Capacity":"－",
"la":"38.65232000000",
"ln":"140.89386200000"
},
"geometry":{
"type":"Point",
"coordinates":[
140.893862,
38.65232
]
}
},
{
"type":"Feature",
"properties":{
"Name":"鬼首小学校",
"Jusho":"宮城県大崎市鳴子温泉鬼首字八幡原19",
"Capacity":"－",
"la":"38.80042900000",
"ln":"140.65056900000"
},
"geometry":{
"type":"Point",
"coordinates":[
140.650569,
38.800429
]
}
},
{
"type":"Feature",
"properties":{
"Name":"鬼首小学校旧岩入分校",
"Jusho":"宮城県大崎市鳴子温泉鬼首字根松8-3",
"Capacity":"－",
"la":"38.86818782480",
"ln":"140.69565693900"
},
"geometry":{
"type":"Point",
"coordinates":[
140.695656939,
38.8681878248
]
}
},
{
"type":"Feature",
"properties":{
"Name":"鬼首小学校旧尾ヶ沢分校",
"Jusho":"宮城県大崎市鳴子温泉鬼首字高剥20",
"Capacity":"－",
"la":"38.86252439250",
"ln":"140.65773755800"
},
"geometry":{
"type":"Point",
"coordinates":[
140.657737558,
38.8625243925
]
}
},
{
"type":"Feature",
"properties":{
"Name":"宮沢小学校",
"Jusho":"宮城県大崎市古川宮沢字新田町34",
"Capacity":"－",
"la":"38.61682200000",
"ln":"140.94141900000"
},
"geometry":{
"type":"Point",
"coordinates":[
140.941419,
38.616822
]
}
},
{
"type":"Feature",
"properties":{
"Name":"古川第一小学校",
"Jusho":"宮城県大崎市古川二ノ構7-67",
"Capacity":"－",
"la":"38.57767600000",
"ln":"140.95352900000"
},
"geometry":{
"type":"Point",
"coordinates":[
140.953529,
38.577676
]
}
},
{
"type":"Feature",
"properties":{
"Name":"古川第五小学校",
"Jusho":"宮城県大崎市古川稲葉字谷地25-5",
"Capacity":"－",
"la":"38.56409300000",
"ln":"140.94523000000"
},
"geometry":{
"type":"Point",
"coordinates":[
140.94523,
38.564093
]
}
},
{
"type":"Feature",
"properties":{
"Name":"古川第三小学校",
"Jusho":"宮城県大崎市古川金五輪1－3－",
"Capacity":"－",
"la":"38.55997100000",
"ln":"140.95934000000"
},
"geometry":{
"type":"Point",
"coordinates":[
140.95934,
38.559971
]
}
},
{
"type":"Feature",
"properties":{
"Name":"古川第四小学校",
"Jusho":"宮城県大崎市古川大宮8-2－",
"Capacity":"－",
"la":"38.58817900000",
"ln":"140.95567700000"
},
"geometry":{
"type":"Point",
"coordinates":[
140.955677,
38.588179
]
}
},
{
"type":"Feature",
"properties":{
"Name":"古川第二小学校",
"Jusho":"宮城県大崎市古川福沼3－6－",
"Capacity":"－",
"la":"38.57641900000",
"ln":"140.97608500000"
},
"geometry":{
"type":"Point",
"coordinates":[
140.976085,
38.576419
]
}
},
{
"type":"Feature",
"properties":{
"Name":"高倉小学校",
"Jusho":"宮城県大崎市古川中沢字中沢屋敷242",
"Capacity":"－",
"la":"38.53835700000",
"ln":"140.91496000000"
},
"geometry":{
"type":"Point",
"coordinates":[
140.91496,
38.538357
]
}
},
{
"type":"Feature",
"properties":{
"Name":"三本木小学校",
"Jusho":"宮城県大崎市三本木字天王沢19",
"Capacity":"－",
"la":"38.52405500000",
"ln":"140.94349400000"
},
"geometry":{
"type":"Point",
"coordinates":[
140.943494,
38.524055
]
}
},
{
"type":"Feature",
"properties":{
"Name":"志田小学校",
"Jusho":"宮城県大崎市古川飯川字熊野40-2",
"Capacity":"－",
"la":"38.57077500000",
"ln":"140.91476300000"
},
"geometry":{
"type":"Point",
"coordinates":[
140.914763,
38.570775
]
}
},
{
"type":"Feature",
"properties":{
"Name":"鹿島台小学校",
"Jusho":"宮城県大崎市鹿島台平渡字上戸1",
"Capacity":"－",
"la":"38.47890600000",
"ln":"141.09668100000"
},
"geometry":{
"type":"Point",
"coordinates":[
141.096681,
38.478906
]
}
},
{
"type":"Feature",
"properties":{
"Name":"鹿島台第二小学校",
"Jusho":"宮城県大崎市鹿島台大迫字寺沢40－",
"Capacity":"－",
"la":"38.46148579010",
"ln":"141.04290276800"
},
"geometry":{
"type":"Point",
"coordinates":[
141.042902768,
38.4614857901
]
}
},
{
"type":"Feature",
"properties":{
"Name":"松山小学校",
"Jusho":"宮城県大崎市松山千石字舛形133",
"Capacity":"－",
"la":"38.51544700000",
"ln":"141.05830400000"
},
"geometry":{
"type":"Point",
"coordinates":[
141.058304,
38.515447
]
}
},
{
"type":"Feature",
"properties":{
"Name":"沼部小学校",
"Jusho":"宮城県大崎市鳴子温泉沼部字山崎一7",
"Capacity":"－",
"la":"38.59994200000",
"ln":"141.05527300000"
},
"geometry":{
"type":"Point",
"coordinates":[
141.055273,
38.599942
]
}
},
{
"type":"Feature",
"properties":{
"Name":"上野目小学校",
"Jusho":"宮城県大崎市岩出山下一栗字片岸浦9",
"Capacity":"－",
"la":"38.68326200000",
"ln":"140.86588500000"
},
"geometry":{
"type":"Point",
"coordinates":[
140.865885,
38.683262
]
}
},
{
"type":"Feature",
"properties":{
"Name":"真山小学校",
"Jusho":"宮城県大崎市岩出山上山里字上真山日向要害2",
"Capacity":"－",
"la":"38.69320200000",
"ln":"140.93238200000"
},
"geometry":{
"type":"Point",
"coordinates":[
140.932382,
38.693202
]
}
},
{
"type":"Feature",
"properties":{
"Name":"清滝小学校",
"Jusho":"宮城県大崎市古川清水沢字長泥30-2",
"Capacity":"－",
"la":"38.65922200000",
"ln":"140.96626800000"
},
"geometry":{
"type":"Point",
"coordinates":[
140.966268,
38.659222
]
}
},
{
"type":"Feature",
"properties":{
"Name":"西古川小学校",
"Jusho":"宮城県大崎市古川保柳字氏子114－",
"Capacity":"－",
"la":"38.58223200000",
"ln":"140.89567300000"
},
"geometry":{
"type":"Point",
"coordinates":[
140.895673,
38.582232
]
}
},
{
"type":"Feature",
"properties":{
"Name":"西大崎小学校",
"Jusho":"宮城県大崎市岩出山下野目字泉山205",
"Capacity":"－",
"la":"38.62302600000",
"ln":"140.88512400000"
},
"geometry":{
"type":"Point",
"coordinates":[
140.885124,
38.623026
]
}
},
{
"type":"Feature",
"properties":{
"Name":"川渡小学校",
"Jusho":"宮城県大崎市鳴子温泉大口字築沢29",
"Capacity":"－",
"la":"38.73182100000",
"ln":"140.76350000000"
},
"geometry":{
"type":"Point",
"coordinates":[
140.7635,
38.731821
]
}
},
{
"type":"Feature",
"properties":{
"Name":"大貫小学校",
"Jusho":"宮城県大崎市田尻大貫字境37－",
"Capacity":"－",
"la":"38.60892700000",
"ln":"141.10775600000"
},
"geometry":{
"type":"Point",
"coordinates":[
141.107756,
38.608927
]
}
},
{
"type":"Feature",
"properties":{
"Name":"池月小学校",
"Jusho":"宮城県大崎市岩出山池月字下宮山下30",
"Capacity":"－",
"la":"38.71134000000",
"ln":"140.83488100000"
},
"geometry":{
"type":"Point",
"coordinates":[
140.834881,
38.71134
]
}
},
{
"type":"Feature",
"properties":{
"Name":"中山小学校",
"Jusho":"宮城県大崎市鳴子温泉字川端188",
"Capacity":"－",
"la":"38.72643700000",
"ln":"140.66292400000"
},
"geometry":{
"type":"Point",
"coordinates":[
140.662924,
38.726437
]
}
},
{
"type":"Feature",
"properties":{
"Name":"長岡小学校",
"Jusho":"宮城県大崎市古川荒谷字樋ノ口62-2",
"Capacity":"－",
"la":"38.61599800000",
"ln":"140.97559500000"
},
"geometry":{
"type":"Point",
"coordinates":[
140.975595,
38.615998
]
}
},
{
"type":"Feature",
"properties":{
"Name":"田尻小学校",
"Jusho":"宮城県大崎市鳴子温泉通木字一所谷10-3",
"Capacity":"－",
"la":"38.60467200000",
"ln":"141.02070700000"
},
"geometry":{
"type":"Point",
"coordinates":[
141.020707,
38.604672
]
}
},
{
"type":"Feature",
"properties":{
"Name":"東大崎小学校",
"Jusho":"宮城県大崎市古川大崎字伏見梅田19",
"Capacity":"－",
"la":"38.60306300000",
"ln":"140.91197800000"
},
"geometry":{
"type":"Point",
"coordinates":[
140.911978,
38.603063
]
}
},
{
"type":"Feature",
"properties":{
"Name":"富永小学校",
"Jusho":"宮城県大崎市古川富長字新五右エ門6-2",
"Capacity":"－",
"la":"38.59390800000",
"ln":"140.98589800000"
},
"geometry":{
"type":"Point",
"coordinates":[
140.985898,
38.593908
]
}
},
{
"type":"Feature",
"properties":{
"Name":"敷玉小学校",
"Jusho":"宮城県大崎市古川石森字石神10－",
"Capacity":"－",
"la":"38.54448000000",
"ln":"140.99141600000"
},
"geometry":{
"type":"Point",
"coordinates":[
140.991416,
38.54448
]
}
},
{
"type":"Feature",
"properties":{
"Name":"鳴子小学校",
"Jusho":"宮城県大崎市鳴子温泉字川端188",
"Capacity":"－",
"la":"38.74115000000",
"ln":"140.71550600000"
},
"geometry":{
"type":"Point",
"coordinates":[
140.715506,
38.74115
]
}
},
{
"type":"Feature",
"properties":{
"Name":"永野小学校",
"Jusho":"宮城県刈田郡蔵王町円田字北浦16",
"Capacity":"－",
"la":"38.09631400000",
"ln":"140.66159300000"
},
"geometry":{
"type":"Point",
"coordinates":[
140.661593,
38.096314
]
}
},
{
"type":"Feature",
"properties":{
"Name":"円田小学校",
"Jusho":"宮城県刈田郡蔵王町円田字掘の内28",
"Capacity":"－",
"la":"38.10436900000",
"ln":"140.67770200000"
},
"geometry":{
"type":"Point",
"coordinates":[
140.677702,
38.104369
]
}
},
{
"type":"Feature",
"properties":{
"Name":"遠刈田小学校",
"Jusho":"宮城県刈田郡蔵王町遠刈田温泉字小妻坂山25",
"Capacity":"－",
"la":"38.12353100000",
"ln":"140.58048800000"
},
"geometry":{
"type":"Point",
"coordinates":[
140.580488,
38.123531
]
}
},
{
"type":"Feature",
"properties":{
"Name":"宮小学校",
"Jusho":"宮城県刈田郡蔵王町宮字井戸井33",
"Capacity":"－",
"la":"38.04409500000",
"ln":"140.65048600000"
},
"geometry":{
"type":"Point",
"coordinates":[
140.650486,
38.044095
]
}
},
{
"type":"Feature",
"properties":{
"Name":"平沢小学校",
"Jusho":"宮城県刈田郡蔵王町平沢字台屋敷62",
"Capacity":"－",
"la":"38.12381200000",
"ln":"140.68103400000"
},
"geometry":{
"type":"Point",
"coordinates":[
140.681034,
38.123812
]
}
},
{
"type":"Feature",
"properties":{
"Name":"町立関小学校",
"Jusho":"宮城県刈田郡七ヶ宿町字利津保16－",
"Capacity":"－",
"la":"37.99104100000",
"ln":"140.44134000000"
},
"geometry":{
"type":"Point",
"coordinates":[
140.44134,
37.991041
]
}
},
{
"type":"Feature",
"properties":{
"Name":"町立湯原小学校",
"Jusho":"宮城県刈田郡七ヶ宿町字町裏81",
"Capacity":"－",
"la":"38.01409000000",
"ln":"140.32079200000"
},
"geometry":{
"type":"Point",
"coordinates":[
140.320792,
38.01409
]
}
},
{
"type":"Feature",
"properties":{
"Name":"金ヶ瀬小学校",
"Jusho":"宮城県柴田郡大河原町金ヶ瀬字居掛21",
"Capacity":"1200",
"la":"38.04270800000",
"ln":"140.70353700000"
},
"geometry":{
"type":"Point",
"coordinates":[
140.703537,
38.042708
]
}
},
{
"type":"Feature",
"properties":{
"Name":"大河原南小学校",
"Jusho":"宮城県柴田郡大河原町鷺沼入27－",
"Capacity":"3500",
"la":"38.03410000000",
"ln":"140.73825700000"
},
"geometry":{
"type":"Point",
"coordinates":[
140.738257,
38.0341
]
}
},
{
"type":"Feature",
"properties":{
"Name":"（旧）村田第五小学校",
"Jusho":"宮城県柴田郡村田町足立字折越1",
"Capacity":"990",
"la":"38.14047900000",
"ln":"140.71270000000"
},
"geometry":{
"type":"Point",
"coordinates":[
140.7127,
38.140479
]
}
},
{
"type":"Feature",
"properties":{
"Name":"（旧）村田第三小学校",
"Jusho":"宮城県柴田郡村田町小泉字南乙内22",
"Capacity":"1200",
"la":"38.10437100000",
"ln":"140.73019800000"
},
"geometry":{
"type":"Point",
"coordinates":[
140.730198,
38.104371
]
}
},
{
"type":"Feature",
"properties":{
"Name":"（旧）村田第四小学校",
"Jusho":"宮城県柴田郡村田町菅生字宮22",
"Capacity":"970",
"la":"38.16936700000",
"ln":"140.76047100000"
},
"geometry":{
"type":"Point",
"coordinates":[
140.760471,
38.169367
]
}
},
{
"type":"Feature",
"properties":{
"Name":"村田小学校",
"Jusho":"宮城県柴田郡村田町村田字迫6",
"Capacity":"2980",
"la":"38.11791148230",
"ln":"140.72213204300"
},
"geometry":{
"type":"Point",
"coordinates":[
140.722132043,
38.1179114823
]
}
},
{
"type":"Feature",
"properties":{
"Name":"村田第二小学校",
"Jusho":"宮城県柴田郡村田町沼辺字籠田27",
"Capacity":"1750",
"la":"38.07950300000",
"ln":"140.73345400000"
},
"geometry":{
"type":"Point",
"coordinates":[
140.733454,
38.079503
]
}
},
{
"type":"Feature",
"properties":{
"Name":"柴田小学校",
"Jusho":"宮城県柴田郡柴田町葉坂字鍛冶内30",
"Capacity":"－",
"la":"38.09548500000",
"ln":"140.78713800000"
},
"geometry":{
"type":"Point",
"coordinates":[
140.787138,
38.095485
]
}
},
{
"type":"Feature",
"properties":{
"Name":"西住小学校",
"Jusho":"宮城県柴田郡柴田町船岡字大住町16－",
"Capacity":"－",
"la":"38.04465500000",
"ln":"140.75269900000"
},
"geometry":{
"type":"Point",
"coordinates":[
140.752699,
38.044655
]
}
},
{
"type":"Feature",
"properties":{
"Name":"船岡小学校",
"Jusho":"宮城県柴田郡柴田町船岡東一丁目2-60",
"Capacity":"－",
"la":"38.05965500000",
"ln":"140.77408600000"
},
"geometry":{
"type":"Point",
"coordinates":[
140.774086,
38.059655
]
}
},
{
"type":"Feature",
"properties":{
"Name":"船迫小学校",
"Jusho":"宮城県柴田郡柴田町西船迫三丁目1-3",
"Capacity":"－",
"la":"38.06854200000",
"ln":"140.76297500000"
},
"geometry":{
"type":"Point",
"coordinates":[
140.762975,
38.068542
]
}
},
{
"type":"Feature",
"properties":{
"Name":"槻木小学校",
"Jusho":"宮城県柴田郡柴田町槻木駅西二丁目14－",
"Capacity":"－",
"la":"38.08354200000",
"ln":"140.81019300000"
},
"geometry":{
"type":"Point",
"coordinates":[
140.810193,
38.083542
]
}
},
{
"type":"Feature",
"properties":{
"Name":"東船岡小学校",
"Jusho":"宮城県柴田郡柴田町上名生字下中川93－",
"Capacity":"－",
"la":"38.05521100000",
"ln":"140.79158500000"
},
"geometry":{
"type":"Point",
"coordinates":[
140.791585,
38.055211
]
}
},
{
"type":"Feature",
"properties":{
"Name":"旧支倉小学校",
"Jusho":"宮城県柴田郡川崎町支倉字塩沢9番地",
"Capacity":"500",
"la":"38.17186500000",
"ln":"140.71630800000"
},
"geometry":{
"type":"Point",
"coordinates":[
140.716308,
38.171865
]
}
},
{
"type":"Feature",
"properties":{
"Name":"旧川内小学校",
"Jusho":"宮城県柴田郡川崎町川内字天神前257番地1",
"Capacity":"600",
"la":"38.20630300000",
"ln":"140.64353400000"
},
"geometry":{
"type":"Point",
"coordinates":[
140.643534,
38.206303
]
}
},
{
"type":"Feature",
"properties":{
"Name":"旧前川小学校青根分校",
"Jusho":"宮城県柴田郡川崎町前川字名号下山3番地7",
"Capacity":"350",
"la":"38.14908200000",
"ln":"140.53521300000"
},
"geometry":{
"type":"Point",
"coordinates":[
140.535213,
38.149082
]
}
},
{
"type":"Feature",
"properties":{
"Name":"川崎小学校",
"Jusho":"宮城県柴田郡川崎町前川字舘山西5番地1",
"Capacity":"1500",
"la":"38.17963900000",
"ln":"140.64659100000"
},
"geometry":{
"type":"Point",
"coordinates":[
140.646591,
38.179639
]
}
},
{
"type":"Feature",
"properties":{
"Name":"川崎第二小学校",
"Jusho":"宮城県柴田郡川崎町今宿字町尻1番地",
"Capacity":"1000",
"la":"38.19380200000",
"ln":"140.60131600000"
},
"geometry":{
"type":"Point",
"coordinates":[
140.601316,
38.193802
]
}
},
{
"type":"Feature",
"properties":{
"Name":"前川小学校",
"Jusho":"宮城県柴田郡川崎町前川字大森111番地4",
"Capacity":"700",
"la":"38.16547300000",
"ln":"140.61964900000"
},
"geometry":{
"type":"Point",
"coordinates":[
140.619649,
38.165473
]
}
},
{
"type":"Feature",
"properties":{
"Name":"富岡小学校",
"Jusho":"宮城県柴田郡川崎町支倉字川向49番地5",
"Capacity":"450",
"la":"38.19934581560",
"ln":"140.72372975400"
},
"geometry":{
"type":"Point",
"coordinates":[
140.723729754,
38.1993458156
]
}
},
{
"type":"Feature",
"properties":{
"Name":"本砂金小学校",
"Jusho":"宮城県柴田郡川崎町本砂金字道畑95番地1",
"Capacity":"600",
"la":"38.24150700000",
"ln":"140.63701800000"
},
"geometry":{
"type":"Point",
"coordinates":[
140.637018,
38.241507
]
}
},
{
"type":"Feature",
"properties":{
"Name":"金山小学校",
"Jusho":"宮城県伊具郡丸森町金山字下前川原1",
"Capacity":"－",
"la":"37.90133900000",
"ln":"140.79825800000"
},
"geometry":{
"type":"Point",
"coordinates":[
140.798258,
37.901339
]
}
},
{
"type":"Feature",
"properties":{
"Name":"舘矢間小学校",
"Jusho":"宮城県伊具郡丸森町舘矢間舘山字玉川29",
"Capacity":"－",
"la":"37.92411399910",
"ln":"140.77242700000"
},
"geometry":{
"type":"Point",
"coordinates":[
140.772427,
37.9241139991
]
}
},
{
"type":"Feature",
"properties":{
"Name":"丸森小学校",
"Jusho":"宮城県伊具郡丸森町丸森町字菱川内39－",
"Capacity":"－",
"la":"37.91494799910",
"ln":"140.76048400000"
},
"geometry":{
"type":"Point",
"coordinates":[
140.760484,
37.9149479991
]
}
},
{
"type":"Feature",
"properties":{
"Name":"耕野小学校",
"Jusho":"宮城県伊具郡丸森町耕野字入大44－",
"Capacity":"－",
"la":"37.91938799910",
"ln":"140.64549300000"
},
"geometry":{
"type":"Point",
"coordinates":[
140.645493,
37.9193879991
]
}
},
{
"type":"Feature",
"properties":{
"Name":"小斎小学校",
"Jusho":"宮城県伊具郡丸森町小斎字古舘95",
"Capacity":"－",
"la":"37.91819499910",
"ln":"140.82329800000"
},
"geometry":{
"type":"Point",
"coordinates":[
140.823298,
37.9181949991
]
}
},
{
"type":"Feature",
"properties":{
"Name":"大張小学校",
"Jusho":"宮城県伊具郡丸森町大張川張字宮田25",
"Capacity":"－",
"la":"37.93646099910",
"ln":"140.67702100000"
},
"geometry":{
"type":"Point",
"coordinates":[
140.677021,
37.9364609991
]
}
},
{
"type":"Feature",
"properties":{
"Name":"大内小学校",
"Jusho":"宮城県伊具郡丸森町大内字横手18",
"Capacity":"－",
"la":"37.87186466630",
"ln":"140.82543161700"
},
"geometry":{
"type":"Point",
"coordinates":[
140.825431617,
37.8718646663
]
}
},
{
"type":"Feature",
"properties":{
"Name":"筆甫小学校",
"Jusho":"宮城県伊具郡丸森町筆甫字中島3-2",
"Capacity":"－",
"la":"37.83606600000",
"ln":"140.73215600000"
},
"geometry":{
"type":"Point",
"coordinates":[
140.732156,
37.836066
]
}
},
{
"type":"Feature",
"properties":{
"Name":"逢隈小学校",
"Jusho":"宮城県亘理郡亘理町逢隈田沢字鈴木堀93－",
"Capacity":"4400",
"la":"38.07354400000",
"ln":"140.86630000000"
},
"geometry":{
"type":"Point",
"coordinates":[
140.8663,
38.073544
]
}
},
{
"type":"Feature",
"properties":{
"Name":"吉田小学校",
"Jusho":"宮城県亘理郡亘理町吉田字宮前63",
"Capacity":"2400",
"la":"38.01382900000",
"ln":"140.85769300000"
},
"geometry":{
"type":"Point",
"coordinates":[
140.857693,
38.013829
]
}
},
{
"type":"Feature",
"properties":{
"Name":"荒浜小学校",
"Jusho":"宮城県亘理郡亘理町荒浜字隈潟67",
"Capacity":"3000",
"la":"38.04882699910",
"ln":"140.90879900000"
},
"geometry":{
"type":"Point",
"coordinates":[
140.908799,
38.0488269991
]
}
},
{
"type":"Feature",
"properties":{
"Name":"高屋小学校",
"Jusho":"宮城県亘理郡亘理町逢隈高屋字保戸原54-2",
"Capacity":"2400",
"la":"38.04617800000",
"ln":"140.88339500000"
},
"geometry":{
"type":"Point",
"coordinates":[
140.883395,
38.046178
]
}
},
{
"type":"Feature",
"properties":{
"Name":"長瀞小学校",
"Jusho":"宮城県亘理郡亘理町長瀞字南原193－",
"Capacity":"2700",
"la":"38.01855200000",
"ln":"140.89491200000"
},
"geometry":{
"type":"Point",
"coordinates":[
140.894912,
38.018552
]
}
},
{
"type":"Feature",
"properties":{
"Name":"亘理小学校",
"Jusho":"宮城県亘理郡亘理町字下小路22-2",
"Capacity":"8000",
"la":"38.03632600000",
"ln":"140.85352600000"
},
"geometry":{
"type":"Point",
"coordinates":[
140.853526,
38.036326
]
}
},
{
"type":"Feature",
"properties":{
"Name":"坂元小学校",
"Jusho":"宮城県亘理郡山元町坂元字舘下159－",
"Capacity":"－",
"la":"37.91884000000",
"ln":"140.89352700000"
},
"geometry":{
"type":"Point",
"coordinates":[
140.893527,
37.91884
]
}
},
{
"type":"Feature",
"properties":{
"Name":"山下小学校",
"Jusho":"宮城県亘理郡山元町山寺字樋前12",
"Capacity":"－",
"la":"37.96966699910",
"ln":"140.87436000000"
},
"geometry":{
"type":"Point",
"coordinates":[
140.87436,
37.9696669991
]
}
},
{
"type":"Feature",
"properties":{
"Name":"山下第一小学校",
"Jusho":"宮城県亘理郡山元町大平字握6",
"Capacity":"－",
"la":"37.99188700000",
"ln":"140.86658200000"
},
"geometry":{
"type":"Point",
"coordinates":[
140.866582,
37.991887
]
}
},
{
"type":"Feature",
"properties":{
"Name":"山下第二小学校",
"Jusho":"宮城県亘理郡山元町高瀬字古谷地1",
"Capacity":"－",
"la":"37.96341593680",
"ln":"140.91035408800"
},
"geometry":{
"type":"Point",
"coordinates":[
140.910354088,
37.9634159368
]
}
},
{
"type":"Feature",
"properties":{
"Name":"中浜小学校",
"Jusho":"宮城県亘理郡山元町坂元字久根22-2",
"Capacity":"－",
"la":"37.91661900000",
"ln":"140.91741300000"
},
"geometry":{
"type":"Point",
"coordinates":[
140.917413,
37.916619
]
}
},
{
"type":"Feature",
"properties":{
"Name":"松島第１小学校",
"Jusho":"宮城県宮城郡松島町松島字道珍浜10",
"Capacity":"－",
"la":"38.37602000000",
"ln":"141.06737700000"
},
"geometry":{
"type":"Point",
"coordinates":[
141.067377,
38.37602
]
}
},
{
"type":"Feature",
"properties":{
"Name":"松島第２小学校及び体育館",
"Jusho":"宮城県宮城郡松島町高城字反町五14",
"Capacity":"－",
"la":"38.39480199910",
"ln":"141.06299800000"
},
"geometry":{
"type":"Point",
"coordinates":[
141.062998,
38.3948019991
]
}
},
{
"type":"Feature",
"properties":{
"Name":"松島第５小学校及び体育館",
"Jusho":"宮城県宮城郡松島町幡谷字新田5－",
"Capacity":"－",
"la":"38.43017999910",
"ln":"141.07820600000"
},
"geometry":{
"type":"Point",
"coordinates":[
141.078206,
38.4301799991
]
}
},
{
"type":"Feature",
"properties":{
"Name":"町立汐見小学校",
"Jusho":"宮城県宮城郡七ヶ浜町汐見台3丁目1",
"Capacity":"4500",
"la":"38.29780900000",
"ln":"141.04645300000"
},
"geometry":{
"type":"Point",
"coordinates":[
141.046453,
38.297809
]
}
},
{
"type":"Feature",
"properties":{
"Name":"町立松ヶ浜小学校",
"Jusho":"宮城県宮城郡七ヶ浜町松ヶ浜字神明裏64",
"Capacity":"4200",
"la":"38.28242000000",
"ln":"141.05655100000"
},
"geometry":{
"type":"Point",
"coordinates":[
141.056551,
38.28242
]
}
},
{
"type":"Feature",
"properties":{
"Name":"町立亦楽小学校",
"Jusho":"宮城県宮城郡七ヶ浜町代ヶ崎浜字細田54－",
"Capacity":"4500",
"la":"38.30519500000",
"ln":"141.06127100000"
},
"geometry":{
"type":"Point",
"coordinates":[
141.061271,
38.305195
]
}
},
{
"type":"Feature",
"properties":{
"Name":"しらかし台小学校",
"Jusho":"宮城県宮城郡利府町しらかし台一丁目9",
"Capacity":"－",
"la":"38.35018599910",
"ln":"140.96350000000"
},
"geometry":{
"type":"Point",
"coordinates":[
140.9635,
38.3501859991
]
}
},
{
"type":"Feature",
"properties":{
"Name":"菅谷台小学校",
"Jusho":"宮城県宮城郡利府町菅谷台四丁目40",
"Capacity":"－",
"la":"38.33324399910",
"ln":"140.95711200000"
},
"geometry":{
"type":"Point",
"coordinates":[
140.957112,
38.3332439991
]
}
},
{
"type":"Feature",
"properties":{
"Name":"青山小学校",
"Jusho":"宮城県宮城郡利府町青山三丁目45－",
"Capacity":"－",
"la":"38.34768699910",
"ln":"140.97377700000"
},
"geometry":{
"type":"Point",
"coordinates":[
140.973777,
38.3476869991
]
}
},
{
"type":"Feature",
"properties":{
"Name":"利府小学校",
"Jusho":"宮城県宮城郡利府町利府字城内1",
"Capacity":"－",
"la":"38.33352199910",
"ln":"140.97961000000"
},
"geometry":{
"type":"Point",
"coordinates":[
140.97961,
38.3335219991
]
}
},
{
"type":"Feature",
"properties":{
"Name":"利府第三小学校",
"Jusho":"宮城県宮城郡利府町森郷字後楽東1-5",
"Capacity":"－",
"la":"38.32991199910",
"ln":"140.99877500000"
},
"geometry":{
"type":"Point",
"coordinates":[
140.998775,
38.3299119991
]
}
},
{
"type":"Feature",
"properties":{
"Name":"利府第二小学校",
"Jusho":"宮城県宮城郡利府町神谷沢字後沢31－",
"Capacity":"－",
"la":"38.31824500000",
"ln":"140.95350200000"
},
"geometry":{
"type":"Point",
"coordinates":[
140.953502,
38.318245
]
}
},
{
"type":"Feature",
"properties":{
"Name":"吉岡小学校",
"Jusho":"宮城県黒川郡大和町吉岡字町裏32",
"Capacity":"－",
"la":"38.44711600000",
"ln":"140.88794700000"
},
"geometry":{
"type":"Point",
"coordinates":[
140.887947,
38.447116
]
}
},
{
"type":"Feature",
"properties":{
"Name":"吉田小学校",
"Jusho":"宮城県黒川郡大和町吉田字寺野東62－",
"Capacity":"－",
"la":"38.45239314050",
"ln":"140.83026382900"
},
"geometry":{
"type":"Point",
"coordinates":[
140.830263829,
38.4523931405
]
}
},
{
"type":"Feature",
"properties":{
"Name":"宮床小学校",
"Jusho":"宮城県黒川郡大和町宮床字四辻85-6",
"Capacity":"－",
"la":"38.40295400000",
"ln":"140.84767600000"
},
"geometry":{
"type":"Point",
"coordinates":[
140.847676,
38.402954
]
}
},
{
"type":"Feature",
"properties":{
"Name":"宮床小学校難波分校",
"Jusho":"宮城県黒川郡大和町宮床字中山29",
"Capacity":"－",
"la":"38.41822900000",
"ln":"140.80018000000"
},
"geometry":{
"type":"Point",
"coordinates":[
140.80018,
38.418229
]
}
},
{
"type":"Feature",
"properties":{
"Name":"小野小学校",
"Jusho":"宮城県黒川郡大和町もみじケ丘二丁目3",
"Capacity":"－",
"la":"38.38212400000",
"ln":"140.86073100000"
},
"geometry":{
"type":"Point",
"coordinates":[
140.860731,
38.382124
]
}
},
{
"type":"Feature",
"properties":{
"Name":"鶴巣小学校",
"Jusho":"宮城県黒川郡大和町鶴巣北目大崎字岸172",
"Capacity":"－",
"la":"38.42073300000",
"ln":"140.93461100000"
},
"geometry":{
"type":"Point",
"coordinates":[
140.934611,
38.420733
]
}
},
{
"type":"Feature",
"properties":{
"Name":"落合小学校",
"Jusho":"宮城県黒川郡大和町落合相川字若木164－",
"Capacity":"－",
"la":"38.43795200000",
"ln":"140.92933300000"
},
"geometry":{
"type":"Point",
"coordinates":[
140.929333,
38.437952
]
}
},
{
"type":"Feature",
"properties":{
"Name":"大松沢小学校",
"Jusho":"宮城県黒川郡大郷町大松沢字旅籠屋9",
"Capacity":"－",
"la":"38.46484400000",
"ln":"140.99659600000"
},
"geometry":{
"type":"Point",
"coordinates":[
140.996596,
38.464844
]
}
},
{
"type":"Feature",
"properties":{
"Name":"大谷小学校",
"Jusho":"宮城県黒川郡大郷町中村字屋敷前98",
"Capacity":"－",
"la":"38.42045700000",
"ln":"141.00154800000"
},
"geometry":{
"type":"Point",
"coordinates":[
141.001548,
38.420457
]
}
},
{
"type":"Feature",
"properties":{
"Name":"粕川小学校",
"Jusho":"宮城県黒川郡大郷町粕川字伝三郎23",
"Capacity":"－",
"la":"38.43878700000",
"ln":"140.99127100000"
},
"geometry":{
"type":"Point",
"coordinates":[
140.991271,
38.438787
]
}
},
{
"type":"Feature",
"properties":{
"Name":"味明小学校",
"Jusho":"宮城県黒川郡大郷町味明字樋場上56",
"Capacity":"－",
"la":"38.42517900000",
"ln":"141.03126700000"
},
"geometry":{
"type":"Point",
"coordinates":[
141.031267,
38.425179
]
}
},
{
"type":"Feature",
"properties":{
"Name":"あけの平小学校",
"Jusho":"宮城県黒川郡富谷町あけの平2－8－",
"Capacity":"－",
"la":"38.38045800000",
"ln":"140.87961800000"
},
"geometry":{
"type":"Point",
"coordinates":[
140.879618,
38.380458
]
}
},
{
"type":"Feature",
"properties":{
"Name":"成田小学校",
"Jusho":"宮城県黒川郡富谷町成田3－－",
"Capacity":"－",
"la":"38.36706000000",
"ln":"140.89368400000"
},
"geometry":{
"type":"Point",
"coordinates":[
140.893684,
38.36706
]
}
},
{
"type":"Feature",
"properties":{
"Name":"成田東小学校",
"Jusho":"宮城県黒川郡富谷町成田6-36－",
"Capacity":"－",
"la":"38.35935000000",
"ln":"140.90100500000"
},
"geometry":{
"type":"Point",
"coordinates":[
140.901005,
38.35935
]
}
},
{
"type":"Feature",
"properties":{
"Name":"東向陽台小学校",
"Jusho":"宮城県黒川郡富谷町明石台1-37－3",
"Capacity":"－",
"la":"38.34712900000",
"ln":"140.89711700000"
},
"geometry":{
"type":"Point",
"coordinates":[
140.897117,
38.347129
]
}
},
{
"type":"Feature",
"properties":{
"Name":"日吉台小学校",
"Jusho":"宮城県黒川郡富谷町日吉台1－3－",
"Capacity":"－",
"la":"38.37323600000",
"ln":"140.86628600000"
},
"geometry":{
"type":"Point",
"coordinates":[
140.866286,
38.373236
]
}
},
{
"type":"Feature",
"properties":{
"Name":"富ケ丘小学校",
"Jusho":"宮城県黒川郡富谷町富ケ丘1－7-37",
"Capacity":"－",
"la":"38.36073700000",
"ln":"140.86934200000"
},
"geometry":{
"type":"Point",
"coordinates":[
140.869342,
38.360737
]
}
},
{
"type":"Feature",
"properties":{
"Name":"富谷小学校",
"Jusho":"宮城県黒川郡富谷町富谷字狸屋敷85",
"Capacity":"－",
"la":"38.40073300000",
"ln":"140.89211600000"
},
"geometry":{
"type":"Point",
"coordinates":[
140.892116,
38.400733
]
}
},
{
"type":"Feature",
"properties":{
"Name":"大衡小学校",
"Jusho":"宮城県黒川郡大衡村大衡字平林13",
"Capacity":"4000",
"la":"38.46489200000",
"ln":"140.88100300000"
},
"geometry":{
"type":"Point",
"coordinates":[
140.881003,
38.464892
]
}
},
{
"type":"Feature",
"properties":{
"Name":"色麻小学校",
"Jusho":"宮城県加美郡色麻町四竈字向町220",
"Capacity":"－",
"la":"38.54139500000",
"ln":"140.85188000000"
},
"geometry":{
"type":"Point",
"coordinates":[
140.85188,
38.541395
]
}
},
{
"type":"Feature",
"properties":{
"Name":"清水小学校",
"Jusho":"宮城県加美郡色麻町清水字香の木前33",
"Capacity":"－",
"la":"38.56210200000",
"ln":"140.81961500000"
},
"geometry":{
"type":"Point",
"coordinates":[
140.819615,
38.562102
]
}
},
{
"type":"Feature",
"properties":{
"Name":"旭小学校",
"Jusho":"宮城県加美郡加美町宮崎字旭2－－",
"Capacity":"5900",
"la":"38.62831500000",
"ln":"140.71009200000"
},
"geometry":{
"type":"Point",
"coordinates":[
140.710092,
38.628315
]
}
},
{
"type":"Feature",
"properties":{
"Name":"賀美石小学校",
"Jusho":"宮城県加美郡加美町鳥屋ケ崎字神明127",
"Capacity":"6700",
"la":"38.59126500000",
"ln":"140.80295000000"
},
"geometry":{
"type":"Point",
"coordinates":[
140.80295,
38.591265
]
}
},
{
"type":"Feature",
"properties":{
"Name":"宮崎小学校",
"Jusho":"宮城県加美郡加美町宮崎字屋敷1-6-2",
"Capacity":"7900",
"la":"38.61473300000",
"ln":"140.75965000000"
},
"geometry":{
"type":"Point",
"coordinates":[
140.75965,
38.614733
]
}
},
{
"type":"Feature",
"properties":{
"Name":"広原小学校",
"Jusho":"宮城県加美郡加美町上狼塚字東北原12－",
"Capacity":"4100",
"la":"38.59571100000",
"ln":"140.86572000000"
},
"geometry":{
"type":"Point",
"coordinates":[
140.86572,
38.595711
]
}
},
{
"type":"Feature",
"properties":{
"Name":"鹿原小学校",
"Jusho":"宮城県加美郡加美町字鹿原水堀3－",
"Capacity":"3835",
"la":"38.56709900000",
"ln":"140.74434500000"
},
"geometry":{
"type":"Point",
"coordinates":[
140.744345,
38.567099
]
}
},
{
"type":"Feature",
"properties":{
"Name":"上多田川小学校",
"Jusho":"宮城県加美郡加美町上多田川字笹沢東1－",
"Capacity":"13000",
"la":"38.63734600000",
"ln":"140.82555900000"
},
"geometry":{
"type":"Point",
"coordinates":[
140.825559,
38.637346
]
}
},
{
"type":"Feature",
"properties":{
"Name":"西小野田小学校",
"Jusho":"宮城県加美郡加美町字上野目高畑5",
"Capacity":"4450",
"la":"38.58848500000",
"ln":"140.73101200000"
},
"geometry":{
"type":"Point",
"coordinates":[
140.731012,
38.588485
]
}
},
{
"type":"Feature",
"properties":{
"Name":"中新田小学校",
"Jusho":"宮城県加美郡加美町字西田4-7－",
"Capacity":"3900",
"la":"38.57090600000",
"ln":"140.85427100000"
},
"geometry":{
"type":"Point",
"coordinates":[
140.854271,
38.570906
]
}
},
{
"type":"Feature",
"properties":{
"Name":"東小野田小学校",
"Jusho":"宮城県加美郡加美町字南寺宿45",
"Capacity":"5460",
"la":"38.57598800000",
"ln":"140.78295200000"
},
"geometry":{
"type":"Point",
"coordinates":[
140.782952,
38.575988
]
}
},
{
"type":"Feature",
"properties":{
"Name":"鳴瀬小学校",
"Jusho":"宮城県加美郡加美町四日市場字舟橋250",
"Capacity":"7200",
"la":"38.55710500000",
"ln":"140.87877700000"
},
"geometry":{
"type":"Point",
"coordinates":[
140.878777,
38.557105
]
}
},
{
"type":"Feature",
"properties":{
"Name":"旧涌谷第三小学校",
"Jusho":"宮城県遠田郡涌谷町上郡字永根1-2",
"Capacity":"1193",
"la":"38.56238700000",
"ln":"141.11458400000"
},
"geometry":{
"type":"Point",
"coordinates":[
141.114584,
38.562387
]
}
},
{
"type":"Feature",
"properties":{
"Name":"月将館小学校",
"Jusho":"宮城県遠田郡涌谷町涌谷字小人町",
"Capacity":"1529",
"la":"38.54308396520",
"ln":"141.13449344300"
},
"geometry":{
"type":"Point",
"coordinates":[
141.134493443,
38.5430839652
]
}
},
{
"type":"Feature",
"properties":{
"Name":"小里小学校",
"Jusho":"宮城県遠田郡涌谷町小里字八幡",
"Capacity":"1134",
"la":"38.58571800000",
"ln":"141.15624500000"
},
"geometry":{
"type":"Point",
"coordinates":[
141.156245,
38.585718
]
}
},
{
"type":"Feature",
"properties":{
"Name":"涌谷第一小学校",
"Jusho":"宮城県遠田郡涌谷町字立町15",
"Capacity":"2704",
"la":"38.54294500000",
"ln":"141.12930500000"
},
"geometry":{
"type":"Point",
"coordinates":[
141.129305,
38.542945
]
}
},
{
"type":"Feature",
"properties":{
"Name":"箟岳小学校",
"Jusho":"宮城県遠田郡涌谷町吉住字西山9",
"Capacity":"1148",
"la":"38.56183400000",
"ln":"141.19152000000"
},
"geometry":{
"type":"Point",
"coordinates":[
141.19152,
38.561834
]
}
},
{
"type":"Feature",
"properties":{
"Name":"旧練牛小学校",
"Jusho":"宮城県遠田郡美里町練牛字八号32",
"Capacity":"1950",
"la":"38.50932900000",
"ln":"141.11127700000"
},
"geometry":{
"type":"Point",
"coordinates":[
141.111277,
38.509329
]
}
},
{
"type":"Feature",
"properties":{
"Name":"小牛田小学校",
"Jusho":"宮城県遠田郡美里町牛飼字清水江220",
"Capacity":"5550",
"la":"38.55210900000",
"ln":"141.05709000000"
},
"geometry":{
"type":"Point",
"coordinates":[
141.05709,
38.552109
]
}
},
{
"type":"Feature",
"properties":{
"Name":"青生小学校",
"Jusho":"宮城県遠田郡美里町青生字中ノ橋128－",
"Capacity":"2220",
"la":"38.53683300000",
"ln":"141.04348200000"
},
"geometry":{
"type":"Point",
"coordinates":[
141.043482,
38.536833
]
}
},
{
"type":"Feature",
"properties":{
"Name":"中埣小学校",
"Jusho":"宮城県遠田郡美里町荻埣字朝日壇78",
"Capacity":"1950",
"la":"38.57646400000",
"ln":"141.02876300000"
},
"geometry":{
"type":"Point",
"coordinates":[
141.028763,
38.576464
]
}
},
{
"type":"Feature",
"properties":{
"Name":"南郷小学校",
"Jusho":"宮城県遠田郡美里町木間塚字高田5",
"Capacity":"2600",
"la":"38.48795100000",
"ln":"141.13291800000"
},
"geometry":{
"type":"Point",
"coordinates":[
141.132918,
38.487951
]
}
},
{
"type":"Feature",
"properties":{
"Name":"不動堂小学校",
"Jusho":"宮城県遠田郡美里町字峯山12－",
"Capacity":"4020",
"la":"38.53655600000",
"ln":"141.07347900000"
},
"geometry":{
"type":"Point",
"coordinates":[
141.073479,
38.536556
]
}
},
{
"type":"Feature",
"properties":{
"Name":"北浦小学校",
"Jusho":"宮城県遠田郡美里町北浦字浦田上129",
"Capacity":"2600",
"la":"38.56488500000",
"ln":"141.02264900000"
},
"geometry":{
"type":"Point",
"coordinates":[
141.022649,
38.564885
]
}
},
{
"type":"Feature",
"properties":{
"Name":"旧女川第三小学校",
"Jusho":"宮城県牡鹿郡女川町",
"Capacity":"－",
"la":"38.44852300000",
"ln":"141.48871900000"
},
"geometry":{
"type":"Point",
"coordinates":[
141.488719,
38.448523
]
}
},
{
"type":"Feature",
"properties":{
"Name":"女川第一小学校",
"Jusho":"宮城県牡鹿郡女川町浦宿浜字門前4",
"Capacity":"－",
"la":"38.43991100000",
"ln":"141.43011500000"
},
"geometry":{
"type":"Point",
"coordinates":[
141.430115,
38.439911
]
}
},
{
"type":"Feature",
"properties":{
"Name":"女川第四小学校・第二中学校",
"Jusho":"宮城県牡鹿郡女川町出島字合ノ浜54-2",
"Capacity":"－",
"la":"38.44991300000",
"ln":"141.52260500000"
},
"geometry":{
"type":"Point",
"coordinates":[
141.522605,
38.449913
]
}
},
{
"type":"Feature",
"properties":{
"Name":"女川第二小学校",
"Jusho":"宮城県牡鹿郡女川町女川浜字大原310",
"Capacity":"－",
"la":"38.44935500000",
"ln":"141.44233500000"
},
"geometry":{
"type":"Point",
"coordinates":[
141.442335,
38.449355
]
}
},
{
"type":"Feature",
"properties":{
"Name":"伊里前小学校",
"Jusho":"宮城県本吉郡南三陸町歌津字伊里前113",
"Capacity":"－",
"la":"38.71847700000",
"ln":"141.52153400000"
},
"geometry":{
"type":"Point",
"coordinates":[
141.521534,
38.718477
]
}
},
{
"type":"Feature",
"properties":{
"Name":"旧荒砥小学校",
"Jusho":"宮城県本吉郡南三陸町志津川字蒲の沢190－",
"Capacity":"－",
"la":"38.67815800000",
"ln":"141.48081600000"
},
"geometry":{
"type":"Point",
"coordinates":[
141.480816,
38.678158
]
}
},
{
"type":"Feature",
"properties":{
"Name":"旧清水小学校",
"Jusho":"宮城県本吉郡南三陸町志津川字松井田57-3",
"Capacity":"－",
"la":"38.69334800000",
"ln":"141.48296400000"
},
"geometry":{
"type":"Point",
"coordinates":[
141.482964,
38.693348
]
}
},
{
"type":"Feature",
"properties":{
"Name":"旧藤浜小学校",
"Jusho":"宮城県本吉郡南三陸町戸倉字藤浜182",
"Capacity":"－",
"la":"38.63655700000",
"ln":"141.50010200000"
},
"geometry":{
"type":"Point",
"coordinates":[
141.500102,
38.636557
]
}
},
{
"type":"Feature",
"properties":{
"Name":"旧林際小学校（さんさん館）",
"Jusho":"宮城県本吉郡南三陸町入谷字山の神平10－",
"Capacity":"－",
"la":"38.71817282200",
"ln":"141.42430576800"
},
"geometry":{
"type":"Point",
"coordinates":[
141.424305768,
38.718172822
]
}
},
{
"type":"Feature",
"properties":{
"Name":"戸倉小学校",
"Jusho":"宮城県本吉郡南三陸町戸倉字沖田18",
"Capacity":"－",
"la":"38.64461000000",
"ln":"141.43899500000"
},
"geometry":{
"type":"Point",
"coordinates":[
141.438995,
38.64461
]
}
},
{
"type":"Feature",
"properties":{
"Name":"志津川小学校",
"Jusho":"宮城県本吉郡南三陸町志津川字城場41",
"Capacity":"－",
"la":"38.68275700000",
"ln":"141.44839700000"
},
"geometry":{
"type":"Point",
"coordinates":[
141.448397,
38.682757
]
}
},
{
"type":"Feature",
"properties":{
"Name":"入谷小学校",
"Jusho":"宮城県本吉郡南三陸町入谷字童子下193-2",
"Capacity":"－",
"la":"38.70460300000",
"ln":"141.41538300000"
},
"geometry":{
"type":"Point",
"coordinates":[
141.415383,
38.704603
]
}
},
{
"type":"Feature",
"properties":{
"Name":"名足小学校",
"Jusho":"宮城県本吉郡南三陸町歌津字中山34",
"Capacity":"－",
"la":"38.72195000000",
"ln":"141.55546700000"
},
"geometry":{
"type":"Point",
"coordinates":[
141.555467,
38.72195
]
}
},
{
"type":"Feature",
"properties":{
"Name":"大河原小学校",
"Jusho":"宮城県柴田郡大河原町字町100",
"Capacity":"1500",
"la":"38.05437499910",
"ln":"140.73603400000"
},
"geometry":{
"type":"Point",
"coordinates":[
140.736034,
38.0543749991
]
}
},
{
"type":"Feature",
"properties":{
"Name":"吉成中学校",
"Jusho":"宮城県仙台市青葉区吉成1－2－",
"Capacity":"6200",
"la":"38.28907700000",
"ln":"140.82490600000"
},
"geometry":{
"type":"Point",
"coordinates":[
140.824906,
38.289077
]
}
},
{
"type":"Feature",
"properties":{
"Name":"五橋中学校",
"Jusho":"宮城県仙台市青葉区五橋2-2－",
"Capacity":"3400",
"la":"38.25158300000",
"ln":"140.87934700000"
},
"geometry":{
"type":"Point",
"coordinates":[
140.879347,
38.251583
]
}
},
{
"type":"Feature",
"properties":{
"Name":"五城中学校",
"Jusho":"宮城県仙台市青葉区東照宮1-3－",
"Capacity":"2900",
"la":"38.27935800000",
"ln":"140.88212200000"
},
"geometry":{
"type":"Point",
"coordinates":[
140.882122,
38.279358
]
}
},
{
"type":"Feature",
"properties":{
"Name":"広瀬中学校",
"Jusho":"宮城県仙台市青葉区愛子中央1-9－",
"Capacity":"14000",
"la":"38.27310600000",
"ln":"140.76298400000"
},
"geometry":{
"type":"Point",
"coordinates":[
140.762984,
38.273106
]
}
},
{
"type":"Feature",
"properties":{
"Name":"広陵中学校",
"Jusho":"宮城県仙台市青葉区熊ヶ根字石積1-2",
"Capacity":"4300",
"la":"38.29935900000",
"ln":"140.68203200000"
},
"geometry":{
"type":"Point",
"coordinates":[
140.682032,
38.299359
]
}
},
{
"type":"Feature",
"properties":{
"Name":"桜丘中学校",
"Jusho":"宮城県仙台市青葉区桜ケ丘8-2－",
"Capacity":"10600",
"la":"38.30407600000",
"ln":"140.85212400000"
},
"geometry":{
"type":"Point",
"coordinates":[
140.852124,
38.304076
]
}
},
{
"type":"Feature",
"properties":{
"Name":"三条中学校",
"Jusho":"宮城県仙台市青葉区三条町3－",
"Capacity":"5000",
"la":"38.28019000000",
"ln":"140.85351500000"
},
"geometry":{
"type":"Point",
"coordinates":[
140.853515,
38.28019
]
}
},
{
"type":"Feature",
"properties":{
"Name":"上杉山中学校",
"Jusho":"宮城県仙台市青葉区上杉6-7－",
"Capacity":"5600",
"la":"38.27908000000",
"ln":"140.87351200000"
},
"geometry":{
"type":"Point",
"coordinates":[
140.873512,
38.27908
]
}
},
{
"type":"Feature",
"properties":{
"Name":"折立中学校",
"Jusho":"宮城県仙台市青葉区折立3－9－",
"Capacity":"6200",
"la":"38.26574700000",
"ln":"140.80657500000"
},
"geometry":{
"type":"Point",
"coordinates":[
140.806575,
38.265747
]
}
},
{
"type":"Feature",
"properties":{
"Name":"台原中学校",
"Jusho":"宮城県仙台市青葉区台原5－9－",
"Capacity":"6300",
"la":"38.28713600000",
"ln":"140.88045500000"
},
"geometry":{
"type":"Point",
"coordinates":[
140.880455,
38.287136
]
}
},
{
"type":"Feature",
"properties":{
"Name":"大沢中学校",
"Jusho":"宮城県仙台市青葉区赤坂1-2－",
"Capacity":"14000",
"la":"38.29185300000",
"ln":"140.75046700000"
},
"geometry":{
"type":"Point",
"coordinates":[
140.750467,
38.291853
]
}
},
{
"type":"Feature",
"properties":{
"Name":"第一中学校",
"Jusho":"宮城県仙台市青葉区八幡4－6－",
"Capacity":"4700",
"la":"38.27241300000",
"ln":"140.84601600000"
},
"geometry":{
"type":"Point",
"coordinates":[
140.846016,
38.272413
]
}
},
{
"type":"Feature",
"properties":{
"Name":"第二中学校",
"Jusho":"宮城県仙台市青葉区木町通2-4－",
"Capacity":"3800",
"la":"38.27352500000",
"ln":"140.86434700000"
},
"geometry":{
"type":"Point",
"coordinates":[
140.864347,
38.273525
]
}
},
{
"type":"Feature",
"properties":{
"Name":"中山中学校",
"Jusho":"宮城県仙台市青葉区中山6－6－",
"Capacity":"5600",
"la":"38.29629900000",
"ln":"140.83907100000"
},
"geometry":{
"type":"Point",
"coordinates":[
140.839071,
38.296299
]
}
},
{
"type":"Feature",
"properties":{
"Name":"南吉成中学校",
"Jusho":"宮城県仙台市青葉区南吉成5－8-2",
"Capacity":"6800",
"la":"38.29185400000",
"ln":"140.81240700000"
},
"geometry":{
"type":"Point",
"coordinates":[
140.812407,
38.291854
]
}
},
{
"type":"Feature",
"properties":{
"Name":"北仙台中学校",
"Jusho":"宮城県仙台市青葉区東勝山2-31－",
"Capacity":"7200",
"la":"38.29324500000",
"ln":"140.86406800000"
},
"geometry":{
"type":"Point",
"coordinates":[
140.864068,
38.293245
]
}
},
{
"type":"Feature",
"properties":{
"Name":"岩切中学校",
"Jusho":"宮城県仙台市宮城野区岩切字三所南23-2",
"Capacity":"4300",
"la":"38.30158000000",
"ln":"140.94544800000"
},
"geometry":{
"type":"Point",
"coordinates":[
140.945448,
38.30158
]
}
},
{
"type":"Feature",
"properties":{
"Name":"宮城野中学校",
"Jusho":"宮城県仙台市宮城野区五輪1-4-25",
"Capacity":"3400",
"la":"38.26213900000",
"ln":"140.89989900000"
},
"geometry":{
"type":"Point",
"coordinates":[
140.899899,
38.262139
]
}
},
{
"type":"Feature",
"properties":{
"Name":"幸町中学校",
"Jusho":"宮城県仙台市宮城野区幸町1－5－",
"Capacity":"5500",
"la":"38.27769200000",
"ln":"140.89351000000"
},