var o={
"type": "FeatureCollection",
"features": [
{
"type": "Feature",
"properties": {
"Name": "木田公民館",
"Jusho": "福井県福井市木田1丁目1401",
"Capacity": "－",
"la": "36.04902225470",
"ln": "136.22213632400"
},
"geometry": {
"type": "Point",
"coordinates": [
136.222136324,
36.0490222547
]
}
},
{
"type": "Feature",
"properties": {
"Name": "羽水高等学校",
"Jusho": "福井県福井市羽水1丁目302",
"Capacity": "－",
"la": "36.04213600000",
"ln": "136.22898600000"
},
"geometry": {
"type": "Point",
"coordinates": [
136.228986,
36.042136
]
}
},
{
"type": "Feature",
"properties": {
"Name": "木田保育園",
"Jusho": "福井県福井市木田1丁目1406",
"Capacity": "－",
"la": "36.04827400000",
"ln": "136.22220800000"
},
"geometry": {
"type": "Point",
"coordinates": [
136.222208,
36.048274
]
}
},
{
"type": "Feature",
"properties": {
"Name": "南部保育園",
"Jusho": "福井県福井市西木田1丁目16-20",
"Capacity": "－",
"la": "36.05502300000",
"ln": "136.21626400000"
},
"geometry": {
"type": "Point",
"coordinates": [
136.216264,
36.055023
]
}
},
{
"type": "Feature",
"properties": {
"Name": "ジュニアグラウンド",
"Jusho": "福井県福井市板垣5丁目803",
"Capacity": "－",
"la": "36.04362833320",
"ln": "136.22975939300"
},
"geometry": {
"type": "Point",
"coordinates": [
136.229759393,
36.0436283332
]
}
},
{
"type": "Feature",
"properties": {
"Name": "豊公民館",
"Jusho": "福井県福井市みのり3丁目106-8",
"Capacity": "－",
"la": "36.05077400000",
"ln": "136.20806500000"
},
"geometry": {
"type": "Point",
"coordinates": [
136.208065,
36.050774
]
}
},
{
"type": "Feature",
"properties": {
"Name": "花堂保育園",
"Jusho": "福井県福井市花堂北2丁目23-25",
"Capacity": "－",
"la": "36.04002500000",
"ln": "136.21062600000"
},
"geometry": {
"type": "Point",
"coordinates": [
136.210626,
36.040025
]
}
},
{
"type": "Feature",
"properties": {
"Name": "おさごえ民家園",
"Jusho": "福井県福井市月見5丁目4-48",
"Capacity": "－",
"la": "36.04630100000",
"ln": "136.19963400000"
},
"geometry": {
"type": "Point",
"coordinates": [
136.199634,
36.046301
]
}
},
{
"type": "Feature",
"properties": {
"Name": "足羽山カルチャーパーク",
"Jusho": "福井県福井市月見5丁目4",
"Capacity": "－",
"la": "36.04585215470",
"ln": "136.20101042000"
},
"geometry": {
"type": "Point",
"coordinates": [
136.20101042,
36.0458521547
]
}
},
{
"type": "Feature",
"properties": {
"Name": "兎越山墓地",
"Jusho": "福井県福井市山奥町57字11",
"Capacity": "－",
"la": "36.04996000000",
"ln": "136.20008000000"
},
"geometry": {
"type": "Point",
"coordinates": [
136.20008,
36.04996
]
}
},
{
"type": "Feature",
"properties": {
"Name": "足羽公民館",
"Jusho": "福井県福井市足羽2丁目12-31",
"Capacity": "－",
"la": "36.05992300000",
"ln": "136.20406500000"
},
"geometry": {
"type": "Point",
"coordinates": [
136.204065,
36.059923
]
}
},
{
"type": "Feature",
"properties": {
"Name": "ひよこ広場（地域子育て支援センター）",
"Jusho": "福井県福井市明里町9-1",
"Capacity": "－",
"la": "36.06000300000",
"ln": "136.19813200000"
},
"geometry": {
"type": "Point",
"coordinates": [
136.198132,
36.060003
]
}
},
{
"type": "Feature",
"properties": {
"Name": "福井競輪場",
"Jusho": "福井県福井市明里町2-65",
"Capacity": "－",
"la": "36.06066000000",
"ln": "136.19891700000"
},
"geometry": {
"type": "Point",
"coordinates": [
136.198917,
36.06066
]
}
},
{
"type": "Feature",
"properties": {
"Name": "自然史博物館",
"Jusho": "福井県福井市足羽上町147",
"Capacity": "－",
"la": "36.05660600000",
"ln": "136.20940300000"
},
"geometry": {
"type": "Point",
"coordinates": [
136.209403,
36.056606
]
}
},
{
"type": "Feature",
"properties": {
"Name": "足羽保育園",
"Jusho": "福井県福井市足羽1丁目15-25",
"Capacity": "－",
"la": "36.06096700000",
"ln": "136.20809700000"
},
"geometry": {
"type": "Point",
"coordinates": [
136.208097,
36.060967
]
}
},
{
"type": "Feature",
"properties": {
"Name": "足羽川緑地",
"Jusho": "福井県福井市明里町地先他",
"Capacity": "－",
"la": "36.05669600000",
"ln": "136.21753600000"
},
"geometry": {
"type": "Point",
"coordinates": [
136.217536,
36.056696
]
}
},
{
"type": "Feature",
"properties": {
"Name": "東安居公民館",
"Jusho": "福井県福井市飯塚町6-18",
"Capacity": "－",
"la": "36.06622900000",
"ln": "136.18655100000"
},
"geometry": {
"type": "Point",
"coordinates": [
136.186551,
36.066229
]
}
},
{
"type": "Feature",
"properties": {
"Name": "湊公民館",
"Jusho": "福井県福井市学園1丁目4-8",
"Capacity": "－",
"la": "36.06879810520",
"ln": "136.20231891900"
},
"geometry": {
"type": "Point",
"coordinates": [
136.202318919,
36.0687981052
]
}
},
{
"type": "Feature",
"properties": {
"Name": "湊保育園",
"Jusho": "福井県福井市光陽1丁目9-8",
"Capacity": "－",
"la": "36.06752100000",
"ln": "136.20365400000"
},
"geometry": {
"type": "Point",
"coordinates": [
136.203654,
36.067521
]
}
},
{
"type": "Feature",
"properties": {
"Name": "西部保育園",
"Jusho": "福井県福井市花月2丁目10-10",
"Capacity": "－",
"la": "36.06927100000",
"ln": "136.20876400000"
},
"geometry": {
"type": "Point",
"coordinates": [
136.208764,
36.069271
]
}
},
{
"type": "Feature",
"properties": {
"Name": "社会福祉センター",
"Jusho": "福井県福井市光陽2丁目3-22",
"Capacity": "－",
"la": "36.06743000000",
"ln": "136.19811300000"
},
"geometry": {
"type": "Point",
"coordinates": [
136.198113,
36.06743
]
}
},
{
"type": "Feature",
"properties": {
"Name": "研修センター",
"Jusho": "福井県福井市文京6丁目8-18",
"Capacity": "－",
"la": "36.07418499910",
"ln": "136.19762700000"
},
"geometry": {
"type": "Point",
"coordinates": [
136.197627,
36.0741849991
]
}
},
{
"type": "Feature",
"properties": {
"Name": "春山公民館",
"Jusho": "福井県福井市文京3丁目11-12",
"Capacity": "－",
"la": "36.07791800000",
"ln": "136.21173600000"
},
"geometry": {
"type": "Point",
"coordinates": [
136.211736,
36.077918
]
}
},
{
"type": "Feature",
"properties": {
"Name": "藤島高等学校",
"Jusho": "福井県福井市文京2丁目8-30",
"Capacity": "－",
"la": "36.07921400000",
"ln": "136.21681900000"
},
"geometry": {
"type": "Point",
"coordinates": [
136.216819,
36.079214
]
}
},
{
"type": "Feature",
"properties": {
"Name": "福井大学",
"Jusho": "福井県福井市文京3丁目9-1",
"Capacity": "－",
"la": "36.07561400000",
"ln": "136.21139600000"
},
"geometry": {
"type": "Point",
"coordinates": [
136.211396,
36.075614
]
}
},
{
"type": "Feature",
"properties": {
"Name": "春山保育園",
"Jusho": "福井県福井市田原2丁目11-3",
"Capacity": "－",
"la": "36.07166000000",
"ln": "136.21537500000"
},
"geometry": {
"type": "Point",
"coordinates": [
136.215375,
36.07166
]
}
},
{
"type": "Feature",
"properties": {
"Name": "牧島保育園",
"Jusho": "福井県福井市文京3丁目26-23",
"Capacity": "－",
"la": "36.07985300000",
"ln": "136.21073700000"
},
"geometry": {
"type": "Point",
"coordinates": [
136.210737,
36.079853
]
}
},
{
"type": "Feature",
"properties": {
"Name": "文化会館",
"Jusho": "福井県福井市春山2丁目7-1",
"Capacity": "－",
"la": "36.06871900000",
"ln": "136.21288600000"
},
"geometry": {
"type": "Point",
"coordinates": [
136.212886,
36.068719
]
}
},
{
"type": "Feature",
"properties": {
"Name": "市民福祉会館",
"Jusho": "福井県福井市春山2丁目7-15",
"Capacity": "－",
"la": "36.06908800000",
"ln": "136.21271700000"
},
"geometry": {
"type": "Point",
"coordinates": [
136.212717,
36.069088
]
}
},
{
"type": "Feature",
"properties": {
"Name": "フェニックス・プラザ",
"Jusho": "福井県福井市田原1丁目13-6",
"Capacity": "－",
"la": "36.07429300000",
"ln": "136.21721600000"
},
"geometry": {
"type": "Point",
"coordinates": [
136.217216,
36.074293
]
}
},
{
"type": "Feature",
"properties": {
"Name": "順化公民館",
"Jusho": "福井県福井市大手3丁目11-1",
"Capacity": "－",
"la": "36.06438100000",
"ln": "136.21990800000"
},
"geometry": {
"type": "Point",
"coordinates": [
136.219908,
36.064381
]
}
},
{
"type": "Feature",
"properties": {
"Name": "市役所",
"Jusho": "福井県福井市大手3丁目10-1",
"Capacity": "－",
"la": "36.06411999910",
"ln": "136.21945200000"
},
"geometry": {
"type": "Point",
"coordinates": [
136.219452,
36.0641199991
]
}
},
{
"type": "Feature",
"properties": {
"Name": "福井県青年会館",
"Jusho": "福井県福井市大手3丁目11-17",
"Capacity": "－",
"la": "36.06556000000",
"ln": "136.21937600000"
},
"geometry": {
"type": "Point",
"coordinates": [
136.219376,
36.06556
]
}
},
{
"type": "Feature",
"properties": {
"Name": "福井県電気ビル",
"Jusho": "福井県福井市大手2丁目9-10",
"Capacity": "－",
"la": "36.06386700000",
"ln": "136.22283300000"
},
"geometry": {
"type": "Point",
"coordinates": [
136.222833,
36.063867
]
}
},
{
"type": "Feature",
"properties": {
"Name": "御本丸緑地",
"Jusho": "福井県福井市大手3丁目17",
"Capacity": "－",
"la": "36.06410800000",
"ln": "136.22271000000"
},
"geometry": {
"type": "Point",
"coordinates": [
136.22271,
36.064108
]
}
},
{
"type": "Feature",
"properties": {
"Name": "照手緑地",
"Jusho": "福井県福井市順化2丁目16",
"Capacity": "－",
"la": "36.06527800000",
"ln": "136.21238700000"
},
"geometry": {
"type": "Point",
"coordinates": [
136.212387,
36.065278
]
}
},
{
"type": "Feature",
"properties": {
"Name": "宝永公民館",
"Jusho": "福井県福井市松本4丁目8-4",
"Capacity": "－",
"la": "36.07240699910",
"ln": "136.22024100000"
},
"geometry": {
"type": "Point",
"coordinates": [
136.220241,
36.0724069991
]
}
},
{
"type": "Feature",
"properties": {
"Name": "県職員会館",
"Jusho": "福井県福井市松本3丁目16-10",
"Capacity": "－",
"la": "36.07313300000",
"ln": "136.22400800000"
},
"geometry": {
"type": "Point",
"coordinates": [
136.224008,
36.073133
]
}
},
{
"type": "Feature",
"properties": {
"Name": "福井県合同庁舎",
"Jusho": "福井県福井市松本3丁目16-10",
"Capacity": "－",
"la": "36.07320000000",
"ln": "136.22400200000"
},
"geometry": {
"type": "Point",
"coordinates": [
136.224002,
36.0732
]
}
},
{
"type": "Feature",
"properties": {
"Name": "仁愛女子高等学校",
"Jusho": "福井県福井市宝永4丁目9-24",
"Capacity": "－",
"la": "36.06794170120",
"ln": "136.21887350200"
},
"geometry": {
"type": "Point",
"coordinates": [
136.218873502,
36.0679417012
]
}
},
{
"type": "Feature",
"properties": {
"Name": "松本公民館",
"Jusho": "福井県福井市文京1丁目29-1",
"Capacity": "－",
"la": "36.07798500000",
"ln": "136.22492900000"
},
"geometry": {
"type": "Point",
"coordinates": [
136.224929,
36.077985
]
}
},
{
"type": "Feature",
"properties": {
"Name": "北部保育園",
"Jusho": "福井県福井市松本2丁目7-26",
"Capacity": "－",
"la": "36.07196600000",
"ln": "136.22842900000"
},
"geometry": {
"type": "Point",
"coordinates": [
136.228429,
36.071966
]
}
},
{
"type": "Feature",
"properties": {
"Name": "松本保育園",
"Jusho": "福井県福井市幾久町7-17",
"Capacity": "－",
"la": "36.08132600000",
"ln": "136.22626200000"
},
"geometry": {
"type": "Point",
"coordinates": [
136.226262,
36.081326
]
}
},
{
"type": "Feature",
"properties": {
"Name": "北陸高等学校",
"Jusho": "福井県福井市文京1丁目8-1",
"Capacity": "－",
"la": "36.07596500000",
"ln": "136.22001300000"
},
"geometry": {
"type": "Point",
"coordinates": [
136.220013,
36.075965
]
}
},
{
"type": "Feature",
"properties": {
"Name": "幾久緑地",
"Jusho": "福井県福井市大宮1丁目12",
"Capacity": "－",
"la": "36.08409500000",
"ln": "136.22639900000"
},
"geometry": {
"type": "Point",
"coordinates": [
136.226399,
36.084095
]
}
},
{
"type": "Feature",
"properties": {
"Name": "日之出公民館",
"Jusho": "福井県福井市四ツ井1丁目7-24",
"Capacity": "－",
"la": "36.06630099910",
"ln": "136.23567600000"
},
"geometry": {
"type": "Point",
"coordinates": [
136.235676,
36.0663009991
]
}
},
{
"type": "Feature",
"properties": {
"Name": "日之出保育園",
"Jusho": "福井県福井市日之出5丁目14-1",
"Capacity": "－",
"la": "36.06596699910",
"ln": "136.23404000000"
},
"geometry": {
"type": "Point",
"coordinates": [
136.23404,
36.0659669991
]
}
},
{
"type": "Feature",
"properties": {
"Name": "旭公民館",
"Jusho": "福井県福井市手寄2丁目1-1",
"Capacity": "－",
"la": "36.06086799910",
"ln": "136.22606800000"
},
"geometry": {
"type": "Point",
"coordinates": [
136.226068,
36.0608679991
]
}
},
{
"type": "Feature",
"properties": {
"Name": "高志高等学校",
"Jusho": "福井県福井市御幸2丁目25-8",
"Capacity": "－",
"la": "36.05927300000",
"ln": "136.23265100000"
},
"geometry": {
"type": "Point",
"coordinates": [
136.232651,
36.059273
]
}
},
{
"type": "Feature",
"properties": {
"Name": "御幸保育園",
"Jusho": "福井県福井市御幸2丁目7-29",
"Capacity": "－",
"la": "36.05716200000",
"ln": "136.23051200000"
},
"geometry": {
"type": "Point",
"coordinates": [
136.230512,
36.057162
]
}
},
{
"type": "Feature",
"properties": {
"Name": "東部保育園",
"Jusho": "福井県福井市手寄2丁目2-27",
"Capacity": "－",
"la": "36.05907900000",
"ln": "136.22751300000"
},
"geometry": {
"type": "Point",
"coordinates": [
136.227513,
36.059079
]
}
},
{
"type": "Feature",
"properties": {
"Name": "旭緑地",
"Jusho": "福井県福井市手寄2丁目",
"Capacity": "－",
"la": "36.05810501160",
"ln": "136.22660177600"
},
"geometry": {
"type": "Point",
"coordinates": [
136.226601776,
36.0581050116
]
}
},
{
"type": "Feature",
"properties": {
"Name": "和田公民館",
"Jusho": "福井県福井市和田東1丁目1504",
"Capacity": "－",
"la": "36.05223100000",
"ln": "136.24546500000"
},
"geometry": {
"type": "Point",
"coordinates": [
136.245465,
36.052231
]
}
},
{
"type": "Feature",
"properties": {
"Name": "上北野保育園",
"Jusho": "福井県福井市上北野1丁目22-46",
"Capacity": "－",
"la": "36.06205100000",
"ln": "136.25026100000"
},
"geometry": {
"type": "Point",
"coordinates": [
136.250261,
36.062051
]
}
},
{
"type": "Feature",
"properties": {
"Name": "ぱんだルーム（地域子育て支援センター）",
"Jusho": "福井県福井市勝見3丁目19-1",
"Capacity": "－",
"la": "36.05379000000",
"ln": "136.23320700000"
},
"geometry": {
"type": "Point",
"coordinates": [
136.233207,
36.05379
]
}
},
{
"type": "Feature",
"properties": {
"Name": "防災センター",
"Jusho": "福井県福井市和田東2丁目2207",
"Capacity": "－",
"la": "36.04744400000",
"ln": "136.25025400000"
},
"geometry": {
"type": "Point",
"coordinates": [
136.250254,
36.047444
]
}
},
{
"type": "Feature",
"properties": {
"Name": "円山公民館",
"Jusho": "福井県福井市北今泉町7-12",
"Capacity": "－",
"la": "36.06915700000",
"ln": "136.25392700000"
},
"geometry": {
"type": "Point",
"coordinates": [
136.253927,
36.069157
]
}
},
{
"type": "Feature",
"properties": {
"Name": "円山保育園",
"Jusho": "福井県福井市南四ツ居町3-5",
"Capacity": "－",
"la": "36.06949500000",
"ln": "136.25076100000"
},
"geometry": {
"type": "Point",
"coordinates": [
136.250761,
36.069495
]
}
},
{
"type": "Feature",
"properties": {
"Name": "啓蒙公民館",
"Jusho": "福井県福井市開発1丁目2105",
"Capacity": "－",
"la": "36.07794700000",
"ln": "136.24433800000"
},
"geometry": {
"type": "Point",
"coordinates": [
136.244338,
36.077947
]
}
},
{
"type": "Feature",
"properties": {
"Name": "福井農林高等学校",
"Jusho": "福井県福井市新保町49-1",
"Capacity": "－",
"la": "36.07885500000",
"ln": "136.25323300000"
},
"geometry": {
"type": "Point",
"coordinates": [
136.253233,
36.078855
]
}
},
{
"type": "Feature",
"properties": {
"Name": "啓蒙保育園",
"Jusho": "福井県福井市開発1丁目1910",
"Capacity": "－",
"la": "36.07729900000",
"ln": "136.24373400000"
},
"geometry": {
"type": "Point",
"coordinates": [
136.243734,
36.077299
]
}
},
{
"type": "Feature",
"properties": {
"Name": "西藤島公民館",
"Jusho": "福井県福井市三郎丸1丁目1411",
"Capacity": "－",
"la": "36.07965200000",
"ln": "136.19379800000"
},
"geometry": {
"type": "Point",
"coordinates": [
136.193798,
36.079652
]
}
},
{
"type": "Feature",
"properties": {
"Name": "西藤島保育園",
"Jusho": "福井県福井市三郎丸1丁目1414",
"Capacity": "－",
"la": "36.07952000000",
"ln": "136.19390600000"
},
"geometry": {
"type": "Point",
"coordinates": [
136.193906,
36.07952
]
}
},
{
"type": "Feature",
"properties": {
"Name": "県立武道館",
"Jusho": "福井県福井市三ツ屋町8-1-1",
"Capacity": "－",
"la": "36.08489800000",
"ln": "136.19453600000"
},
"geometry": {
"type": "Point",
"coordinates": [
136.194536,
36.084898
]
}
},
{
"type": "Feature",
"properties": {
"Name": "防災ステーション",
"Jusho": "福井県福井市土橋町3-80-1",
"Capacity": "－",
"la": "36.10181200000",
"ln": "136.18595400000"
},
"geometry": {
"type": "Point",
"coordinates": [
136.185954,
36.101812
]
}
},
{
"type": "Feature",
"properties": {
"Name": "社北公民館",
"Jusho": "福井県福井市若杉4丁目308",
"Capacity": "－",
"la": "36.05832000000",
"ln": "136.18633400000"
},
"geometry": {
"type": "Point",
"coordinates": [
136.186334,
36.05832
]
}
},
{
"type": "Feature",
"properties": {
"Name": "道守高等学校",
"Jusho": "福井県福井市若杉町35-21",
"Capacity": "－",
"la": "36.05602200000",
"ln": "136.17948900000"
},
"geometry": {
"type": "Point",
"coordinates": [
136.179489,
36.056022
]
}
},
{
"type": "Feature",
"properties": {
"Name": "西部緑道",
"Jusho": "福井県福井市若杉3丁目3",
"Capacity": "－",
"la": "36.05237700000",
"ln": "136.19110700000"
},
"geometry": {
"type": "Point",
"coordinates": [
136.191107,
36.052377
]
}
},
{
"type": "Feature",
"properties": {
"Name": "社南公民館",
"Jusho": "福井県福井市種池2丁目206",
"Capacity": "－",
"la": "36.03713100000",
"ln": "136.19051100000"
},
"geometry": {
"type": "Point",
"coordinates": [
136.190511,
36.037131
]
}
},
{
"type": "Feature",
"properties": {
"Name": "社保育園",
"Jusho": "福井県福井市種池1丁目811",
"Capacity": "－",
"la": "36.03516985800",
"ln": "136.19154569800"
},
"geometry": {
"type": "Point",
"coordinates": [
136.191545698,
36.035169858
]
}
},
{
"type": "Feature",
"properties": {
"Name": "南居保育園",
"Jusho": "福井県福井市南居町93-3",
"Capacity": "－",
"la": "36.01756100000",
"ln": "136.17445300000"
},
"geometry": {
"type": "Point",
"coordinates": [
136.174453,
36.017561
]
}
},
{
"type": "Feature",
"properties": {
"Name": "治水記念館",
"Jusho": "福井県福井市種池町2丁目305",
"Capacity": "－",
"la": "36.03745009920",
"ln": "136.19052951300"
},
"geometry": {
"type": "Point",
"coordinates": [
136.190529513,
36.0374500992
]
}
},
{
"type": "Feature",
"properties": {
"Name": "収集資源センター",
"Jusho": "福井県福井市南江守町2-1",
"Capacity": "－",
"la": "36.03184100000",
"ln": "136.19866300000"
},
"geometry": {
"type": "Point",
"coordinates": [
136.198663,
36.031841
]
}
},
{
"type": "Feature",
"properties": {
"Name": "安居公民館",
"Jusho": "福井県福井市本堂町7-4",
"Capacity": "－",
"la": "36.05954400000",
"ln": "136.13560300000"
},
"geometry": {
"type": "Point",
"coordinates": [
136.135603,
36.059544
]
}
},
{
"type": "Feature",
"properties": {
"Name": "西安居保育園",
"Jusho": "福井県福井市本堂町8-31-1",
"Capacity": "－",
"la": "36.05982700000",
"ln": "136.13507800000"
},
"geometry": {
"type": "Point",
"coordinates": [
136.135078,
36.059827
]
}
},
{
"type": "Feature",
"properties": {
"Name": "中藤島公民館",
"Jusho": "福井県福井市高木北2丁目1001",
"Capacity": "－",
"la": "36.09939100000",
"ln": "136.23181300000"
},
"geometry": {
"type": "Point",
"coordinates": [
136.231813,
36.099391
]
}
},
{
"type": "Feature",
"properties": {
"Name": "一光公民館",
"Jusho": "福井県福井市下一光町6-5",
"Capacity": "－",
"la": "36.06255600000",
"ln": "136.06840600000"
},
"geometry": {
"type": "Point",
"coordinates": [
136.068406,
36.062556
]
}
},
{
"type": "Feature",
"properties": {
"Name": "大安寺公民館",
"Jusho": "福井県福井市四十谷町5-20-1",
"Capacity": "－",
"la": "36.10773900000",
"ln": "136.17514800000"
},
"geometry": {
"type": "Point",
"coordinates": [
136.175148,
36.107739
]
}
},
{
"type": "Feature",
"properties": {
"Name": "すかっとランド九頭竜",
"Jusho": "福井県福井市天菅生町3-10",
"Capacity": "－",
"la": "36.12472800000",
"ln": "136.16915700000"
},
"geometry": {
"type": "Point",
"coordinates": [
136.169157,
36.124728
]
}
},
{
"type": "Feature",
"properties": {
"Name": "河合公民館",
"Jusho": "福井県福井市川合鷲塚町9-18",
"Capacity": "－",
"la": "36.11750200000",
"ln": "136.20010800000"
},
"geometry": {
"type": "Point",
"coordinates": [
136.200108,
36.117502
]
}
},
{
"type": "Feature",
"properties": {
"Name": "河合保育園",
"Jusho": "福井県福井市山室町10-7",
"Capacity": "－",
"la": "36.11876500000",
"ln": "136.19298900000"
},
"geometry": {
"type": "Point",
"coordinates": [
136.192989,
36.118765
]
}
},
{
"type": "Feature",
"properties": {
"Name": "県工業技術センター",
"Jusho": "福井県福井市川合鷲塚町61-10",
"Capacity": "－",
"la": "36.12057200000",
"ln": "136.21749400000"
},
"geometry": {
"type": "Point",
"coordinates": [
136.217494,
36.120572
]
}
},
{
"type": "Feature",
"properties": {
"Name": "麻生津公民館",
"Jusho": "福井県福井市浅水三ヶ町1-93",
"Capacity": "－",
"la": "36.00249400000",
"ln": "136.20098200000"
},
"geometry": {
"type": "Point",
"coordinates": [
136.200982,
36.002494
]
}
},
{
"type": "Feature",
"properties": {
"Name": "麻生津西保育園",
"Jusho": "福井県福井市中野町13-10",
"Capacity": "－",
"la": "36.00533769910",
"ln": "136.19205678800"
},
"geometry": {
"type": "Point",
"coordinates": [
136.192056788,
36.0053376991
]
}
},
{
"type": "Feature",
"properties": {
"Name": "麻生津保育園",
"Jusho": "福井県福井市浅水二日町131下河原18",
"Capacity": "－",
"la": "36.00169189420",
"ln": "136.19691653300"
},
"geometry": {
"type": "Point",
"coordinates": [
136.196916533,
36.0016918942
]
}
},
{
"type": "Feature",
"properties": {
"Name": "国見公民館",
"Jusho": "福井県福井市鮎川町195-7",
"Capacity": "－",
"la": "36.08931500000",
"ln": "136.03104800000"
},
"geometry": {
"type": "Point",
"coordinates": [
136.031048,
36.089315
]
}
},
{
"type": "Feature",
"properties": {
"Name": "岡保公民館",
"Jusho": "福井県福井市河水町10-13",
"Capacity": "－",
"la": "36.05178400000",
"ln": "136.27178500000"
},
"geometry": {
"type": "Point",
"coordinates": [
136.271785,
36.051784
]
}
},
{
"type": "Feature",
"properties": {
"Name": "福井県自治研修所",
"Jusho": "福井県福井市大畑町97-21-3",
"Capacity": "－",
"la": "36.04789000000",
"ln": "136.28286100000"
},
"geometry": {
"type": "Point",
"coordinates": [
136.282861,
36.04789
]
}
},
{
"type": "Feature",
"properties": {
"Name": "東藤島公民館",
"Jusho": "福井県福井市藤島町48-1-1",
"Capacity": "－",
"la": "36.08745713080",
"ln": "136.26976493000"
},
"geometry": {
"type": "Point",
"coordinates": [
136.26976493,
36.0874571308
]
}
},
{
"type": "Feature",
"properties": {
"Name": "東藤島保育園",
"Jusho": "福井県福井市藤島町46-13-1",
"Capacity": "－",
"la": "36.08635600000",
"ln": "136.27148100000"
},
"geometry": {
"type": "Point",
"coordinates": [
136.271481,
36.086356
]
}
},
{
"type": "Feature",
"properties": {
"Name": "県産業技術専門学院",
"Jusho": "福井県福井市林藤島町20-1-3",
"Capacity": "－",
"la": "36.08868500000",
"ln": "136.25652700000"
},
"geometry": {
"type": "Point",
"coordinates": [
136.256527,
36.088685
]
}
},
{
"type": "Feature",
"properties": {
"Name": "中央卸売市場内北側グラウンド",
"Jusho": "福井県福井市大和田町1-1",
"Capacity": "－",
"la": "36.09214100000",
"ln": "136.24743800000"
},
"geometry": {
"type": "Point",
"coordinates": [
136.247438,
36.092141
]
}
},
{
"type": "Feature",
"properties": {
"Name": "中央卸売場内南側駐車場",
"Jusho": "福井県福井市大和田町1-1",
"Capacity": "－",
"la": "36.09015400000",
"ln": "136.24679700000"
},
"geometry": {
"type": "Point",
"coordinates": [
136.246797,
36.090154
]
}
},
{
"type": "Feature",
"properties": {
"Name": "殿下公民館",
"Jusho": "福井県福井市風尾町1-13",
"Capacity": "－",
"la": "36.03894700000",
"ln": "136.04630800000"
},
"geometry": {
"type": "Point",
"coordinates": [
136.046308,
36.038947
]
}
},
{
"type": "Feature",
"properties": {
"Name": "宮ノ下公民館",
"Jusho": "福井県福井市仙町6-2",
"Capacity": "－",
"la": "36.12877300000",
"ln": "136.16460800000"
},
"geometry": {
"type": "Point",
"coordinates": [
136.164608,
36.128773
]
}
},
{
"type": "Feature",
"properties": {
"Name": "鶉幼稚園東部分園",
"Jusho": "福井県福井市仙町6-4",
"Capacity": "－",
"la": "36.12881800000",
"ln": "136.16443600000"
},
"geometry": {
"type": "Point",
"coordinates": [
136.164436,
36.128818
]
}
},
{
"type": "Feature",
"properties": {
"Name": "川西コミュニティセンター",
"Jusho": "福井県福井市砂子坂町5-58",
"Capacity": "－",
"la": "36.14359199910",
"ln": "136.14721000000"
},
"geometry": {
"type": "Point",
"coordinates": [
136.14721,
36.1435919991
]
}
},
{
"type": "Feature",
"properties": {
"Name": "鶉保育園",
"Jusho": "福井県福井市砂子坂町6-20",
"Capacity": "－",
"la": "36.14341501300",
"ln": "136.14600811600"
},
"geometry": {
"type": "Point",
"coordinates": [
136.146008116,
36.143415013
]
}
},
{
"type": "Feature",
"properties": {
"Name": "本郷公民館",
"Jusho": "福井県福井市荒谷町19-55",
"Capacity": "－",
"la": "36.11662900000",
"ln": "136.14090500000"
},
"geometry": {
"type": "Point",
"coordinates": [
136.140905,
36.116629
]
}
},
{
"type": "Feature",
"properties": {
"Name": "本郷保育園",
"Jusho": "福井県福井市大年町1-56",
"Capacity": "－",
"la": "36.11664200000",
"ln": "136.14134600000"
},
"geometry": {
"type": "Point",
"coordinates": [
136.141346,
36.116642
]
}
},
{
"type": "Feature",
"properties": {
"Name": "棗公民館",
"Jusho": "福井県福井市石橋町4-14",
"Capacity": "－",
"la": "36.14567700000",
"ln": "136.10735700000"
},
"geometry": {
"type": "Point",
"coordinates": [
136.107357,
36.145677
]
}
},
{
"type": "Feature",
"properties": {
"Name": "棗保育園",
"Jusho": "福井県福井市石新保町13-17",
"Capacity": "－",
"la": "36.14531500000",
"ln": "136.10824600000"
},
"geometry": {
"type": "Point",
"coordinates": [
136.108246,
36.145315
]
}
},
{
"type": "Feature",
"properties": {
"Name": "鷹巣公民館",
"Jusho": "福井県福井市蓑町16-2-1",
"Capacity": "－",
"la": "36.12678500000",
"ln": "136.06221900000"
},
"geometry": {
"type": "Point",
"coordinates": [
136.062219,
36.126785
]
}
},
{
"type": "Feature",
"properties": {
"Name": "国民宿舎鷹巣荘",
"Jusho": "福井県福井市蓑町3-11-1",
"Capacity": "－",
"la": "36.12872600000",
"ln": "136.05783600000"
},
"geometry": {
"type": "Point",
"coordinates": [
136.057836,
36.128726
]
}
},
{
"type": "Feature",
"properties": {
"Name": "森田公民館",
"Jusho": "福井県福井市下森田藤巻町2",
"Capacity": "－",
"la": "36.10942800000",
"ln": "136.22657300000"
},
"geometry": {
"type": "Point",
"coordinates": [
136.226573,
36.109428
]
}
},
{
"type": "Feature",
"properties": {
"Name": "森田東保育園",
"Jusho": "福井県福井市上森田4丁目302",
"Capacity": "－",
"la": "36.11321100000",
"ln": "136.23523400000"
},
"geometry": {
"type": "Point",
"coordinates": [
136.235234,
36.113211
]
}
},
{
"type": "Feature",
"properties": {
"Name": "森田浜保育園",
"Jusho": "福井県福井市栗森町浜603",
"Capacity": "－",
"la": "36.11451700000",
"ln": "136.24153900000"
},
"geometry": {
"type": "Point",
"coordinates": [
136.241539,
36.114517
]
}
},
{
"type": "Feature",
"properties": {
"Name": "森田栄保育園",
"Jusho": "福井県福井市栄町2-22",
"Capacity": "－",
"la": "36.10771200000",
"ln": "136.22309700000"
},
"geometry": {
"type": "Point",
"coordinates": [
136.223097,
36.107712
]
}
},
{
"type": "Feature",
"properties": {
"Name": "仁愛女子短期大学",
"Jusho": "福井県福井市天池町43-1-1",
"Capacity": "－",
"la": "36.10337900000",
"ln": "136.21754200000"
},
"geometry": {
"type": "Point",
"coordinates": [
136.217542,
36.103379
]
}
},
{
"type": "Feature",
"properties": {
"Name": "九頭竜川緑地",
"Jusho": "福井県福井市天池町地先他",
"Capacity": "－",
"la": "36.10300600000",
"ln": "136.22744100000"
},
"geometry": {
"type": "Point",
"coordinates": [
136.227441,
36.103006
]
}
},
{
"type": "Feature",
"properties": {
"Name": "定正緑地",
"Jusho": "福井県福井市定正町他2",
"Capacity": "－",
"la": "36.11838500000",
"ln": "136.21976700000"
},
"geometry": {
"type": "Point",
"coordinates": [
136.219767,
36.118385
]
}
},
{
"type": "Feature",
"properties": {
"Name": "明新公民館",
"Jusho": "福井県福井市灯明寺町35-1-1",
"Capacity": "－",
"la": "36.08929600000",
"ln": "136.21439700000"
},
"geometry": {
"type": "Point",
"coordinates": [
136.214397,
36.089296
]
}
},
{
"type": "Feature",
"properties": {
"Name": "酒生公民館",
"Jusho": "福井県福井市荒木新保町37-9",
"Capacity": "－",
"la": "36.03366900000",
"ln": "136.27164200000"
},
"geometry": {
"type": "Point",
"coordinates": [
136.271642,
36.033669
]
}
},
{
"type": "Feature",
"properties": {
"Name": "一乗公民館",
"Jusho": "福井県福井市西新町1-31",
"Capacity": "－",
"la": "35.99449600000",
"ln": "136.28972600000"
},
"geometry": {
"type": "Point",
"coordinates": [
136.289726,
35.994496
]
}
},
{
"type": "Feature",
"properties": {
"Name": "上文殊公民館",
"Jusho": "福井県福井市北山町34-1",
"Capacity": "－",
"la": "36.00144600000",
"ln": "136.25290100000"
},
"geometry": {
"type": "Point",
"coordinates": [
136.252901,
36.001446
]
}
},
{
"type": "Feature",
"properties": {
"Name": "文殊公民館",
"Jusho": "福井県福井市太田町4-11-2",
"Capacity": "－",
"la": "36.01085700000",
"ln": "136.22295500000"
},
"geometry": {
"type": "Point",
"coordinates": [
136.222955,
36.010857
]
}
},
{
"type": "Feature",
"properties": {
"Name": "文殊保育園",
"Jusho": "福井県福井市太田町14-1",
"Capacity": "－",
"la": "36.01164100000",
"ln": "136.23023700000"
},
"geometry": {
"type": "Point",
"coordinates": [
136.230237,
36.011641
]
}
},
{
"type": "Feature",
"properties": {
"Name": "福井南高等学校",
"Jusho": "福井県福井市新開町15-12",
"Capacity": "－",
"la": "36.01572300000",
"ln": "136.21854300000"
},
"geometry": {
"type": "Point",
"coordinates": [
136.218543,
36.015723
]
}
},
{
"type": "Feature",
"properties": {
"Name": "六条公民館",
"Jusho": "福井県福井市天王町43-4",
"Capacity": "－",
"la": "36.02683900000",
"ln": "136.23406400000"
},
"geometry": {
"type": "Point",
"coordinates": [
136.234064,
36.026839
]
}
},
{
"type": "Feature",
"properties": {
"Name": "六条保育園",
"Jusho": "福井県福井市天王町21-1-1",
"Capacity": "－",
"la": "36.02711100000",
"ln": "136.23456900000"
},
"geometry": {
"type": "Point",
"coordinates": [
136.234569,
36.027111
]
}
},
{
"type": "Feature",
"properties": {
"Name": "中小企業産業大学校",
"Jusho": "福井県福井市下六条町16-15",
"Capacity": "－",
"la": "36.03570200000",
"ln": "136.23062400000"
},
"geometry": {
"type": "Point",
"coordinates": [
136.230624,
36.035702
]
}
},
{
"type": "Feature",
"properties": {
"Name": "東郷公民館",
"Jusho": "福井県福井市東郷二ヶ町6-13-1",
"Capacity": "－",
"la": "36.01887600000",
"ln": "136.26599800000"
},
"geometry": {
"type": "Point",
"coordinates": [
136.265998,
36.018876
]
}
},
{
"type": "Feature",
"properties": {
"Name": "東郷保育園",
"Jusho": "福井県福井市東郷二ヶ町37-18",
"Capacity": "－",
"la": "36.01553000000",
"ln": "136.27301100000"
},
"geometry": {
"type": "Point",
"coordinates": [
136.273011,
36.01553
]
}
},
{
"type": "Feature",
"properties": {
"Name": "少年自然の家",
"Jusho": "福井県福井市脇三ヶ町66-2-10",
"Capacity": "－",
"la": "36.01246700000",
"ln": "136.29211600000"
},
"geometry": {
"type": "Point",
"coordinates": [
136.292116,
36.012467
]
}
},
{
"type": "Feature",
"properties": {
"Name": "日新公民館",
"Jusho": "福井県福井市文京5丁目1-8",
"Capacity": "－",
"la": "36.07489600000",
"ln": "136.20719200000"
},
"geometry": {
"type": "Point",
"coordinates": [
136.207192,
36.074896
]
}
},
{
"type": "Feature",
"properties": {
"Name": "福井商業高等学校",
"Jusho": "福井県福井市乾徳4丁目8-19",
"Capacity": "－",
"la": "36.07327100000",
"ln": "136.20623700000"
},
"geometry": {
"type": "Point",
"coordinates": [
136.206237,
36.073271
]
}
},
{
"type": "Feature",
"properties": {
"Name": "清明公民館",
"Jusho": "福井県福井市下荒井町8-414",
"Capacity": "－",
"la": "36.02676600000",
"ln": "136.20219400000"
},
"geometry": {
"type": "Point",
"coordinates": [
136.202194,
36.026766
]
}
},
{
"type": "Feature",
"properties": {
"Name": "足羽高等学校",
"Jusho": "福井県福井市杉谷町44",
"Capacity": "－",
"la": "36.00891700000",
"ln": "136.19562800000"
},
"geometry": {
"type": "Point",
"coordinates": [
136.195628,
36.008917
]
}
},
{
"type": "Feature",
"properties": {
"Name": "清明保育園",
"Jusho": "福井県福井市江端町32-67",
"Capacity": "－",
"la": "36.02774900000",
"ln": "136.21023700000"
},
"geometry": {
"type": "Point",
"coordinates": [
136.210237,
36.027749
]
}
},
{
"type": "Feature",
"properties": {
"Name": "社西公民館",
"Jusho": "福井県福井市久喜津町65-23",
"Capacity": "－",
"la": "36.05081000000",
"ln": "136.17717100000"
},
"geometry": {
"type": "Point",
"coordinates": [
136.177171,
36.05081
]
}
},
{
"type": "Feature",
"properties": {
"Name": "科学技術高等学校",
"Jusho": "福井県福井市下江守町28",
"Capacity": "－",
"la": "36.04638400000",
"ln": "136.17921200000"
},
"geometry": {
"type": "Point",
"coordinates": [
136.179212,
36.046384
]
}
},
{
"type": "Feature",
"properties": {
"Name": "県教育研究所",
"Jusho": "福井県福井市福新町2505",
"Capacity": "－",
"la": "36.05092000000",
"ln": "136.18617200000"
},
"geometry": {
"type": "Point",
"coordinates": [
136.186172,
36.05092
]
}
},
{
"type": "Feature",
"properties": {
"Name": "美山公民館（上宇坂分館）",
"Jusho": "福井県福井市美山町2-12",
"Capacity": "－",
"la": "35.99994100000",
"ln": "136.35972400000"
},
"geometry": {
"type": "Point",
"coordinates": [
136.359724,
35.999941
]
}
},
{
"type": "Feature",
"properties": {
"Name": "美山公民館（下宇坂分館）",
"Jusho": "福井県福井市市波町25-11-1",
"Capacity": "－",
"la": "36.01828699910",
"ln": "136.33104300000"
},
"geometry": {
"type": "Point",
"coordinates": [
136.331043,
36.0182869991
]
}
},
{
"type": "Feature",
"properties": {
"Name": "美山公民館（芦見分館）",
"Jusho": "福井県福井市西中町3-9-1",
"Capacity": "－",
"la": "36.02697399910",
"ln": "136.40606900000"
},
"geometry": {
"type": "Point",
"coordinates": [
136.406069,
36.0269739991
]
}
},
{
"type": "Feature",
"properties": {
"Name": "美山公民館（羽生分館）",
"Jusho": "福井県福井市大宮町11-8",
"Capacity": "－",
"la": "36.00010900000",
"ln": "136.41369900000"
},
"geometry": {
"type": "Point",
"coordinates": [
136.413699,
36.000109
]
}
},
{
"type": "Feature",
"properties": {
"Name": "美山公民館（上味見分館）",
"Jusho": "福井県福井市中手町10-3-1",
"Capacity": "－",
"la": "35.96151499910",
"ln": "136.41791900000"
},
"geometry": {
"type": "Point",
"coordinates": [
136.417919,
35.9615149991
]
}
},
{
"type": "Feature",
"properties": {
"Name": "美山公民館（下味見分館）",
"Jusho": "福井県福井市西河原町18-33-1",
"Capacity": "－",
"la": "35.95176000000",
"ln": "136.35995300000"
},
"geometry": {
"type": "Point",
"coordinates": [
136.359953,
35.95176
]
}
},
{
"type": "Feature",
"properties": {
"Name": "芦見生涯教育施設",
"Jusho": "福井県福井市西中町3-9-1",
"Capacity": "－",
"la": "36.02703847860",
"ln": "136.40605897100"
},
"geometry": {
"type": "Point",
"coordinates": [
136.406058971,
36.0270384786
]
}
},
{
"type": "Feature",
"properties": {
"Name": "上味見生涯教育施設",
"Jusho": "福井県福井市中手町7-3",
"Capacity": "－",
"la": "35.96290500000",
"ln": "136.41858000000"
},
"geometry": {
"type": "Point",
"coordinates": [
136.41858,
35.962905
]
}
},
{
"type": "Feature",
"properties": {
"Name": "下味見生涯教育施設",
"Jusho": "福井県福井市折立町41-1",
"Capacity": "－",
"la": "35.95317900000",
"ln": "136.35784800000"
},
"geometry": {
"type": "Point",
"coordinates": [
136.357848,
35.953179
]
}
},
{
"type": "Feature",
"properties": {
"Name": "木ごころ文化ホール",
"Jusho": "福井県福井市美山町2-8",
"Capacity": "－",
"la": "36.00021900000",
"ln": "136.35912700000"
},
"geometry": {
"type": "Point",
"coordinates": [
136.359127,
36.000219
]
}
},
{
"type": "Feature",
"properties": {
"Name": "美山森林温泉みらくる亭",
"Jusho": "福井県福井市市波町38-2",
"Capacity": "－",
"la": "36.01083200000",
"ln": "136.32938500000"
},
"geometry": {
"type": "Point",
"coordinates": [
136.329385,
36.010832
]
}
},
{
"type": "Feature",
"properties": {
"Name": "美山楽く楽く亭",
"Jusho": "福井県福井市市波町26-15",
"Capacity": "－",
"la": "36.01832200000",
"ln": "136.33277100000"
},
"geometry": {
"type": "Point",
"coordinates": [
136.332771,
36.018322
]
}
},
{
"type": "Feature",
"properties": {
"Name": "伊自良温泉",
"Jusho": "福井県福井市中手町29-3",
"Capacity": "－",
"la": "35.95712200000",
"ln": "136.42195800000"
},
"geometry": {
"type": "Point",
"coordinates": [
136.421958,
35.957122
]
}
},
{
"type": "Feature",
"properties": {
"Name": "美山トレーニングセンター",
"Jusho": "福井県福井市境寺町2-7",
"Capacity": "－",
"la": "35.99840600000",
"ln": "136.36381800000"
},
"geometry": {
"type": "Point",
"coordinates": [
136.363818,
35.998406
]
}
},
{
"type": "Feature",
"properties": {
"Name": "みやま保育園",
"Jusho": "福井県福井市境寺町36-3",
"Capacity": "－",
"la": "35.99831100000",
"ln": "136.36453600000"
},
"geometry": {
"type": "Point",
"coordinates": [
136.364536,
35.998311
]
}
},
{
"type": "Feature",
"properties": {
"Name": "美山総合支所",
"Jusho": "福井県福井市美山町7-1",
"Capacity": "－",
"la": "35.99872800000",
"ln": "136.36062100000"
},
"geometry": {
"type": "Point",
"coordinates": [
136.360621,
35.998728
]
}
},
{
"type": "Feature",
"properties": {
"Name": "美山アンデパンダン広場",
"Jusho": "福井県福井市縫原町21-73",
"Capacity": "－",
"la": "36.00590780230",
"ln": "136.40133314300"
},
"geometry": {
"type": "Point",
"coordinates": [
136.401333143,
36.0059078023
]
}
},
{
"type": "Feature",
"properties": {
"Name": "越廼公民館",
"Jusho": "福井県福井市茱崎町1-68",
"Capacity": "－",
"la": "36.03928700000",
"ln": "136.01232200000"
},
"geometry": {
"type": "Point",
"coordinates": [
136.012322,
36.039287
]
}
},
{
"type": "Feature",
"properties": {
"Name": "越廼総合支所",
"Jusho": "福井県福井市蒲生町1-88",
"Capacity": "－",
"la": "36.03903600000",
"ln": "136.01278900000"
},
"geometry": {
"type": "Point",
"coordinates": [
136.012789,
36.039036
]
}
},
{
"type": "Feature",
"properties": {
"Name": "水仙の里温泉波の華",
"Jusho": "福井県福井市蒲生町1-94",
"Capacity": "－",
"la": "36.03760800000",
"ln": "136.01021400000"
},
"geometry": {
"type": "Point",
"coordinates": [
136.010214,
36.037608
]
}
},
{
"type": "Feature",
"properties": {
"Name": "水仙の里温泉水仙寮",
"Jusho": "福井県福井市居倉町79-35",
"Capacity": "－",
"la": "36.00917000000",
"ln": "135.98859200000"
},
"geometry": {
"type": "Point",
"coordinates": [
135.988592,
36.00917
]
}
},
{
"type": "Feature",
"properties": {
"Name": "清水西公民館",
"Jusho": "福井県福井市大森町20-43-1",
"Capacity": "－",
"la": "36.01975000000",
"ln": "136.11783600000"
},
"geometry": {
"type": "Point",
"coordinates": [
136.117836,
36.01975
]
}
},
{
"type": "Feature",
"properties": {
"Name": "地域活性化施設",
"Jusho": "福井県福井市平尾町24-12-1",
"Capacity": "－",
"la": "36.03564000000",
"ln": "136.10740700000"
},
"geometry": {
"type": "Point",
"coordinates": [
136.107407,
36.03564
]
}
},
{
"type": "Feature",
"properties": {
"Name": "清水東公民館",
"Jusho": "福井県福井市三留町第14号11番地1",
"Capacity": "－",
"la": "36.03718079270",
"ln": "136.15230348100"
},
"geometry": {
"type": "Point",
"coordinates": [
136.152303481,
36.0371807927
]
}
},
{
"type": "Feature",
"properties": {
"Name": "清水総合支所",
"Jusho": "福井県福井市小羽町27-1",
"Capacity": "－",
"la": "36.03236600000",
"ln": "136.13606300000"
},
"geometry": {
"type": "Point",
"coordinates": [
136.136063,
36.032366
]
}
},
{
"type": "Feature",
"properties": {
"Name": "清水南公民館",
"Jusho": "福井県福井市風巻町21-17",
"Capacity": "－",
"la": "36.02626200000",
"ln": "136.14507200000"
},
"geometry": {
"type": "Point",
"coordinates": [
136.145072,
36.026262
]
}
},
{
"type": "Feature",
"properties": {
"Name": "清水保育園",
"Jusho": "福井県福井市風巻町28-5",
"Capacity": "－",
"la": "36.02767000000",
"ln": "136.14809300000"
},
"geometry": {
"type": "Point",
"coordinates": [
136.148093,
36.02767
]
}
},
{
"type": "Feature",
"properties": {
"Name": "マイドーム清水",
"Jusho": "福井県福井市真栗町48-2",
"Capacity": "－",
"la": "36.01584100000",
"ln": "136.14272300000"
},
"geometry": {
"type": "Point",
"coordinates": [
136.142723,
36.015841
]
}
},
{
"type": "Feature",
"properties": {
"Name": "きらら館",
"Jusho": "福井県福井市風巻町20-17",
"Capacity": "－",
"la": "36.02649900000",
"ln": "136.14499700000"
},
"geometry": {
"type": "Point",
"coordinates": [
136.144997,
36.026499
]
}
},
{
"type": "Feature",
"properties": {
"Name": "きららパーク",
"Jusho": "福井県福井市風巻町21-17",
"Capacity": "－",
"la": "36.02665100000",
"ln": "136.14602300000"
},
"geometry": {
"type": "Point",
"coordinates": [
136.146023,
36.026651
]
}
},
{
"type": "Feature",
"properties": {
"Name": "清水北公民館",
"Jusho": "福井県福井市グリーンハイツ5丁目131",
"Capacity": "－",
"la": "36.04150800000",
"ln": "136.16467000000"
},
"geometry": {
"type": "Point",
"coordinates": [
136.16467,
36.041508
]
}
},
{
"type": "Feature",
"properties": {
"Name": "武道館",
"Jusho": "福井県敦賀市曙町11-80",
"Capacity": "356",
"la": "35.65513000000",
"ln": "136.07416600000"
},
"geometry": {
"type": "Point",
"coordinates": [
136.074166,
35.65513
]
}
},
{
"type": "Feature",
"properties": {
"Name": "市民文化センター",
"Jusho": "福井県敦賀市桜町7番1号",
"Capacity": "159",
"la": "35.65914100000",
"ln": "136.07118600000"
},
"geometry": {
"type": "Point",
"coordinates": [
136.071186,
35.659141
]
}
},
{
"type": "Feature",
"properties": {
"Name": "プラザ萬象",
"Jusho": "福井県敦賀市東洋町1番1号",
"Capacity": "505",
"la": "35.64416400000",
"ln": "136.07021700000"
},
"geometry": {
"type": "Point",
"coordinates": [
136.070217,
35.644164
]
}
},
{
"type": "Feature",
"properties": {
"Name": "男女共同参画センター",
"Jusho": "福井県敦賀市三島町2-1-6",
"Capacity": "352",
"la": "35.64896900000",
"ln": "136.06918500000"
},
"geometry": {
"type": "Point",
"coordinates": [
136.069185,
35.648969
]
}
},
{
"type": "Feature",
"properties": {
"Name": "敦賀高等学校",
"Jusho": "福井県敦賀市松葉町2-1",
"Capacity": "978",
"la": "35.65064000000",
"ln": "136.04937600000"
},
"geometry": {
"type": "Point",
"coordinates": [
136.049376,
35.65064
]
}
},
{
"type": "Feature",
"properties": {
"Name": "敦賀気比高等学校",
"Jusho": "福井県敦賀市沓見164-1",
"Capacity": "836",
"la": "35.64507400000",
"ln": "136.03110500000"
},
"geometry": {
"type": "Point",
"coordinates": [
136.031105,
35.645074
]
}
},
{
"type": "Feature",
"properties": {
"Name": "敦賀短期大学",
"Jusho": "福井県敦賀市木崎78-2-1",
"Capacity": "380",
"la": "35.64621300000",
"ln": "136.03452100000"
},
"geometry": {
"type": "Point",
"coordinates": [
136.034521,
35.646213
]
}
},
{
"type": "Feature",
"properties": {
"Name": "市立体育館",
"Jusho": "福井県敦賀市松葉町1番2号",
"Capacity": "585",
"la": "35.65256300000",
"ln": "136.04874400000"
},
"geometry": {
"type": "Point",
"coordinates": [
136.048744,
35.652563
]
}
},
{
"type": "Feature",
"properties": {
"Name": "児童文化センター",
"Jusho": "福井県敦賀市櫛川42号2番1",
"Capacity": "358",
"la": "35.65695100000",
"ln": "136.04346900000"
},
"geometry": {
"type": "Point",
"coordinates": [
136.043469,
35.656951
]
}
},
{
"type": "Feature",
"properties": {
"Name": "看護専門学校",
"Jusho": "福井県敦賀市木崎24-7-1",
"Capacity": "232",
"la": "35.64496800000",
"ln": "136.04623200000"
},
"geometry": {
"type": "Point",
"coordinates": [
136.046232,
35.644968
]
}
},
{
"type": "Feature",
"properties": {
"Name": "東浦体育館",
"Jusho": "福井県敦賀市阿曽71号12番地",
"Capacity": "218",
"la": "35.72085099320",
"ln": "136.09891545400"
},
"geometry": {
"type": "Point",
"coordinates": [
136.098915454,
35.7208509932
]
}
},
{
"type": "Feature",
"properties": {
"Name": "市民福祉会館",
"Jusho": "福井県敦賀市高野54-4-4",
"Capacity": "409",
"la": "35.63528500000",
"ln": "136.08757100000"
},
"geometry": {
"type": "Point",
"coordinates": [
136.087571,
35.635285
]
}
},
{
"type": "Feature",
"properties": {
"Name": "敦賀工業高等学校",
"Jusho": "福井県敦賀市山泉13-1",
"Capacity": "800",
"la": "35.62157700000",
"ln": "136.06748900000"
},
"geometry": {
"type": "Point",
"coordinates": [
136.067489,
35.621577
]
}
},
{
"type": "Feature",
"properties": {
"Name": "中郷体育館",
"Jusho": "福井県敦賀市羽織町34号（坂下）",
"Capacity": "480",
"la": "35.63333500000",
"ln": "136.07623600000"
},
"geometry": {
"type": "Point",
"coordinates": [
136.076236,
35.633335
]
}
},
{
"type": "Feature",
"properties": {
"Name": "昭英高等学校",
"Jusho": "福井県敦賀市長谷65-98",
"Capacity": "280",
"la": "35.60630100000",
"ln": "136.04607600000"
},
"geometry": {
"type": "Point",
"coordinates": [
136.046076,
35.606301
]
}
},
{
"type": "Feature",
"properties": {
"Name": "粟野スポーツセンター",
"Jusho": "福井県敦賀市長谷47号54番地",
"Capacity": "480",
"la": "35.61168900000",
"ln": "136.04374000000"
},
"geometry": {
"type": "Point",
"coordinates": [
136.04374,
35.611689
]
}
},
{
"type": "Feature",
"properties": {
"Name": "金山体育館",
"Jusho": "福井県敦賀市金山58号",
"Capacity": "148",
"la": "35.62475900000",
"ln": "136.03385000000"
},
"geometry": {
"type": "Point",
"coordinates": [
136.03385,
35.624759
]
}
},
{
"type": "Feature",
"properties": {
"Name": "少年自然の家",
"Jusho": "福井県敦賀市野坂80-15",
"Capacity": "561",
"la": "35.61039100000",
"ln": "136.03135700000"
},
"geometry": {
"type": "Point",
"coordinates": [
136.031357,
35.610391
]
}
},
{
"type": "Feature",
"properties": {
"Name": "若狭ふれあいセンター",
"Jusho": "福井県小浜市小浜日吉91-3",
"Capacity": "－",
"la": "35.49409000000",
"ln": "135.73857500000"
},
"geometry": {
"type": "Point",
"coordinates": [
135.738575,
35.49409
]
}
},
{
"type": "Feature",
"properties": {
"Name": "福祉センター",
"Jusho": "福井県小浜市小浜鹿島123",
"Capacity": "－",
"la": "35.49240700000",
"ln": "135.73737800000"
},
"geometry": {
"type": "Point",
"coordinates": [
135.737378,
35.492407
]
}
},
{
"type": "Feature",
"properties": {
"Name": "交流ターミナルセンター",
"Jusho": "福井県小浜市城内二丁目5-16",
"Capacity": "－",
"la": "35.50550600000",
"ln": "135.74367200000"
},
"geometry": {
"type": "Point",
"coordinates": [
135.743672,
35.505506
]
}
},
{
"type": "Feature",
"properties": {
"Name": "中央公民館",
"Jusho": "福井県小浜市大手町5-31",
"Capacity": "－",
"la": "35.49624900000",
"ln": "135.74445000000"
},
"geometry": {
"type": "Point",
"coordinates": [
135.74445,
35.496249
]
}
},
{
"type": "Feature",
"properties": {
"Name": "小浜市役所",
"Jusho": "福井県小浜市大手町6-3",
"Capacity": "－",
"la": "35.49558700000",
"ln": "135.74665800000"
},
"geometry": {
"type": "Point",
"coordinates": [
135.746658,
35.495587
]
}
},
{
"type": "Feature",
"properties": {
"Name": "健康管理センター",
"Jusho": "福井県小浜市南川町4-31",
"Capacity": "－",
"la": "35.49370900000",
"ln": "135.75387200000"
},
"geometry": {
"type": "Point",
"coordinates": [
135.753872,
35.493709
]
}
},
{
"type": "Feature",
"properties": {
"Name": "市民体育館",
"Jusho": "福井県小浜市後瀬町9-38",
"Capacity": "－",
"la": "35.49444900000",
"ln": "135.75197400000"
},
"geometry": {
"type": "Point",
"coordinates": [
135.751974,
35.494449
]
}
},
{
"type": "Feature",
"properties": {
"Name": "文化会館",
"Jusho": "福井県小浜市大手町7-32",
"Capacity": "－",
"la": "35.49634600000",
"ln": "135.74623600000"
},
"geometry": {
"type": "Point",
"coordinates": [
135.746236,
35.496346
]
}
},
{
"type": "Feature",
"properties": {
"Name": "働く婦人の家",
"Jusho": "福井県小浜市大手町4-1",
"Capacity": "－",
"la": "35.49489600000",
"ln": "135.74470500000"
},
"geometry": {
"type": "Point",
"coordinates": [
135.744705,
35.494896
]
}
},
{
"type": "Feature",
"properties": {
"Name": "西津公民館",
"Jusho": "福井県小浜市北塩屋22-2",
"Capacity": "－",
"la": "35.51310500000",
"ln": "135.75327900000"
},
"geometry": {
"type": "Point",
"coordinates": [
135.753279,
35.513105
]
}
},
{
"type": "Feature",
"properties": {
"Name": "県立大学小浜キャンパス",
"Jusho": "福井県小浜市学園町1-1",
"Capacity": "－",
"la": "35.51036600000",
"ln": "135.75906300000"
},
"geometry": {
"type": "Point",
"coordinates": [
135.759063,
35.510366
]
}
},
{
"type": "Feature",
"properties": {
"Name": "久須夜交流センター",
"Jusho": "福井県小浜市阿納尻43-10-1",
"Capacity": "－",
"la": "35.53215600000",
"ln": "135.76467900000"
},
"geometry": {
"type": "Point",
"coordinates": [
135.764679,
35.532156
]
}
},
{
"type": "Feature",
"properties": {
"Name": "国富公民館",
"Jusho": "福井県小浜市栗田11-3-2",
"Capacity": "－",
"la": "35.49995100000",
"ln": "135.77352200000"
},
"geometry": {
"type": "Point",
"coordinates": [
135.773522,
35.499951
]
}
},
{
"type": "Feature",
"properties": {
"Name": "宮川公民館",
"Jusho": "福井県小浜市加茂2-17-2",
"Capacity": "－",
"la": "35.49292300000",
"ln": "135.82111300000"
},
"geometry": {
"type": "Point",
"coordinates": [
135.821113,
35.492923
]
}
},
{
"type": "Feature",
"properties": {
"Name": "松永公民館",
"Jusho": "福井県小浜市上野28-7",
"Capacity": "－",
"la": "35.47422200000",
"ln": "135.79607700000"
},
"geometry": {
"type": "Point",
"coordinates": [
135.796077,
35.474222
]
}
},
{
"type": "Feature",
"properties": {
"Name": "遠敷公民館",
"Jusho": "福井県小浜市遠敷71-8",
"Capacity": "－",
"la": "35.47804500000",
"ln": "135.78109600000"
},
"geometry": {
"type": "Point",
"coordinates": [
135.781096,
35.478045
]
}
},
{
"type": "Feature",
"properties": {
"Name": "総合福祉センター",
"Jusho": "福井県小浜市遠敷84-3-4",
"Capacity": "－",
"la": "35.48497800000",
"ln": "135.78132500000"
},
"geometry": {
"type": "Point",
"coordinates": [
135.781325,
35.484978
]
}
},
{
"type": "Feature",
"properties": {
"Name": "今富公民館",
"Jusho": "福井県小浜市和久里26-9",
"Capacity": "－",
"la": "35.48703800000",
"ln": "135.75697100000"
},
"geometry": {
"type": "Point",
"coordinates": [
135.756971,
35.487038
]
}
},
{
"type": "Feature",
"properties": {
"Name": "口名田公民館",
"Jusho": "福井県小浜市中井41-9",
"Capacity": "－",
"la": "35.45479400000",
"ln": "135.71471600000"
},
"geometry": {
"type": "Point",
"coordinates": [
135.714716,
35.454794
]
}
},
{
"type": "Feature",
"properties": {
"Name": "中名田公民館",
"Jusho": "福井県小浜市下田50-19",
"Capacity": "－",
"la": "35.42708600000",
"ln": "135.67113700000"
},
"geometry": {
"type": "Point",
"coordinates": [
135.671137,
35.427086
]
}
},
{
"type": "Feature",
"properties": {
"Name": "加斗公民館",
"Jusho": "福井県小浜市加斗30-35",
"Capacity": "－",
"la": "35.48070300000",
"ln": "135.67038900000"
},
"geometry": {
"type": "Point",
"coordinates": [
135.670389,
35.480703
]
}
},
{
"type": "Feature",
"properties": {
"Name": "（株）ケーブルテレビ若狭小浜",
"Jusho": "福井県小浜市小浜津島76-1",
"Capacity": "－",
"la": "35.50171300000",
"ln": "135.74358800000"
},
"geometry": {
"type": "Point",
"coordinates": [
135.743588,
35.501713
]
}
},
{
"type": "Feature",
"properties": {
"Name": "まつ治",
"Jusho": "福井県小浜市小浜竜田78",
"Capacity": "－",
"la": "35.49366300000",
"ln": "135.74162800000"
},
"geometry": {
"type": "Point",
"coordinates": [
135.741628,
35.493663
]
}
},
{
"type": "Feature",
"properties": {
"Name": "青井会館",
"Jusho": "福井県小浜市青井10-86",
"Capacity": "－",
"la": "35.49020900000",
"ln": "135.73227400000"
},
"geometry": {
"type": "Point",
"coordinates": [
135.732274,
35.490209
]
}
},
{
"type": "Feature",
"properties": {
"Name": "県立若狭図書学習センター",
"Jusho": "福井県小浜市南川町6-11",
"Capacity": "－",
"la": "35.49306000000",
"ln": "135.75407400000"
},
"geometry": {
"type": "Point",
"coordinates": [
135.754074,
35.49306
]
}
},
{
"type": "Feature",
"properties": {
"Name": "（株）オアシス",
"Jusho": "福井県小浜市雲浜一丁目8-8",
"Capacity": "－",
"la": "35.50941400000",
"ln": "135.75040200000"
},
"geometry": {
"type": "Point",
"coordinates": [
135.750402,
35.509414
]
}
},
{
"type": "Feature",
"properties": {
"Name": "県立小浜水産高校",
"Jusho": "福井県小浜市堀屋敷2-5-2",
"Capacity": "－",
"la": "35.50886400000",
"ln": "135.74635200000"
},
"geometry": {
"type": "Point",
"coordinates": [
135.746352,
35.508864
]
}
},
{
"type": "Feature",
"properties": {
"Name": "箸のふるさと館",
"Jusho": "福井県小浜市福谷8-1-3",
"Capacity": "－",
"la": "35.52221800000",
"ln": "135.75161600000"
},
"geometry": {
"type": "Point",
"coordinates": [
135.751616,
35.522218
]
}
},
{
"type": "Feature",
"properties": {
"Name": "太興寺ふれあい会館",
"Jusho": "福井県小浜市太興寺",
"Capacity": "－",
"la": "35.47557000000",
"ln": "135.79718500000"
},
"geometry": {
"type": "Point",
"coordinates": [
135.797185,
35.47557
]
}
},
{
"type": "Feature",
"properties": {
"Name": "遠敷の郷会館",
"Jusho": "福井県小浜市遠敷（中村）",
"Capacity": "－",
"la": "35.47912355090",
"ln": "135.78320288400"
},
"geometry": {
"type": "Point",
"coordinates": [
135.783202884,
35.4791235509
]
}
},
{
"type": "Feature",
"properties": {
"Name": "国分ふれあいアセンター",
"Jusho": "福井県小浜市国分",
"Capacity": "－",
"la": "35.47955900000",
"ln": "135.78768900000"
},
"geometry": {
"type": "Point",
"coordinates": [
135.787689,
35.479559
]
}
},
{
"type": "Feature",
"properties": {
"Name": "金屋公会堂",
"Jusho": "福井県小浜市金屋70",
"Capacity": "－",
"la": "35.47141600000",
"ln": "135.78471200000"
},
"geometry": {
"type": "Point",
"coordinates": [
135.784712,
35.471416
]
}
},
{
"type": "Feature",
"properties": {
"Name": "遠敷児童センター",
"Jusho": "福井県小浜市遠敷一丁目202",
"Capacity": "－",
"la": "35.48448644030",
"ln": "135.78137425300"
},
"geometry": {
"type": "Point",
"coordinates": [
135.781374253,
35.4844864403
]
}
},
{
"type": "Feature",
"properties": {
"Name": "生守団地２Ｆ",
"Jusho": "福井県小浜市生守41-34-2",
"Capacity": "－",
"la": "35.48296897630",
"ln": "135.75966920500"
},
"geometry": {
"type": "Point",
"coordinates": [
135.759669205,
35.4829689763
]
}
},
{
"type": "Feature",
"properties": {
"Name": "妙祐寺",
"Jusho": "福井県小浜市中井13-60",
"Capacity": "－",
"la": "35.45320900000",
"ln": "135.70600400000"
},
"geometry": {
"type": "Point",
"coordinates": [
135.706004,
35.453209
]
}
},
{
"type": "Feature",
"properties": {
"Name": "新滝住民センター",
"Jusho": "福井県小浜市中井（新滝）",
"Capacity": "－",
"la": "35.46129048840",
"ln": "135.72576788700"
},
"geometry": {
"type": "Point",
"coordinates": [
135.725767887,
35.4612904884
]
}
},
{
"type": "Feature",
"properties": {
"Name": "小浜市総合運動場",
"Jusho": "福井県小浜市口田縄5-23",
"Capacity": "－",
"la": "35.45825000000",
"ln": "135.72536800000"
},
"geometry": {
"type": "Point",
"coordinates": [
135.725368,
35.45825
]
}
},
{
"type": "Feature",
"properties": {
"Name": "梅千代会館",
"Jusho": "福井県小浜市谷田部25-7-1",
"Capacity": "－",
"la": "35.47219500000",
"ln": "135.72864500000"
},
"geometry": {
"type": "Point",
"coordinates": [
135.728645,
35.472195
]
}
},
{
"type": "Feature",
"properties": {
"Name": "妙厳寺",
"Jusho": "福井県小浜市西勢53-6",
"Capacity": "－",
"la": "35.48241000000",
"ln": "135.70479400000"
},
"geometry": {
"type": "Point",
"coordinates": [
135.704794,
35.48241
]
}
},
{
"type": "Feature",
"properties": {
"Name": "学びの里「めいりん」",
"Jusho": "福井県大野市城町9-1",
"Capacity": "912",
"la": "35.98572100000",
"ln": "136.48606000000"
},
"geometry": {
"type": "Point",
"coordinates": [
136.48606,
35.985721
]
}
},
{
"type": "Feature",
"properties": {
"Name": "六呂師自然楽舎",
"Jusho": "福井県大野市南六呂師169-124-3",
"Capacity": "222",
"la": "36.01344600000",
"ln": "136.57626000000"
},
"geometry": {
"type": "Point",
"coordinates": [
136.57626,
36.013446
]
}
},
{
"type": "Feature",
"properties": {
"Name": "五箇公民館",
"Jusho": "福井県大野市西勝原13-1-5",
"Capacity": "62",
"la": "35.96758700000",
"ln": "136.59707600000"
},
"geometry": {
"type": "Point",
"coordinates": [
136.597076,
35.967587
]
}
},
{
"type": "Feature",
"properties": {
"Name": "青少年教育センター",
"Jusho": "福井県大野市中野57-6-1",
"Capacity": "313",
"la": "35.99990400000",
"ln": "136.49622400000"
},
"geometry": {
"type": "Point",
"coordinates": [
136.496224,
35.999904
]
}
},
{
"type": "Feature",
"properties": {
"Name": "下庄公民館",
"Jusho": "福井県大野市中野町三丁目1-16",
"Capacity": "346",
"la": "35.99273800000",
"ln": "136.49129400000"
},
"geometry": {
"type": "Point",
"coordinates": [
136.491294,
35.992738
]
}
},
{
"type": "Feature",
"properties": {
"Name": "乾側公民館",
"Jusho": "福井県大野市牛ヶ原66-1",
"Capacity": "40",
"la": "35.99536400000",
"ln": "136.46758800000"
},
"geometry": {
"type": "Point",
"coordinates": [
136.467588,
35.995364
]
}
},
{
"type": "Feature",
"properties": {
"Name": "小山公民館",
"Jusho": "福井県大野市下舌10-9",
"Capacity": "39",
"la": "35.96083800000",
"ln": "136.49170400000"
},
"geometry": {
"type": "Point",
"coordinates": [
136.491704,
35.960838
]
}
},
{
"type": "Feature",
"properties": {
"Name": "上庄公民館",
"Jusho": "福井県大野市稲郷43-2",
"Capacity": "72",
"la": "35.94908400000",
"ln": "136.52281100000"
},
"geometry": {
"type": "Point",
"coordinates": [
136.522811,
35.949084
]
}
},
{
"type": "Feature",
"properties": {
"Name": "富田公民館",
"Jusho": "福井県大野市上野42-6-1",
"Capacity": "264",
"la": "35.99091700000",
"ln": "136.53986400000"
},
"geometry": {
"type": "Point",
"coordinates": [
136.539864,
35.990917
]
}
},
{
"type": "Feature",
"properties": {
"Name": "阪谷公民館",
"Jusho": "福井県大野市伏石11-14",
"Capacity": "40",
"la": "35.98487700000",
"ln": "136.57401300000"
},
"geometry": {
"type": "Point",
"coordinates": [
136.574013,
35.984877
]
}
},
{
"type": "Feature",
"properties": {
"Name": "文化会館",
"Jusho": "福井県大野市有明町11-10",
"Capacity": "311",
"la": "35.98365500000",
"ln": "136.50031700000"
},
"geometry": {
"type": "Point",
"coordinates": [
136.500317,
35.983655
]
}
},
{
"type": "Feature",
"properties": {
"Name": "Ｂ＆Ｇ海洋センター",
"Jusho": "福井県大野市稲郷43-17-1",
"Capacity": "303",
"la": "35.94923700000",
"ln": "136.52363900000"
},
"geometry": {
"type": "Point",
"coordinates": [
136.523639,
35.949237
]
}
},
{
"type": "Feature",
"properties": {
"Name": "和泉総合福祉センター",
"Jusho": "福井県大野市朝日25-7",
"Capacity": "115",
"la": "35.90543000000",
"ln": "136.66236600000"
},
"geometry": {
"type": "Point",
"coordinates": [
136.662366,
35.90543
]
}
},
{
"type": "Feature",
"properties": {
"Name": "山村開発センター",
"Jusho": "福井県大野市朝日17-5",
"Capacity": "36",
"la": "35.90611700000",
"ln": "136.66651400000"
},
"geometry": {
"type": "Point",
"coordinates": [
136.666514,
35.906117
]
}
},
{
"type": "Feature",
"properties": {
"Name": "大納地区集会施設",
"Jusho": "福井県大野市上大納37-4-2",
"Capacity": "28",
"la": "35.88465100000",
"ln": "136.61147000000"
},
"geometry": {
"type": "Point",
"coordinates": [
136.61147,
35.884651
]
}
},
{
"type": "Feature",
"properties": {
"Name": "下山地区集会施設",
"Jusho": "福井県大野市下山43-45",
"Capacity": "40",
"la": "35.92051200000",
"ln": "136.63881700000"
},
"geometry": {
"type": "Point",
"coordinates": [
136.638817,
35.920512
]
}
},
{
"type": "Feature",
"properties": {
"Name": "三番ポケットパーク",
"Jusho": "福井県大野市大野市223字の一部",
"Capacity": "250",
"la": "35.98663200000",
"ln": "136.49805000000"
},
"geometry": {
"type": "Point",
"coordinates": [
136.49805,
35.986632
]
}
},
{
"type": "Feature",
"properties": {
"Name": "木瓜川緑地",
"Jusho": "福井県大野市中野61字・中荒井2・3・11字の一部",
"Capacity": "1086",
"la": "35.99346357720",
"ln": "136.49529029000"
},
"geometry": {
"type": "Point",
"coordinates": [
136.49529029,
35.9934635772
]
}
},
{
"type": "Feature",
"properties": {
"Name": "中野清水緑地",
"Jusho": "福井県大野市中野52字の一部",
"Capacity": "620",
"la": "35.99560500000",
"ln": "136.49363800000"
},
"geometry": {
"type": "Point",
"coordinates": [
136.493638,
35.995605
]
}
},
{
"type": "Feature",
"properties": {
"Name": "多田記念大野有終会館",
"Jusho": "福井県大野市天神町1-19",
"Capacity": "827",
"la": "35.97903300000",
"ln": "136.48702200000"
},
"geometry": {
"type": "Point",
"coordinates": [
136.487022,
35.979033
]
}
},
{
"type": "Feature",
"properties": {
"Name": "エキサイト広場総合体育施設",
"Jusho": "福井県大野市桜塚町601",
"Capacity": "1031",
"la": "35.97167699910",
"ln": "136.50343100000"
},
"geometry": {
"type": "Point",
"coordinates": [
136.503431,
35.9716769991
]
}
},
{
"type": "Feature",
"properties": {
"Name": "老人福祉センター",
"Jusho": "福井県大野市清瀧133-20-1",
"Capacity": "79",
"la": "35.98455100000",
"ln": "136.48076300000"
},
"geometry": {
"type": "Point",
"coordinates": [
136.480763,
35.984551
]
}
},
{
"type": "Feature",
"properties": {
"Name": "農林業者トレーニングセンター",
"Jusho": "福井県大野市朝日34-3",
"Capacity": "331",
"la": "35.90204312150",
"ln": "136.65918307200"
},
"geometry": {
"type": "Point",
"coordinates": [
136.659183072,
35.9020431215
]
}
},
{
"type": "Feature",
"properties": {
"Name": "和泉体育館",
"Jusho": "福井県大野市上大納38-16",
"Capacity": "420",
"la": "35.88305318420",
"ln": "136.60739209200"
},
"geometry": {
"type": "Point",
"coordinates": [
136.607392092,
35.8830531842
]
}
},
{
"type": "Feature",
"properties": {
"Name": "林業者健康トレーニングセンター",
"Jusho": "福井県勝山市毛屋町1408",
"Capacity": "136",
"la": "36.04383000000",
"ln": "136.51125700000"
},
"geometry": {
"type": "Point",
"coordinates": [
136.511257,
36.04383
]
}
},
{
"type": "Feature",
"properties": {
"Name": "勝山市教育会館",
"Jusho": "福井県勝山市元町1丁目5-16",
"Capacity": "380",
"la": "36.06197400000",
"ln": "136.50103500000"
},
"geometry": {
"type": "Point",
"coordinates": [
136.501035,
36.061974
]
}
},
{
"type": "Feature",
"properties": {
"Name": "勤労婦人センター",
"Jusho": "福井県勝山市郡町3丁目415",
"Capacity": "218",
"la": "36.07325500000",
"ln": "136.49587100000"
},
"geometry": {
"type": "Point",
"coordinates": [
136.495871,
36.073255
]
}
},
{
"type": "Feature",
"properties": {
"Name": "北谷公民館",
"Jusho": "福井県勝山市北六呂師11-6",
"Capacity": "65",
"la": "36.10415100000",
"ln": "136.55445200000"
},
"geometry": {
"type": "Point",
"coordinates": [
136.554452,
36.104151
]
}
},
{
"type": "Feature",
"properties": {
"Name": "Ｂ＆Ｇ勝山海洋センター",
"Jusho": "福井県勝山市荒土町新保8-101",
"Capacity": "284",
"la": "36.07431000000",
"ln": "136.48472100000"
},
"geometry": {
"type": "Point",
"coordinates": [
136.484721,
36.07431
]
}
},
{
"type": "Feature",
"properties": {
"Name": "福祉健康センター「すこやか」",
"Jusho": "福井県勝山市郡町1丁目1-50",
"Capacity": "237",
"la": "36.06838480580",
"ln": "136.49627697100"
},
"geometry": {
"type": "Point",
"coordinates": [
136.496276971,
36.0683848058
]
}
},
{
"type": "Feature",
"properties": {
"Name": "平泉寺公民館",
"Jusho": "福井県勝山市平泉寺17-110",
"Capacity": "80",
"la": "36.03436600000",
"ln": "136.53096800000"
},
"geometry": {
"type": "Point",
"coordinates": [
136.530968,
36.034366
]
}
},
{
"type": "Feature",
"properties": {
"Name": "平泉寺児童館",
"Jusho": "福井県勝山市平泉寺167-18",
"Capacity": "83",
"la": "36.03430600000",
"ln": "136.53147400000"
},
"geometry": {
"type": "Point",
"coordinates": [
136.531474,
36.034306
]
}
},
{
"type": "Feature",
"properties": {
"Name": "猪野瀬公民館",
"Jusho": "福井県勝山市北市7-4",
"Capacity": "81",
"la": "36.04313500000",
"ln": "136.51013000000"
},
"geometry": {
"type": "Point",
"coordinates": [
136.51013,
36.043135
]
}
},
{
"type": "Feature",
"properties": {
"Name": "南児童センター",
"Jusho": "福井県勝山市元町2丁目17-25",
"Capacity": "76",
"la": "36.05516500000",
"ln": "136.50462300000"
},
"geometry": {
"type": "Point",
"coordinates": [
136.504623,
36.055165
]
}
},
{
"type": "Feature",
"properties": {
"Name": "勝山市民会館",
"Jusho": "福井県勝山市元町1丁目5-16",
"Capacity": "192",
"la": "36.06128699910",
"ln": "136.50008400000"
},
"geometry": {
"type": "Point",
"coordinates": [
136.500084,
36.0612869991
]
}
},
{
"type": "Feature",
"properties": {
"Name": "村岡公民館",
"Jusho": "福井県勝山市郡町2丁目2-7",
"Capacity": "153",
"la": "36.07154600000",
"ln": "136.50315600000"
},
"geometry": {
"type": "Point",
"coordinates": [
136.503156,
36.071546
]
}
},
{
"type": "Feature",
"properties": {
"Name": "野向公民館",
"Jusho": "福井県勝山市竜谷15-1",
"Capacity": "49",
"la": "36.09028100000",
"ln": "136.49115400000"
},
"geometry": {
"type": "Point",
"coordinates": [
136.491154,
36.090281
]
}
},
{
"type": "Feature",
"properties": {
"Name": "野向児童館",
"Jusho": "福井県勝山市竜谷50-16",
"Capacity": "53",
"la": "36.09141000000",
"ln": "136.49382900000"
},
"geometry": {
"type": "Point",
"coordinates": [
136.493829,
36.09141
]
}
},
{
"type": "Feature",
"properties": {
"Name": "荒土公民館",
"Jusho": "福井県勝山市松田8-4",
"Capacity": "55",
"la": "36.08127500000",
"ln": "136.47606800000"
},
"geometry": {
"type": "Point",
"coordinates": [
136.476068,
36.081275
]
}
},
{
"type": "Feature",
"properties": {
"Name": "荒土児童ホール",
"Jusho": "福井県勝山市松田8-3",
"Capacity": "52",
"la": "36.08147429870",
"ln": "136.47596255300"
},
"geometry": {
"type": "Point",
"coordinates": [
136.475962553,
36.0814742987
]
}
},
{
"type": "Feature",
"properties": {
"Name": "北郷公民館",
"Jusho": "福井県勝山市東野18-24",
"Capacity": "71",
"la": "36.08543300000",
"ln": "136.43452800000"
},
"geometry": {
"type": "Point",
"coordinates": [
136.434528,
36.085433
]
}
},
{
"type": "Feature",
"properties": {
"Name": "北郷児童センター",
"Jusho": "福井県勝山市坂東島29-1-1",
"Capacity": "77",
"la": "36.08627400000",
"ln": "136.41216700000"
},
"geometry": {
"type": "Point",
"coordinates": [
136.412167,
36.086274
]
}
},
{
"type": "Feature",
"properties": {
"Name": "鹿谷公民館",
"Jusho": "福井県勝山市本郷31-7",
"Capacity": "85",
"la": "36.05622178800",
"ln": "136.46434188600"
},
"geometry": {
"type": "Point",
"coordinates": [
136.464341886,
36.056221788
]
}
},
{
"type": "Feature",
"properties": {
"Name": "鹿谷児童センター",
"Jusho": "福井県勝山市本郷31-8",
"Capacity": "107",
"la": "36.05650300000",
"ln": "136.46451800000"
},
"geometry": {
"type": "Point",
"coordinates": [
136.464518,
36.056503
]
}
},
{
"type": "Feature",
"properties": {
"Name": "遅羽公民館",
"Jusho": "福井県勝山市大袋48-42",
"Capacity": "103",
"la": "36.04207500000",
"ln": "136.49499100000"
},
"geometry": {
"type": "Point",
"coordinates": [
136.494991,
36.042075
]
}
},
{
"type": "Feature",
"properties": {
"Name": "遅羽児童館",
"Jusho": "福井県勝山市大袋48-42",
"Capacity": "79",
"la": "36.04186200000",
"ln": "136.49527800000"
},
"geometry": {
"type": "Point",
"coordinates": [
136.495278,
36.041862
]
}
},
{
"type": "Feature",
"properties": {
"Name": "勤労青少年体育センター",
"Jusho": "福井県勝山市昭和町1丁目6-13",
"Capacity": "280",
"la": "36.06264200000",
"ln": "136.50558100000"
},
"geometry": {
"type": "Point",
"coordinates": [
136.505581,
36.062642
]
}
},
{
"type": "Feature",
"properties": {
"Name": "勝山市営体育館",
"Jusho": "福井県勝山市昭和町2丁目2-62",
"Capacity": "540",
"la": "36.06325100000",
"ln": "136.50824200000"
},
"geometry": {
"type": "Point",
"coordinates": [
136.508242,
36.063251
]
}
},
{
"type": "Feature",
"properties": {
"Name": "神明神社",
"Jusho": "福井県勝山市元町1丁目19-24",
"Capacity": "－",
"la": "36.05839200000",
"ln": "136.50025500000"
},
"geometry": {
"type": "Point",
"coordinates": [
136.500255,
36.058392
]
}
},
{
"type": "Feature",
"properties": {
"Name": "勝山高校グラウンド",
"Jusho": "福井県勝山市昭和町2丁目3-1",
"Capacity": "－",
"la": "36.06539100000",
"ln": "136.50779200000"
},
"geometry": {
"type": "Point",
"coordinates": [
136.507792,
36.065391
]
}
},
{
"type": "Feature",
"properties": {
"Name": "勝山南高校グラウンド",
"Jusho": "福井県勝山市昭和町3丁目1-69",
"Capacity": "－",
"la": "36.06194700000",
"ln": "136.50804200000"
},
"geometry": {
"type": "Point",
"coordinates": [
136.508042,
36.061947
]
}
},
{
"type": "Feature",
"properties": {
"Name": "浄化センタ一",
"Jusho": "福井県勝山市松原137-29",
"Capacity": "－",
"la": "36.06688800000",
"ln": "136.49204000000"
},
"geometry": {
"type": "Point",
"coordinates": [
136.49204,
36.066888
]
}
},
{
"type": "Feature",
"properties": {
"Name": "長山グラウンド",
"Jusho": "福井県勝山市長山町1丁目1-1",
"Capacity": "－",
"la": "36.06727500000",
"ln": "136.50784000000"
},
"geometry": {
"type": "Point",
"coordinates": [
136.50784,
36.067275
]
}
},
{
"type": "Feature",
"properties": {
"Name": "テラル越前農協勝山ふれあいセンター",
"Jusho": "福井県勝山市滝波町5丁目701",
"Capacity": "－",
"la": "36.07443600000",
"ln": "136.49514300000"
},
"geometry": {
"type": "Point",
"coordinates": [
136.495143,
36.074436
]
}
},
{
"type": "Feature",
"properties": {
"Name": "弁天緑地",
"Jusho": "福井県勝山市本町3",
"Capacity": "－",
"la": "36.05849300000",
"ln": "136.49526200000"
},
"geometry": {
"type": "Point",
"coordinates": [
136.495262,
36.058493
]
}
},
{
"type": "Feature",
"properties": {
"Name": "中島緑地",
"Jusho": "福井県勝山市遅羽町比島",
"Capacity": "－",
"la": "36.05150400000",
"ln": "136.49465800000"
},
"geometry": {
"type": "Point",
"coordinates": [
136.494658,
36.051504
]
}
},
{
"type": "Feature",
"properties": {
"Name": "金津高等学校",
"Jusho": "福井県あわら市市姫四丁目5-1",
"Capacity": "－",
"la": "36.20797800000",
"ln": "136.22800800000"
},
"geometry": {
"type": "Point",
"coordinates": [
136.228008,
36.207978
]
}
},
{
"type": "Feature",
"properties": {
"Name": "金津保育所",
"Jusho": "福井県あわら市春宮三丁目24-20",
"Capacity": "－",
"la": "36.21961500000",
"ln": "136.22995200000"
},
"geometry": {
"type": "Point",
"coordinates": [
136.229952,
36.219615
]
}
},
{
"type": "Feature",
"properties": {
"Name": "文化会館（旧芦原社会福祉センター）",
"Jusho": "福井県あわら市舟津7-65",
"Capacity": "－",
"la": "36.23237999910",
"ln": "136.19260600000"
},
"geometry": {
"type": "Point",
"coordinates": [
136.192606,
36.2323799991
]
}
},
{
"type": "Feature",
"properties": {
"Name": "農業者トレーニングセンター",
"Jusho": "福井県あわら市国影23-1",
"Capacity": "－",
"la": "36.22893900000",
"ln": "136.20688300000"
},
"geometry": {
"type": "Point",
"coordinates": [
136.206883,
36.228939
]
}
},
{
"type": "Feature",
"properties": {
"Name": "北潟公民館",
"Jusho": "福井県あわら市北潟150-1",
"Capacity": "－",
"la": "36.25901100000",
"ln": "136.22585200000"
},
"geometry": {
"type": "Point",
"coordinates": [
136.225852,
36.259011
]
}
},
{
"type": "Feature",
"properties": {
"Name": "浜坂区民館",
"Jusho": "福井県あわら市浜坂4-5",
"Capacity": "－",
"la": "36.28668400000",
"ln": "136.24695600000"
},
"geometry": {
"type": "Point",
"coordinates": [
136.246956,
36.286684
]
}
},
{
"type": "Feature",
"properties": {
"Name": "熊坂農村環境改善センター",
"Jusho": "福井県あわら市熊坂42-20",
"Capacity": "－",
"la": "36.23374400000",
"ln": "136.28780200000"
},
"geometry": {
"type": "Point",
"coordinates": [
136.287802,
36.233744
]
}
},
{
"type": "Feature",
"properties": {
"Name": "剱岳公民館（旧剱岳農村環境改善センター）",
"Jusho": "福井県あわら市椚18-10",
"Capacity": "－",
"la": "36.20275499910",
"ln": "136.28452300000"
},
"geometry": {
"type": "Point",
"coordinates": [
136.284523,
36.2027549991
]
}
},
{
"type": "Feature",
"properties": {
"Name": "トリムパークかなづ",
"Jusho": "福井県あわら市山室67-60-1",
"Capacity": "－",
"la": "36.21750400000",
"ln": "136.24919200000"
},
"geometry": {
"type": "Point",
"coordinates": [
136.249192,
36.217504
]
}
},
{
"type": "Feature",
"properties": {
"Name": "さくらセンター",
"Jusho": "福井県あわら市柿原36-20",
"Capacity": "－",
"la": "36.23352800000",
"ln": "136.23575000000"
},
"geometry": {
"type": "Point",
"coordinates": [
136.23575,
36.233528
]
}
},
{
"type": "Feature",
"properties": {
"Name": "越前市生涯学習センター",
"Jusho": "福井県越前市府中一丁目13-5",
"Capacity": "－",
"la": "35.90394700000",
"ln": "136.16906300000"
},
"geometry": {
"type": "Point",
"coordinates": [
136.169063,
35.903947
]
}
},
{
"type": "Feature",
"properties": {
"Name": "市役所正面駐車場",
"Jusho": "福井県越前市府中一丁目13-7",
"Capacity": "－",
"la": "35.90323055950",
"ln": "136.16888559400"
},
"geometry": {
"type": "Point",
"coordinates": [
136.168885594,
35.9032305595
]
}
},
{
"type": "Feature",
"properties": {
"Name": "平和堂４Ｆフロアー",
"Jusho": "福井県越前市府中一丁目11-2",
"Capacity": "－",
"la": "35.90457900000",
"ln": "136.17021500000"
},
"geometry": {
"type": "Point",
"coordinates": [
136.170215,
35.904579
]
}
},
{
"type": "Feature",
"properties": {
"Name": "立体交差下広場",
"Jusho": "福井県越前市吾妻町1",
"Capacity": "－",
"la": "35.90069200000",
"ln": "136.17085600000"
},
"geometry": {
"type": "Point",
"coordinates": [
136.170856,
35.900692
]
}
},
{
"type": "Feature",
"properties": {
"Name": "スミヨシパーク（矢佐駐車場）",
"Jusho": "福井県越前市住吉町1-38",
"Capacity": "－",
"la": "35.89969800000",
"ln": "136.17057200000"
},
"geometry": {
"type": "Point",
"coordinates": [
136.170572,
35.899698
]
}
},
{
"type": "Feature",
"properties": {
"Name": "堀川町ふれあい会館",
"Jusho": "福井県越前市堀川町4-18",
"Capacity": "－",
"la": "35.89972600000",
"ln": "136.17198900000"
},
"geometry": {
"type": "Point",
"coordinates": [
136.171989,
35.899726
]
}
},
{
"type": "Feature",
"properties": {
"Name": "武生駅北パーキング",
"Jusho": "福井県越前市府中一丁目",
"Capacity": "－",
"la": "35.90552200000",
"ln": "136.17025100000"
},
"geometry": {
"type": "Point",
"coordinates": [
136.170251,
35.905522
]
}
},
{
"type": "Feature",
"properties": {
"Name": "ＪＲ駅東駐車場",
"Jusho": "福井県越前市錦町、万代町",
"Capacity": "－",
"la": "35.90332100000",
"ln": "136.17154600000"
},
"geometry": {
"type": "Point",
"coordinates": [
136.171546,
35.903321
]
}
},
{
"type": "Feature",
"properties": {
"Name": "日信化学グラウンド",
"Jusho": "福井県越前市万代町10",
"Capacity": "－",
"la": "35.90726800000",
"ln": "136.17117400000"
},
"geometry": {
"type": "Point",
"coordinates": [
136.171174,
35.907268
]
}
},
{
"type": "Feature",
"properties": {
"Name": "東保育園",
"Jusho": "福井県越前市万代町9-5",
"Capacity": "－",
"la": "35.90581700000",
"ln": "136.17170500000"
},
"geometry": {
"type": "Point",
"coordinates": [
136.171705,
35.905817
]
}
},
{
"type": "Feature",
"properties": {
"Name": "八坂神社境内",
"Jusho": "福井県越前市天王町5",
"Capacity": "－",
"la": "35.90035000000",
"ln": "136.16771500000"
},
"geometry": {
"type": "Point",
"coordinates": [
136.167715,
35.90035
]
}
},
{
"type": "Feature",
"properties": {
"Name": "蔵の辻広場",
"Jusho": "福井県越前市蓬莱町3-10",
"Capacity": "－",
"la": "35.90275326180",
"ln": "136.16618458000"
},
"geometry": {
"type": "Point",
"coordinates": [
136.16618458,
35.9027532618
]
}
},
{
"type": "Feature",
"properties": {
"Name": "越前市まちなか無料駐車場",
"Jusho": "福井県越前市幸町3-16",
"Capacity": "－",
"la": "35.90363300000",
"ln": "136.16693100000"
},
"geometry": {
"type": "Point",
"coordinates": [
136.166931,
35.903633
]
}
},
{
"type": "Feature",
"properties": {
"Name": "本興寺境内",
"Jusho": "福井県越前市国府一丁目4-13",
"Capacity": "－",
"la": "35.90513000000",
"ln": "136.16667700000"
},
"geometry": {
"type": "Point",
"coordinates": [
136.166677,
35.90513
]
}
},
{
"type": "Feature",
"properties": {
"Name": "市民ホール",
"Jusho": "福井県越前市府中1丁目13-15",
"Capacity": "－",
"la": "35.90384396630",
"ln": "136.16907257800"
},
"geometry": {
"type": "Point",
"coordinates": [
136.169072578,
35.9038439663
]
}
},
{
"type": "Feature",
"properties": {
"Name": "南越清掃組合第一清掃センター",
"Jusho": "福井県越前市北府一丁目3-20",
"Capacity": "－",
"la": "35.91714000000",
"ln": "136.17336200000"
},
"geometry": {
"type": "Point",
"coordinates": [
136.173362,
35.91714
]
}
},
{
"type": "Feature",
"properties": {
"Name": "越前外科内科病院",
"Jusho": "福井県越前市北府二丁目12-13",
"Capacity": "－",
"la": "35.91373600000",
"ln": "136.16633000000"
},
"geometry": {
"type": "Point",
"coordinates": [
136.16633,
35.913736
]
}
},
{
"type": "Feature",
"properties": {
"Name": "信越石英駐車場",
"Jusho": "福井県越前市北府二丁目10-6",
"Capacity": "－",
"la": "35.91250300000",
"ln": "136.16710200000"
},
"geometry": {
"type": "Point",
"coordinates": [
136.167102,
35.912503
]
}
},
{
"type": "Feature",
"properties": {
"Name": "喫茶マックスロード南側駐車場",
"Jusho": "福井県越前市北府三丁目10",
"Capacity": "－",
"la": "35.91300800000",
"ln": "136.16550200000"
},
"geometry": {
"type": "Point",
"coordinates": [
136.165502,
35.913008
]
}
},
{
"type": "Feature",
"properties": {
"Name": "ＪＡ越前たけふ農協会館",
"Jusho": "福井県越前市本多二丁目10-22",
"Capacity": "－",
"la": "35.90869700000",
"ln": "136.16479500000"
},
"geometry": {
"type": "Point",
"coordinates": [
136.164795,
35.908697
]
}
},
{
"type": "Feature",
"properties": {
"Name": "月極有明パーキング駐車場",
"Jusho": "福井県越前市桂町5",
"Capacity": "－",
"la": "35.90503500000",
"ln": "136.16533500000"
},
"geometry": {
"type": "Point",
"coordinates": [
136.165335,
35.905035
]
}
},
{
"type": "Feature",
"properties": {
"Name": "ＪＡ越前たけふ農協会館南駐車場",
"Jusho": "福井県越前市本多二丁目10-22",
"Capacity": "－",
"la": "35.90834500000",
"ln": "136.16490500000"
},
"geometry": {
"type": "Point",
"coordinates": [
136.164905,
35.908345
]
}
},
{
"type": "Feature",
"properties": {
"Name": "藤垣神社境内",
"Jusho": "福井県越前市本多三丁目3-1",
"Capacity": "－",
"la": "35.90727272130",
"ln": "136.16292597100"
},
"geometry": {
"type": "Point",
"coordinates": [
136.162925971,
35.9072727213
]
}
},
{
"type": "Feature",
"properties": {
"Name": "陽願寺境内",
"Jusho": "福井県越前市本町3-10",
"Capacity": "－",
"la": "35.89963100000",
"ln": "136.16442600000"
},
"geometry": {
"type": "Point",
"coordinates": [
136.164426,
35.899631
]
}
},
{
"type": "Feature",
"properties": {
"Name": "円徳寺前駐車場",
"Jusho": "福井県越前市元町4-4",
"Capacity": "－",
"la": "35.90057100000",
"ln": "136.16396600000"
},
"geometry": {
"type": "Point",
"coordinates": [
136.163966,
35.900571
]
}
},
{
"type": "Feature",
"properties": {
"Name": "総社大神宮南側正覚寺前駐車場広場",
"Jusho": "福井県越前市京町一丁目2-30",
"Capacity": "－",
"la": "35.90340500000",
"ln": "136.16453100000"
},
"geometry": {
"type": "Point",
"coordinates": [
136.164531,
35.903405
]
}
},
{
"type": "Feature",
"properties": {
"Name": "正覚寺駐車場",
"Jusho": "福井県越前市京町二丁目55-6",
"Capacity": "－",
"la": "35.90232000000",
"ln": "136.16276700000"
},
"geometry": {
"type": "Point",
"coordinates": [
136.162767,
35.90232
]
}
},
{
"type": "Feature",
"properties": {
"Name": "引接寺本堂内",
"Jusho": "福井県越前市京町三丁目3-5",
"Capacity": "－",
"la": "35.90362000000",
"ln": "136.16188100000"
},
"geometry": {
"type": "Point",
"coordinates": [
136.161881,
35.90362
]
}
},
{
"type": "Feature",
"properties": {
"Name": "御霊神社境内",
"Jusho": "福井県越前市本多一丁目3-1",
"Capacity": "－",
"la": "35.90493800000",
"ln": "136.16311700000"
},
"geometry": {
"type": "Point",
"coordinates": [
136.163117,
35.904938
]
}
},
{
"type": "Feature",
"properties": {
"Name": "交流会館みどり広場",
"Jusho": "福井県越前市平和町7-24",
"Capacity": "－",
"la": "35.89963300000",
"ln": "136.16359900000"
},
"geometry": {
"type": "Point",
"coordinates": [
136.163599,
35.899633
]
}
},
{
"type": "Feature",
"properties": {
"Name": "太田会館",
"Jusho": "福井県越前市若松町5-37",
"Capacity": "－",
"la": "35.90084700000",
"ln": "136.16228500000"
},
"geometry": {
"type": "Point",
"coordinates": [
136.162285,
35.900847
]
}
},
{
"type": "Feature",
"properties": {
"Name": "八幡神社境内高瀬ふれあい会館前",
"Jusho": "福井県越前市高瀬一丁目25",
"Capacity": "－",
"la": "35.89473700000",
"ln": "136.15935300000"
},
"geometry": {
"type": "Point",
"coordinates": [
136.159353,
35.894737
]
}
},
{
"type": "Feature",
"properties": {
"Name": "河濯山境内",
"Jusho": "福井県越前市高瀬二丁目5",
"Capacity": "－",
"la": "35.89819500000",
"ln": "136.16074800000"
},
"geometry": {
"type": "Point",
"coordinates": [
136.160748,
35.898195
]
}
},
{
"type": "Feature",
"properties": {
"Name": "武生西幼稚園前",
"Jusho": "福井県越前市中央二丁目2-13",
"Capacity": "－",
"la": "35.90192100000",
"ln": "136.15795800000"
},
"geometry": {
"type": "Point",
"coordinates": [
136.157958,
35.901921
]
}
},
{
"type": "Feature",
"properties": {
"Name": "忠霊塔前広場",
"Jusho": "福井県越前市深草一丁目25",
"Capacity": "－",
"la": "35.90282400000",
"ln": "136.16027400000"
},
"geometry": {
"type": "Point",
"coordinates": [
136.160274,
35.902824
]
}
},
{
"type": "Feature",
"properties": {
"Name": "金剛院境内",
"Jusho": "福井県越前市深草二丁目2-37",
"Capacity": "－",
"la": "35.90552600000",
"ln": "136.16079900000"
},
"geometry": {
"type": "Point",
"coordinates": [
136.160799,
35.905526
]
}
},
{
"type": "Feature",
"properties": {
"Name": "枚井手神社",
"Jusho": "福井県越前市深草二丁目6",
"Capacity": "－",
"la": "35.90652600000",
"ln": "136.16187600000"
},
"geometry": {
"type": "Point",
"coordinates": [
136.161876,
35.906526
]
}
},
{
"type": "Feature",
"properties": {
"Name": "コープ武生平出店",
"Jusho": "福井県越前市平出二丁目1-10",
"Capacity": "－",
"la": "35.90979707120",
"ln": "136.16246688800"
},
"geometry": {
"type": "Point",
"coordinates": [
136.162466888,
35.9097970712
]
}
},
{
"type": "Feature",
"properties": {
"Name": "サンパレス稲葉Ⅰ",
"Jusho": "福井県越前市北千福町8",
"Capacity": "－",
"la": "35.90016200000",
"ln": "136.15272900000"
},
"geometry": {
"type": "Point",
"coordinates": [
136.152729,
35.900162
]
}
},
{
"type": "Feature",
"properties": {
"Name": "サンパレス稲葉Ⅱ",
"Jusho": "福井県越前市北千福町101",
"Capacity": "－",
"la": "35.89772100000",
"ln": "136.15138700000"
},
"geometry": {
"type": "Point",
"coordinates": [
136.151387,
35.897721
]
}
},
{
"type": "Feature",
"properties": {
"Name": "市営上太田住宅",
"Jusho": "福井県越前市上太田町11-2",
"Capacity": "－",
"la": "35.90065400000",
"ln": "136.15102800000"
},
"geometry": {
"type": "Point",
"coordinates": [
136.151028,
35.900654
]
}
},
{
"type": "Feature",
"properties": {
"Name": "日吉神社境内",
"Jusho": "福井県越前市新町7-3",
"Capacity": "－",
"la": "35.90357000000",
"ln": "136.15173100000"
},
"geometry": {
"type": "Point",
"coordinates": [
136.151731,
35.90357
]
}
},
{
"type": "Feature",
"properties": {
"Name": "ふるさと会館",
"Jusho": "福井県越前市沢町2-3-4",
"Capacity": "－",
"la": "35.89284100000",
"ln": "136.15142100000"
},
"geometry": {
"type": "Point",
"coordinates": [
136.151421,
35.892841
]
}
},
{
"type": "Feature",
"properties": {
"Name": "町内遊園地",
"Jusho": "福井県越前市南一丁目6-4",
"Capacity": "－",
"la": "35.88993106930",
"ln": "136.16538340600"
},
"geometry": {
"type": "Point",
"coordinates": [
136.165383406,
35.8899310693
]
}
},
{
"type": "Feature",
"properties": {
"Name": "上総社（神明神社）境内",
"Jusho": "福井県越前市若竹町11",
"Capacity": "－",
"la": "35.89264000000",
"ln": "136.16690200000"
},
"geometry": {
"type": "Point",
"coordinates": [
136.166902,
35.89264
]
}
},
{
"type": "Feature",
"properties": {
"Name": "南公民館別館（武生南幼稚園）",
"Jusho": "福井県越前市武生柳町12-32",
"Capacity": "－",
"la": "35.89562600000",
"ln": "136.16404000000"
},
"geometry": {
"type": "Point",
"coordinates": [
136.16404,
35.895626
]
}
},
{
"type": "Feature",
"properties": {
"Name": "武生南公民館",
"Jusho": "福井県越前市武生柳町12-27",
"Capacity": "－",
"la": "35.89534500000",
"ln": "136.16406000000"
},
"geometry": {
"type": "Point",
"coordinates": [
136.16406,
35.895345
]
}
},
{
"type": "Feature",
"properties": {
"Name": "武生南児童センター",
"Jusho": "福井県越前市武生柳町12-28",
"Capacity": "－",
"la": "35.89555800000",
"ln": "136.16472200000"
},
"geometry": {
"type": "Point",
"coordinates": [
136.164722,
35.895558
]
}
},
{
"type": "Feature",
"properties": {
"Name": "円宮寺",
"Jusho": "福井県越前市あおば町2-41",
"Capacity": "－",
"la": "35.89700800000",
"ln": "136.16701100000"
},
"geometry": {
"type": "Point",
"coordinates": [
136.167011,
35.897008
]
}
},
{
"type": "Feature",
"properties": {
"Name": "神明町多目的広場",
"Jusho": "福井県越前市神明町4-4",
"Capacity": "－",
"la": "35.89872900000",
"ln": "136.16811900000"
},
"geometry": {
"type": "Point",
"coordinates": [
136.168119,
35.898729
]
}
},
{
"type": "Feature",
"properties": {
"Name": "杉本スリッパ東空き地",
"Jusho": "福井県越前市豊町7",
"Capacity": "－",
"la": "35.89586800000",
"ln": "136.16848000000"
},
"geometry": {
"type": "Point",
"coordinates": [
136.16848,
35.895868
]
}
},
{
"type": "Feature",
"properties": {
"Name": "姫川町生活改善センター",
"Jusho": "福井県越前市姫川二丁目13-33",
"Capacity": "－",
"la": "35.89284800000",
"ln": "136.16965900000"
},
"geometry": {
"type": "Point",
"coordinates": [
136.169659,
35.892848
]
}
},
{
"type": "Feature",
"properties": {
"Name": "文一会館",
"Jusho": "福井県越前市文京一丁目12",
"Capacity": "－",
"la": "35.89037400000",
"ln": "136.16170100000"
},
"geometry": {
"type": "Point",
"coordinates": [
136.161701,
35.890374
]
}
},
{
"type": "Feature",
"properties": {
"Name": "文一会館南側空き地",
"Jusho": "福井県越前市文京一丁目12",
"Capacity": "－",
"la": "35.89014800000",
"ln": "136.16173000000"
},
"geometry": {
"type": "Point",
"coordinates": [
136.16173,
35.890148
]
}
},
{
"type": "Feature",
"properties": {
"Name": "中狭慈心寺観音堂",
"Jusho": "福井県越前市御幸町8",
"Capacity": "－",
"la": "35.89656100000",
"ln": "136.16321300000"
},
"geometry": {
"type": "Point",
"coordinates": [
136.163213,
35.896561
]
}
},
{
"type": "Feature",
"properties": {
"Name": "東千福町公民館",
"Jusho": "福井県越前市東千福町12-34",
"Capacity": "－",
"la": "35.89054100000",
"ln": "136.15885600000"
},
"geometry": {
"type": "Point",
"coordinates": [
136.158856,
35.890541
]
}
},
{
"type": "Feature",
"properties": {
"Name": "行松会館",
"Jusho": "福井県越前市行松町20-15-1",
"Capacity": "－",
"la": "35.88049100000",
"ln": "136.16592900000"
},
"geometry": {
"type": "Point",
"coordinates": [
136.165929,
35.880491
]
}
},
{
"type": "Feature",
"properties": {
"Name": "妙法寺町改善センター",
"Jusho": "福井県越前市妙法寺町17-52",
"Capacity": "－",
"la": "35.87864300000",
"ln": "136.15850100000"
},
"geometry": {
"type": "Point",
"coordinates": [
136.158501,
35.878643
]
}
},
{
"type": "Feature",
"properties": {
"Name": "安證寺境内",
"Jusho": "福井県越前市妙法寺町14-41",
"Capacity": "－",
"la": "35.87794600000",
"ln": "136.15754500000"
},
"geometry": {
"type": "Point",
"coordinates": [
136.157545,
35.877946
]
}
},
{
"type": "Feature",
"properties": {
"Name": "十府神社境内",
"Jusho": "福井県越前市松森町21",
"Capacity": "－",
"la": "35.88162300000",
"ln": "136.16523700000"
},
"geometry": {
"type": "Point",
"coordinates": [
136.165237,
35.881623
]
}
},
{
"type": "Feature",
"properties": {
"Name": "月見地蔵境内",
"Jusho": "福井県越前市松森町23",
"Capacity": "－",
"la": "35.88171800000",
"ln": "136.16640200000"
},
"geometry": {
"type": "Point",
"coordinates": [
136.166402,
35.881718
]
}
},
{
"type": "Feature",
"properties": {
"Name": "ふれあい会館",
"Jusho": "福井県越前市月見町25",
"Capacity": "－",
"la": "35.87905700000",
"ln": "136.16243500000"
},
"geometry": {
"type": "Point",
"coordinates": [
136.162435,
35.879057
]
}
},
{
"type": "Feature",
"properties": {
"Name": "武生工業高校体育館",
"Jusho": "福井県越前市文京一丁目14-16",
"Capacity": "－",
"la": "35.88892800000",
"ln": "136.16226800000"
},
"geometry": {
"type": "Point",
"coordinates": [
136.162268,
35.888928
]
}
},
{
"type": "Feature",
"properties": {
"Name": "常久町集会場",
"Jusho": "福井県越前市常久町",
"Capacity": "－",
"la": "35.88474838940",
"ln": "136.16380961700"
},
"geometry": {
"type": "Point",
"coordinates": [
136.163809617,
35.8847483894
]
}
},
{
"type": "Feature",
"properties": {
"Name": "日埜神社境内",
"Jusho": "福井県越前市常久町2-2",
"Capacity": "－",
"la": "35.88470000000",
"ln": "136.16360000000"
},
"geometry": {
"type": "Point",
"coordinates": [
136.1636,
35.8847
]
}
},
{
"type": "Feature",
"properties": {
"Name": "土川医院前",
"Jusho": "福井県越前市常久町8-1",
"Capacity": "－",
"la": "35.88853700000",
"ln": "136.16343100000"
},
"geometry": {
"type": "Point",
"coordinates": [
136.163431,
35.888537
]
}
},
{
"type": "Feature",
"properties": {
"Name": "千福町民センター広場",
"Jusho": "福井県越前市千福町252",
"Capacity": "－",
"la": "35.88906700000",
"ln": "136.15465000000"
},
"geometry": {
"type": "Point",
"coordinates": [
136.15465,
35.889067
]
}
},
{
"type": "Feature",
"properties": {
"Name": "岡本町住民センター（前広場）",
"Jusho": "福井県越前市岡本町7-10-4",
"Capacity": "－",
"la": "35.89598900000",
"ln": "136.14612600000"
},
"geometry": {
"type": "Point",
"coordinates": [
136.146126,
35.895989
]
}
},
{
"type": "Feature",
"properties": {
"Name": "上広瀬ふれあい会館",
"Jusho": "福井県越前市広瀬町96-101",
"Capacity": "－",
"la": "35.88853154950",
"ln": "136.13267050300"
},
"geometry": {
"type": "Point",
"coordinates": [
136.132670503,
35.8885315495
]
}
},
{
"type": "Feature",
"properties": {
"Name": "追分三叉路広場",
"Jusho": "福井県越前市広瀬町166",
"Capacity": "－",
"la": "35.88373200000",
"ln": "136.12552900000"
},
"geometry": {
"type": "Point",
"coordinates": [
136.125529,
35.883732
]
}
},
{
"type": "Feature",
"properties": {
"Name": "越前市勤労者研修センター（ワークステップひろせ）",
"Jusho": "福井県越前市広瀬町141-1-1",
"Capacity": "－",
"la": "35.88959200000",
"ln": "136.14464100000"
},
"geometry": {
"type": "Point",
"coordinates": [
136.144641,
35.889592
]
}
},
{
"type": "Feature",
"properties": {
"Name": "龍神庭園",
"Jusho": "福井県越前市広瀬町10-18",
"Capacity": "－",
"la": "35.88717921060",
"ln": "136.13832899800"
},
"geometry": {
"type": "Point",
"coordinates": [
136.138328998,
35.8871792106
]
}
},
{
"type": "Feature",
"properties": {
"Name": "武生森林組合資材置場",
"Jusho": "福井県越前市広瀬町",
"Capacity": "－",
"la": "35.88759603880",
"ln": "136.14454135700"
},
"geometry": {
"type": "Point",
"coordinates": [
136.144541357,
35.8875960388
]
}
},
{
"type": "Feature",
"properties": {
"Name": "馬塚住宅改善センター",
"Jusho": "福井県越前市広瀬町161-5-2",
"Capacity": "－",
"la": "35.88989100000",
"ln": "136.15199400000"
},
"geometry": {
"type": "Point",
"coordinates": [
136.151994,
35.889891
]
}
},
{
"type": "Feature",
"properties": {
"Name": "池の上勤労者スポーツセンター",
"Jusho": "福井県越前市池ノ上町31-18-3",
"Capacity": "－",
"la": "35.87723000000",
"ln": "136.13881600000"
},
"geometry": {
"type": "Point",
"coordinates": [
136.138816,
35.87723
]
}
},
{
"type": "Feature",
"properties": {
"Name": "ひばりが丘公民館",
"Jusho": "福井県越前市広瀬ひばりが丘",
"Capacity": "－",
"la": "35.88126321640",
"ln": "136.12518099400"
},
"geometry": {
"type": "Point",
"coordinates": [
136.125180994,
35.8812632164
]
}
},
{
"type": "Feature",
"properties": {
"Name": "向が丘町ふれあい会館",
"Jusho": "福井県越前市向が丘町802",
"Capacity": "－",
"la": "35.89259400000",
"ln": "136.13594500000"
},
"geometry": {
"type": "Point",
"coordinates": [
136.135945,
35.892594
]
}
},
{
"type": "Feature",
"properties": {
"Name": "新小野町公民館",
"Jusho": "福井県越前市広瀬町117-1-34",
"Capacity": "－",
"la": "35.89242411840",
"ln": "136.13960930400"
},
"geometry": {
"type": "Point",
"coordinates": [
136.139609304,
35.8924241184
]
}
},
{
"type": "Feature",
"properties": {
"Name": "本保町生活改善センター",
"Jusho": "福井県越前市本保町地係",
"Capacity": "－",
"la": "35.92621839480",
"ln": "136.15771561700"
},
"geometry": {
"type": "Point",
"coordinates": [
136.157715617,
35.9262183948
]
}
},
{
"type": "Feature",
"properties": {
"Name": "片屋町生活改善センター",
"Jusho": "福井県越前市片屋町17-23",
"Capacity": "－",
"la": "35.92173800000",
"ln": "136.14691200000"
},
"geometry": {
"type": "Point",
"coordinates": [
136.146912,
35.921738
]
}
},
{
"type": "Feature",
"properties": {
"Name": "氷坂町生活改善センター",
"Jusho": "福井県越前市氷坂町47-17",
"Capacity": "－",
"la": "35.92768400000",
"ln": "136.14074100000"
},
"geometry": {
"type": "Point",
"coordinates": [
136.140741,
35.927684
]
}
},
{
"type": "Feature",
"properties": {
"Name": "ファミールほのか前駐車場",
"Jusho": "福井県越前市氷坂町46-41-2",
"Capacity": "－",
"la": "35.92493000000",
"ln": "136.14730200000"
},
"geometry": {
"type": "Point",
"coordinates": [
136.147302,
35.92493
]
}
},
{
"type": "Feature",
"properties": {
"Name": "余田町公民館",
"Jusho": "福井県越前市余田町34-7",
"Capacity": "－",
"la": "35.93282500000",
"ln": "136.14448800000"
},
"geometry": {
"type": "Point",
"coordinates": [
136.144488,
35.932825
]
}
},
{
"type": "Feature",
"properties": {
"Name": "福井県丹南運転教育センター駐車場",
"Jusho": "福井県越前市余田町2-1-1",
"Capacity": "－",
"la": "35.93545600000",
"ln": "136.15412600000"
},
"geometry": {
"type": "Point",
"coordinates": [
136.154126,
35.935456
]
}
},
{
"type": "Feature",
"properties": {
"Name": "コミニュティーセンター柳荘",
"Jusho": "福井県越前市家久町105-10-2",
"Capacity": "－",
"la": "35.92047700000",
"ln": "136.17174400000"
},
"geometry": {
"type": "Point",
"coordinates": [
136.171744,
35.920477
]
}
},
{
"type": "Feature",
"properties": {
"Name": "多目的グラウンド",
"Jusho": "福井県越前市家久町105-10-2",
"Capacity": "－",
"la": "35.91999800000",
"ln": "136.17301100000"
},
"geometry": {
"type": "Point",
"coordinates": [
136.173011,
35.919998
]
}
},
{
"type": "Feature",
"properties": {
"Name": "吉野児童センター",
"Jusho": "福井県越前市家久町105-23",
"Capacity": "－",
"la": "35.92095700000",
"ln": "136.17166200000"
},
"geometry": {
"type": "Point",
"coordinates": [
136.171662,
35.920957
]
}
},
{
"type": "Feature",
"properties": {
"Name": "家久農村婦人の家駐車場",
"Jusho": "福井県越前市家久町78-56-2",
"Capacity": "－",
"la": "35.92698100000",
"ln": "136.17133500000"
},
"geometry": {
"type": "Point",
"coordinates": [
136.171335,
35.926981
]
}
},
{
"type": "Feature",
"properties": {
"Name": "（株）シャトル敷地内",
"Jusho": "福井県越前市家久町87-21-1",
"Capacity": "－",
"la": "35.92425900000",
"ln": "136.17160800000"
},
"geometry": {
"type": "Point",
"coordinates": [
136.171608,
35.924259
]
}
},
{
"type": "Feature",
"properties": {
"Name": "家久保育園",
"Jusho": "福井県越前市家久町94-2-1",
"Capacity": "－",
"la": "35.92240100000",
"ln": "136.16713500000"
},
"geometry": {
"type": "Point",
"coordinates": [
136.167135,
35.922401
]
}
},
{
"type": "Feature",
"properties": {
"Name": "市営家久団地２、３Ｆ",
"Jusho": "福井県越前市家久町803",
"Capacity": "－",
"la": "35.92433200000",
"ln": "136.16768500000"
},
"geometry": {
"type": "Point",
"coordinates": [
136.167685,
35.924332
]
}
},
{
"type": "Feature",
"properties": {
"Name": "家久町公民館",
"Jusho": "福井県越前市家久町71-34-11",
"Capacity": "－",
"la": "35.92536800000",
"ln": "136.16920400000"
},
"geometry": {
"type": "Point",
"coordinates": [
136.169204,
35.925368
]
}
},
{
"type": "Feature",
"properties": {
"Name": "聞法寺駐車場",
"Jusho": "福井県越前市家久町71-26",
"Capacity": "－",
"la": "35.92640200000",
"ln": "136.16851900000"
},
"geometry": {
"type": "Point",
"coordinates": [
136.168519,
35.926402
]
}
},
{
"type": "Feature",
"properties": {
"Name": "本承寺",
"Jusho": "福井県越前市家久町70-7",
"Capacity": "－",
"la": "35.92525138920",
"ln": "136.16811096100"
},
"geometry": {
"type": "Point",
"coordinates": [
136.168110961,
35.9252513892
]
}
},
{
"type": "Feature",
"properties": {
"Name": "武生商業高校",
"Jusho": "福井県越前市家久町24",
"Capacity": "－",
"la": "35.93162199910",
"ln": "136.16877300000"
},
"geometry": {
"type": "Point",
"coordinates": [
136.168773,
35.9316219991
]
}
},
{
"type": "Feature",
"properties": {
"Name": "南芝原公民館",
"Jusho": "福井県越前市芝原一丁目12-3",
"Capacity": "－",
"la": "35.91818868510",
"ln": "136.16143456500"
},
"geometry": {
"type": "Point",
"coordinates": [
136.161434565,
35.9181886851
]
}
},
{
"type": "Feature",
"properties": {
"Name": "芝原三丁目ふれあい会館",
"Jusho": "福井県越前市芝原三丁目125",
"Capacity": "－",
"la": "35.91700500000",
"ln": "136.15898700000"
},
"geometry": {
"type": "Point",
"coordinates": [
136.158987,
35.917005
]
}
},
{
"type": "Feature",
"properties": {
"Name": "芝原ふれあい会館",
"Jusho": "福井県越前市芝原五丁目16-5",
"Capacity": "－",
"la": "35.92402100000",
"ln": "136.16353000000"
},
"geometry": {
"type": "Point",
"coordinates": [
136.16353,
35.924021
]
}
},
{
"type": "Feature",
"properties": {
"Name": "川端電気店駐車場",
"Jusho": "福井県越前市芝原二丁目2-24",
"Capacity": "－",
"la": "35.92025538370",
"ln": "136.16447576500"
},
"geometry": {
"type": "Point",
"coordinates": [
136.164475765,
35.9202553837
]
}
},
{
"type": "Feature",
"properties": {
"Name": "ハーツウイング職員駐車場",
"Jusho": "福井県越前市芝原四丁目4",
"Capacity": "－",
"la": "35.91895700000",
"ln": "136.15900900000"
},
"geometry": {
"type": "Point",
"coordinates": [
136.159009,
35.918957
]
}
},
{
"type": "Feature",
"properties": {
"Name": "飯部磐座神社参道前",
"Jusho": "福井県越前市芝原五丁目",
"Capacity": "－",
"la": "35.92384388190",
"ln": "136.16380505800"
},
"geometry": {
"type": "Point",
"coordinates": [
136.163805058,
35.9238438819
]
}
},
{
"type": "Feature",
"properties": {
"Name": "ゲートボール場",
"Jusho": "福井県越前市芝原五丁目",
"Capacity": "－",
"la": "35.92198236730",
"ln": "136.16263530800"
},
"geometry": {
"type": "Point",
"coordinates": [
136.162635308,
35.9219823673
]
}
},
{
"type": "Feature",
"properties": {
"Name": "コミュニティセンター村国",
"Jusho": "福井県越前市村国一丁目75-44",
"Capacity": "－",
"la": "35.90548600000",
"ln": "136.18047900000"
},
"geometry": {
"type": "Point",
"coordinates": [
136.180479,
35.905486
]
}
},
{
"type": "Feature",
"properties": {
"Name": "旧ＪＡ国高支所駐車場",
"Jusho": "福井県越前市村国四丁目9-5",
"Capacity": "－",
"la": "35.91506700000",
"ln": "136.18389600000"
},
"geometry": {
"type": "Point",
"coordinates": [
136.183896,
35.915067
]
}
},
{
"type": "Feature",
"properties": {
"Name": "県立武生高等学校",
"Jusho": "福井県越前市八幡一丁目25-15",
"Capacity": "－",
"la": "35.91040299910",
"ln": "136.17580100000"
},
"geometry": {
"type": "Point",
"coordinates": [
136.175801,
35.9104029991
]
}
},
{
"type": "Feature",
"properties": {
"Name": "八幡会館",
"Jusho": "福井県越前市八幡一丁目",
"Capacity": "－",
"la": "35.91380900000",
"ln": "136.17815200000"
},
"geometry": {
"type": "Point",
"coordinates": [
136.178152,
35.913809
]
}
},
{
"type": "Feature",
"properties": {
"Name": "国高公民館",
"Jusho": "福井県越前市国高二丁目324-13",
"Capacity": "－",
"la": "35.91125800000",
"ln": "136.18980700000"
},
"geometry": {
"type": "Point",
"coordinates": [
136.189807,
35.911258
]
}
},
{
"type": "Feature",
"properties": {
"Name": "国高児童センター",
"Jusho": "福井県越前市国高二丁目325-3",
"Capacity": "－",
"la": "35.91084599910",
"ln": "136.18943500000"
},
"geometry": {
"type": "Point",
"coordinates": [
136.189435,
35.9108459991
]
}
},
{
"type": "Feature",
"properties": {
"Name": "式部ふれあい館",
"Jusho": "福井県越前市国高一丁目13-11",
"Capacity": "－",
"la": "35.91236700000",
"ln": "136.18488200000"
},
"geometry": {
"type": "Point",
"coordinates": [
136.184882,
35.912367
]
}
},
{
"type": "Feature",
"properties": {
"Name": "押田ふれあい会館",
"Jusho": "福井県越前市押田二丁目",
"Capacity": "－",
"la": "35.90351000000",
"ln": "136.18775800000"
},
"geometry": {
"type": "Point",
"coordinates": [
136.187758,
35.90351
]
}
},
{
"type": "Feature",
"properties": {
"Name": "了慶寺",
"Jusho": "福井県越前市押田二丁目8-31",
"Capacity": "－",
"la": "35.90268600000",
"ln": "136.18831700000"
},
"geometry": {
"type": "Point",
"coordinates": [
136.188317,
35.902686
]
}
},
{
"type": "Feature",
"properties": {
"Name": "雇用促進住宅駐車場",
"Jusho": "福井県越前市国高三丁目14-6-1",
"Capacity": "－",
"la": "35.91364300000",
"ln": "136.18687700000"
},
"geometry": {
"type": "Point",
"coordinates": [
136.186877,
35.913643
]
}
},
{
"type": "Feature",
"properties": {
"Name": "横市町集落センター",
"Jusho": "福井県越前市横市町33-35-4",
"Capacity": "－",
"la": "35.90617500000",
"ln": "136.19327900000"
},
"geometry": {
"type": "Point",
"coordinates": [
136.193279,
35.906175
]
}
},
{
"type": "Feature",
"properties": {
"Name": "庄町公民館",
"Jusho": "福井県越前市庄町32-3",
"Capacity": "－",
"la": "35.90491300000",
"ln": "136.20038100000"
},
"geometry": {
"type": "Point",
"coordinates": [
136.200381,
35.904913
]
}
},
{
"type": "Feature",
"properties": {
"Name": "瀧雅駐車場",
"Jusho": "福井県越前市庄町43-2",
"Capacity": "－",
"la": "35.90294600000",
"ln": "136.19786600000"
},
"geometry": {
"type": "Point",
"coordinates": [
136.197866,
35.902946
]
}
},
{
"type": "Feature",
"properties": {
"Name": "塚町会館",
"Jusho": "福井県越前市塚町50-58",
"Capacity": "－",
"la": "35.91353300000",
"ln": "136.19859400000"
},
"geometry": {
"type": "Point",
"coordinates": [
136.198594,
35.913533
]
}
},
{
"type": "Feature",
"properties": {
"Name": "八幡神社境内",
"Jusho": "福井県越前市馬上免町6-2",
"Capacity": "－",
"la": "35.91698900000",
"ln": "136.18411100000"
},
"geometry": {
"type": "Point",
"coordinates": [
136.184111,
35.916989
]
}
},
{
"type": "Feature",
"properties": {
"Name": "八幡神社",
"Jusho": "福井県越前市稲寄町9-1-2",
"Capacity": "－",
"la": "35.91945000000",
"ln": "136.18112900000"
},
"geometry": {
"type": "Point",
"coordinates": [
136.181129,
35.91945
]
}
},
{
"type": "Feature",
"properties": {
"Name": "稲寄町公民館",
"Jusho": "福井県越前市稲寄町9-3",
"Capacity": "－",
"la": "35.91929500000",
"ln": "136.18095100000"
},
"geometry": {
"type": "Point",
"coordinates": [
136.180951,
35.919295
]
}
},
{
"type": "Feature",
"properties": {
"Name": "国高労働福祉センター",
"Jusho": "福井県越前市瓜生町38-8",
"Capacity": "－",
"la": "35.92551700000",
"ln": "136.18434300000"
},
"geometry": {
"type": "Point",
"coordinates": [
136.184343,
35.925517
]
}
},
{
"type": "Feature",
"properties": {
"Name": "高木町公民館",
"Jusho": "福井県越前市高木町36-1",
"Capacity": "－",
"la": "35.92363700000",
"ln": "136.19466800000"
},
"geometry": {
"type": "Point",
"coordinates": [
136.194668,
35.923637
]
}
},
{
"type": "Feature",
"properties": {
"Name": "大虫神社境内",
"Jusho": "福井県越前市大虫町21-28",
"Capacity": "－",
"la": "35.90091000000",
"ln": "136.12660700000"
},
"geometry": {
"type": "Point",
"coordinates": [
136.126607,
35.90091
]
}
},
{
"type": "Feature",
"properties": {
"Name": "光福寺駐車場",
"Jusho": "福井県越前市大虫町78-1-1",
"Capacity": "－",
"la": "35.89817700000",
"ln": "136.12617900000"
},
"geometry": {
"type": "Point",
"coordinates": [
136.126179,
35.898177
]
}
},
{
"type": "Feature",
"properties": {
"Name": "ＪＡ越前たけふカントリーエレベーター",
"Jusho": "福井県越前市大虫町47-9",
"Capacity": "－",
"la": "35.90250300000",
"ln": "136.11485000000"
},
"geometry": {
"type": "Point",
"coordinates": [
136.11485,
35.902503
]
}
},
{
"type": "Feature",
"properties": {
"Name": "大虫本町生活改善センター",
"Jusho": "福井県越前市大虫町19-8-1",
"Capacity": "－",
"la": "35.90020500000",
"ln": "136.13472800000"
},
"geometry": {
"type": "Point",
"coordinates": [
136.134728,
35.900205
]
}
},
{
"type": "Feature",
"properties": {
"Name": "上四目町ふれあい会館",
"Jusho": "福井県越前市上四目町6-4",
"Capacity": "－",
"la": "35.90412500000",
"ln": "136.13566500000"
},
"geometry": {
"type": "Point",
"coordinates": [
136.135665,
35.904125
]
}
},
{
"type": "Feature",
"properties": {
"Name": "下四目町公民館",
"Jusho": "福井県越前市下四目町6-1",
"Capacity": "－",
"la": "35.90468300000",
"ln": "136.13874700000"
},
"geometry": {
"type": "Point",
"coordinates": [
136.138747,
35.904683
]
}
},
{
"type": "Feature",
"properties": {
"Name": "堂山神社境内",
"Jusho": "福井県越前市下四目町6-1",
"Capacity": "－",
"la": "35.90446600000",
"ln": "136.13862000000"
},
"geometry": {
"type": "Point",
"coordinates": [
136.13862,
35.904466
]
}
},
{
"type": "Feature",
"properties": {
"Name": "丹生郷町生活改善センター",
"Jusho": "福井県越前市丹生郷町10-2-22",
"Capacity": "－",
"la": "35.90676500000",
"ln": "136.13921000000"
},
"geometry": {
"type": "Point",
"coordinates": [
136.13921,
35.906765
]
}
},
{
"type": "Feature",
"properties": {
"Name": "ＪＡ越前たけふ西部低温倉庫前広場",
"Jusho": "福井県越前市丹生郷町地係",
"Capacity": "－",
"la": "35.90957630360",
"ln": "136.14050382600"
},
"geometry": {
"type": "Point",
"coordinates": [
136.140503826,
35.9095763036
]
}
},
{
"type": "Feature",
"properties": {
"Name": "三ツ俣町ふれあい会館前",
"Jusho": "福井県越前市三ツ俣町17",
"Capacity": "－",
"la": "35.90806200000",
"ln": "136.13097600000"
},
"geometry": {
"type": "Point",
"coordinates": [
136.130976,
35.908062
]
}
},
{
"type": "Feature",
"properties": {
"Name": "横根寺駐車場",
"Jusho": "福井県越前市横根町24-8",
"Capacity": "－",
"la": "35.91220500000",
"ln": "136.12856300000"
},
"geometry": {
"type": "Point",
"coordinates": [
136.128563,
35.912205
]
}
},
{
"type": "Feature",
"properties": {
"Name": "北山町集落センター",
"Jusho": "福井県越前市北山町17-24-1",
"Capacity": "－",
"la": "35.91522300000",
"ln": "136.13708300000"
},
"geometry": {
"type": "Point",
"coordinates": [
136.137083,
35.915223
]
}
},
{
"type": "Feature",
"properties": {
"Name": "上太田町ふれあい会館",
"Jusho": "福井県越前市上太田町29-3-2",
"Capacity": "－",
"la": "35.90571100000",
"ln": "136.14939500000"
},
"geometry": {
"type": "Point",
"coordinates": [
136.149395,
35.905711
]
}
},
{
"type": "Feature",
"properties": {
"Name": "武生土木事務所駐車場",
"Jusho": "福井県越前市上太田町42字1",
"Capacity": "－",
"la": "35.90170400000",
"ln": "136.15110700000"
},
"geometry": {
"type": "Point",
"coordinates": [
136.151107,
35.901704
]
}
},
{
"type": "Feature",
"properties": {
"Name": "ベルナール武生駐車場",
"Jusho": "福井県越前市新保町30-35-2",
"Capacity": "－",
"la": "35.90770500000",
"ln": "136.15351900000"
},
"geometry": {
"type": "Point",
"coordinates": [
136.153519,
35.907705
]
}
},
{
"type": "Feature",
"properties": {
"Name": "創価学会武生文化会館駐車場",
"Jusho": "福井県越前市新保町1丁目1-1",
"Capacity": "－",
"la": "35.90996540230",
"ln": "136.15764549300"
},
"geometry": {
"type": "Point",
"coordinates": [
136.157645493,
35.9099654023
]
}
},
{
"type": "Feature",
"properties": {
"Name": "ゲンキー駐車場",
"Jusho": "福井県越前市新保町4-10-1",
"Capacity": "－",
"la": "35.91555300000",
"ln": "136.15540100000"
},
"geometry": {
"type": "Point",
"coordinates": [
136.155401,
35.915553
]
}
},
{
"type": "Feature",
"properties": {
"Name": "勝蓮花和満会館",
"Jusho": "福井県越前市大虫本町2-8-22",
"Capacity": "－",
"la": "35.89474107410",
"ln": "136.13950147800"
},
"geometry": {
"type": "Point",
"coordinates": [
136.139501478,
35.8947410741
]
}
},
{
"type": "Feature",
"properties": {
"Name": "湯谷町ふれあい会館",
"Jusho": "福井県越前市湯谷町29-8-1",
"Capacity": "－",
"la": "35.85702300000",
"ln": "136.08143100000"
},
"geometry": {
"type": "Point",
"coordinates": [
136.081431,
35.857023
]
}
},
{
"type": "Feature",
"properties": {
"Name": "中山町構造改善センター",
"Jusho": "福井県越前市中山町59-16",
"Capacity": "－",
"la": "35.85114400000",
"ln": "136.06262300000"
},
"geometry": {
"type": "Point",
"coordinates": [
136.062623,
35.851144
]
}
},
{
"type": "Feature",
"properties": {
"Name": "下別所町公民館",
"Jusho": "福井県越前市下別所町",
"Capacity": "－",
"la": "35.85227327880",
"ln": "136.08954976800"
},
"geometry": {
"type": "Point",
"coordinates": [
136.089549768,
35.8522732788
]
}
},
{
"type": "Feature",
"properties": {
"Name": "勾当原町ふれあい会館",
"Jusho": "福井県越前市勾当原町",
"Capacity": "－",
"la": "35.86231600000",
"ln": "136.08417300000"
},
"geometry": {
"type": "Point",
"coordinates": [
136.084173,
35.862316
]
}
},
{
"type": "Feature",
"properties": {
"Name": "中津原町公民館",
"Jusho": "福井県越前市中津原町73-31",
"Capacity": "－",
"la": "35.85514900000",
"ln": "136.10684100000"
},
"geometry": {
"type": "Point",
"coordinates": [
136.106841,
35.855149
]
}
},
{
"type": "Feature",
"properties": {
"Name": "下中津原構造改善センター",
"Jusho": "福井県越前市下中津原町54-13",
"Capacity": "－",
"la": "35.85739300000",
"ln": "136.09517000000"
},
"geometry": {
"type": "Point",
"coordinates": [
136.09517,
35.857393
]
}
},
{
"type": "Feature",
"properties": {
"Name": "四郎丸会館",
"Jusho": "福井県越前市四郎丸町41-7-2",
"Capacity": "－",
"la": "35.87134700000",
"ln": "136.16625000000"
},
"geometry": {
"type": "Point",
"coordinates": [
136.16625,
35.871347
]
}
},
{
"type": "Feature",
"properties": {
"Name": "塚原町生活改善センター",
"Jusho": "福井県越前市塚原町17-3",
"Capacity": "－",
"la": "35.86643500000",
"ln": "136.15371200000"
},
"geometry": {
"type": "Point",
"coordinates": [
136.153712,
35.866435
]
}
},
{
"type": "Feature",
"properties": {
"Name": "白崎町生活改善センター",
"Jusho": "福井県越前市白崎町32-24",
"Capacity": "－",
"la": "35.86402400000",
"ln": "136.14972900000"
},
"geometry": {
"type": "Point",
"coordinates": [
136.149729,
35.864024
]
}
},
{
"type": "Feature",
"properties": {
"Name": "斗布神社境内",
"Jusho": "福井県越前市白崎町19-15",
"Capacity": "－",
"la": "35.86693900000",
"ln": "136.14981500000"
},
"geometry": {
"type": "Point",
"coordinates": [
136.149815,
35.866939
]
}
},
{
"type": "Feature",
"properties": {
"Name": "万所氏宅",
"Jusho": "福井県越前市春日野町",
"Capacity": "－",
"la": "35.85239855750",
"ln": "136.13591885300"
},
"geometry": {
"type": "Point",
"coordinates": [
136.135918853,
35.8523985575
]
}
},