var k={
"type":"FeatureCollection",
"features":[
{
"type":"Feature",
"properties":{
"Name":"いつき公園",
"Jusho":"愛媛県松山市堀江町地内",
"Capacity":"2200",
"la":"33.90193404000",
"ln":"132.74151022000"
},
"geometry":{
"type":"Point",
"coordinates":[
132.74151022,
33.90193404
]
}
},
{
"type":"Feature",
"properties":{
"Name":"ことひら公園",
"Jusho":"愛媛県松山市高浜町4丁目",
"Capacity":"1000",
"la":"33.88680658770",
"ln":"132.70321210500"
},
"geometry":{
"type":"Point",
"coordinates":[
132.703212105,
33.8868065877
]
}
},
{
"type":"Feature",
"properties":{
"Name":"すみれ公園",
"Jusho":"愛媛県松山市会津町16-16",
"Capacity":"1200",
"la":"33.86373295690",
"ln":"132.72801132800"
},
"geometry":{
"type":"Point",
"coordinates":[
132.728011328,
33.8637329569
]
}
},
{
"type":"Feature",
"properties":{
"Name":"すみれ野南公園",
"Jusho":"愛媛県松山市石風呂町地内",
"Capacity":"1200",
"la":"33.87323989590",
"ln":"132.71812002600"
},
"geometry":{
"type":"Point",
"coordinates":[
132.718120026,
33.8732398959
]
}
},
{
"type":"Feature",
"properties":{
"Name":"すみれ野北公園",
"Jusho":"愛媛県松山市石風呂町地内",
"Capacity":"6000",
"la":"33.87831728000",
"ln":"132.71552442000"
},
"geometry":{
"type":"Point",
"coordinates":[
132.71552442,
33.87831728
]
}
},
{
"type":"Feature",
"properties":{
"Name":"たかい公園",
"Jusho":"愛媛県松山市高井町1105外",
"Capacity":"3600",
"la":"33.79537985000",
"ln":"132.81227827000"
},
"geometry":{
"type":"Point",
"coordinates":[
132.81227827,
33.79537985
]
}
},
{
"type":"Feature",
"properties":{
"Name":"たかの夢公園",
"Jusho":"愛媛県松山市高野町76-4",
"Capacity":"2400",
"la":"33.85485563660",
"ln":"132.81162543300"
},
"geometry":{
"type":"Point",
"coordinates":[
132.811625433,
33.8548556366
]
}
},
{
"type":"Feature",
"properties":{
"Name":"たつみ公園",
"Jusho":"愛媛県松山市辰巳町2858-8外",
"Capacity":"2000",
"la":"33.86682403500",
"ln":"132.71926108600"
},
"geometry":{
"type":"Point",
"coordinates":[
132.719261086,
33.866824035
]
}
},
{
"type":"Feature",
"properties":{
"Name":"ひがしの北公園",
"Jusho":"愛媛県松山市東野3丁目甲278-1外",
"Capacity":"4000",
"la":"33.84372064910",
"ln":"132.80289455000"
},
"geometry":{
"type":"Point",
"coordinates":[
132.80289455,
33.8437206491
]
}
},
{
"type":"Feature",
"properties":{
"Name":"愛光公園",
"Jusho":"愛媛県松山市愛光町395-1",
"Capacity":"2800",
"la":"33.84662947000",
"ln":"132.74958926000"
},
"geometry":{
"type":"Point",
"coordinates":[
132.74958926,
33.84662947
]
}
},
{
"type":"Feature",
"properties":{
"Name":"安城寺西公園",
"Jusho":"愛媛県松山市安城寺町地内",
"Capacity":"2800",
"la":"33.88163226160",
"ln":"132.74081412900"
},
"geometry":{
"type":"Point",
"coordinates":[
132.740814129,
33.8816322616
]
}
},
{
"type":"Feature",
"properties":{
"Name":"伊台本村公園",
"Jusho":"愛媛県松山市上伊台町地内",
"Capacity":"2600",
"la":"33.88642746000",
"ln":"132.79333799000"
},
"geometry":{
"type":"Point",
"coordinates":[
132.79333799,
33.88642746
]
}
},
{
"type":"Feature",
"properties":{
"Name":"越智公園",
"Jusho":"愛媛県松山市越智3-221外",
"Capacity":"4600",
"la":"33.81044576000",
"ln":"132.78012450000"
},
"geometry":{
"type":"Point",
"coordinates":[
132.7801245,
33.81044576
]
}
},
{
"type":"Feature",
"properties":{
"Name":"奥久谷公園",
"Jusho":"愛媛県松山市久谷町地内",
"Capacity":"16000",
"la":"33.72374067000",
"ln":"132.84149702000"
},
"geometry":{
"type":"Point",
"coordinates":[
132.84149702,
33.72374067
]
}
},
{
"type":"Feature",
"properties":{
"Name":"奥土居公園",
"Jusho":"愛媛県松山市東垣生町地内",
"Capacity":"7200",
"la":"33.81468887000",
"ln":"132.71630047000"
},
"geometry":{
"type":"Point",
"coordinates":[
132.71630047,
33.81468887
]
}
},
{
"type":"Feature",
"properties":{
"Name":"河野公園",
"Jusho":"愛媛県松山市片山228-3",
"Capacity":"4800",
"la":"33.95141129000",
"ln":"132.76975838000"
},
"geometry":{
"type":"Point",
"coordinates":[
132.76975838,
33.95141129
]
}
},
{
"type":"Feature",
"properties":{
"Name":"河野別府公園（文化の森公園）",
"Jusho":"愛媛県松山市河野別府921",
"Capacity":"129000",
"la":"33.95724759460",
"ln":"132.77999864400"
},
"geometry":{
"type":"Point",
"coordinates":[
132.779998644,
33.9572475946
]
}
},
{
"type":"Feature",
"properties":{
"Name":"河野別府公園（ゲートボール場）",
"Jusho":"愛媛県松山市中西外966外4",
"Capacity":"10600",
"la":"33.95908082150",
"ln":"132.78177228200"
},
"geometry":{
"type":"Point",
"coordinates":[
132.781772282,
33.9590808215
]
}
},
{
"type":"Feature",
"properties":{
"Name":"会津公園",
"Jusho":"愛媛県松山市会津町11",
"Capacity":"4200",
"la":"33.86317141000",
"ln":"132.72590407000"
},
"geometry":{
"type":"Point",
"coordinates":[
132.72590407,
33.86317141
]
}
},
{
"type":"Feature",
"properties":{
"Name":"鴨川公園",
"Jusho":"愛媛県松山市鴨川3丁目地内",
"Capacity":"5000",
"la":"33.87445863000",
"ln":"132.74937954000"
},
"geometry":{
"type":"Point",
"coordinates":[
132.74937954,
33.87445863
]
}
},
{
"type":"Feature",
"properties":{
"Name":"萱町公園",
"Jusho":"愛媛県松山市萱町5-10-1",
"Capacity":"2800",
"la":"33.85044048000",
"ln":"132.75668733000"
},
"geometry":{
"type":"Point",
"coordinates":[
132.75668733,
33.85044048
]
}
},
{
"type":"Feature",
"properties":{
"Name":"観月山公園",
"Jusho":"愛媛県松山市港山町3",
"Capacity":"5200",
"la":"33.86871002000",
"ln":"132.71542742000"
},
"geometry":{
"type":"Point",
"coordinates":[
132.71542742,
33.86871002
]
}
},
{
"type":"Feature",
"properties":{
"Name":"吉藤公園",
"Jusho":"愛媛県松山市吉藤2-15-3",
"Capacity":"1600",
"la":"33.86936626000",
"ln":"132.75908015000"
},
"geometry":{
"type":"Point",
"coordinates":[
132.75908015,
33.86936626
]
}
},
{
"type":"Feature",
"properties":{
"Name":"久保公園",
"Jusho":"愛媛県松山市久保399-1",
"Capacity":"3800",
"la":"33.93980064430",
"ln":"132.76574171800"
},
"geometry":{
"type":"Point",
"coordinates":[
132.765741718,
33.9398006443
]
}
},
{
"type":"Feature",
"properties":{
"Name":"久万ノ台公園",
"Jusho":"愛媛県松山市久万ノ台乙301-1外",
"Capacity":"22600",
"la":"33.86052023000",
"ln":"132.73929091000"
},
"geometry":{
"type":"Point",
"coordinates":[
132.73929091,
33.86052023
]
}
},
{
"type":"Feature",
"properties":{
"Name":"宮前公園",
"Jusho":"愛媛県松山市古三津1-1479-2",
"Capacity":"5800",
"la":"33.86114021000",
"ln":"132.72401620000"
},
"geometry":{
"type":"Point",
"coordinates":[
132.7240162,
33.86114021
]
}
},
{
"type":"Feature",
"properties":{
"Name":"空港通１、２公園",
"Jusho":"愛媛県松山市空港通1-247",
"Capacity":"8000",
"la":"33.82778008910",
"ln":"132.75068766000"
},
"geometry":{
"type":"Point",
"coordinates":[
132.75068766,
33.8277800891
]
}
},
{
"type":"Feature",
"properties":{
"Name":"空港東公園",
"Jusho":"愛媛県松山市東垣生町950-1外",
"Capacity":"15600",
"la":"33.81664465000",
"ln":"132.71114523000"
},
"geometry":{
"type":"Point",
"coordinates":[
132.71114523,
33.81664465
]
}
},
{
"type":"Feature",
"properties":{
"Name":"空港東第三公園",
"Jusho":"愛媛県松山市東垣生町地内",
"Capacity":"11600",
"la":"33.81542385000",
"ln":"132.71413400000"
},
"geometry":{
"type":"Point",
"coordinates":[
132.714134,
33.81542385
]
}
},
{
"type":"Feature",
"properties":{
"Name":"空港東第四公園",
"Jusho":"愛媛県松山市東垣生町地内",
"Capacity":"18400",
"la":"33.81786504000",
"ln":"132.71507173000"
},
"geometry":{
"type":"Point",
"coordinates":[
132.71507173,
33.81786504
]
}
},
{
"type":"Feature",
"properties":{
"Name":"空港東第二公園",
"Jusho":"愛媛県松山市東垣生町地内",
"Capacity":"19800",
"la":"33.81686757000",
"ln":"132.71494239000"
},
"geometry":{
"type":"Point",
"coordinates":[
132.71494239,
33.81686757
]
}
},
{
"type":"Feature",
"properties":{
"Name":"空港南公園",
"Jusho":"愛媛県松山市南吉田町地内",
"Capacity":"10600",
"la":"33.82125121000",
"ln":"132.70465974000"
},
"geometry":{
"type":"Point",
"coordinates":[
132.70465974,
33.82125121
]
}
},
{
"type":"Feature",
"properties":{
"Name":"空港南第二公園",
"Jusho":"愛媛県松山市南吉田地内",
"Capacity":"9800",
"la":"33.82306241000",
"ln":"132.70223459000"
},
"geometry":{
"type":"Point",
"coordinates":[
132.70223459,
33.82306241
]
}
},
{
"type":"Feature",
"properties":{
"Name":"窪野公園",
"Jusho":"愛媛県松山市窪野町甲288-1外",
"Capacity":"4800",
"la":"33.74052136000",
"ln":"132.83820209000"
},
"geometry":{
"type":"Point",
"coordinates":[
132.83820209,
33.74052136
]
}
},
{
"type":"Feature",
"properties":{
"Name":"恵原公園",
"Jusho":"愛媛県松山市恵原町地内",
"Capacity":"4200",
"la":"33.76581259000",
"ln":"132.80913528000"
},
"geometry":{
"type":"Point",
"coordinates":[
132.80913528,
33.76581259
]
}
},
{
"type":"Feature",
"properties":{
"Name":"経石山公園",
"Jusho":"愛媛県松山市桑原4丁目408外",
"Capacity":"2400",
"la":"33.83054347000",
"ln":"132.79406700000"
},
"geometry":{
"type":"Point",
"coordinates":[
132.794067,
33.83054347
]
}
},
{
"type":"Feature",
"properties":{
"Name":"権現公園",
"Jusho":"愛媛県松山市権現町甲162外",
"Capacity":"4000",
"la":"33.90111221000",
"ln":"132.76333548000"
},
"geometry":{
"type":"Point",
"coordinates":[
132.76333548,
33.90111221
]
}
},
{
"type":"Feature",
"properties":{
"Name":"県立総合運動公園",
"Jusho":"愛媛県松山市上野町、西野町地内",
"Capacity":"456800",
"la":"33.76872300000",
"ln":"132.79591300000"
},
"geometry":{
"type":"Point",
"coordinates":[
132.795913,
33.768723
]
}
},
{
"type":"Feature",
"properties":{
"Name":"古川公園",
"Jusho":"愛媛県松山市古川西2丁目",
"Capacity":"5000",
"la":"33.80794279000",
"ln":"132.75882146000"
},
"geometry":{
"type":"Point",
"coordinates":[
132.75882146,
33.80794279
]
}
},
{
"type":"Feature",
"properties":{
"Name":"古川南公園",
"Jusho":"愛媛県松山市古川南3-792-2外",
"Capacity":"3600",
"la":"33.80495561000",
"ln":"132.76385284000"
},
"geometry":{
"type":"Point",
"coordinates":[
132.76385284,
33.80495561
]
}
},
{
"type":"Feature",
"properties":{
"Name":"五楽公園",
"Jusho":"愛媛県松山市平井町地内",
"Capacity":"2200",
"la":"33.81642133000",
"ln":"132.83296643000"
},
"geometry":{
"type":"Point",
"coordinates":[
132.83296643,
33.81642133
]
}
},
{
"type":"Feature",
"properties":{
"Name":"御手洗公園",
"Jusho":"愛媛県松山市泊町地内",
"Capacity":"2800",
"la":"33.87314543000",
"ln":"132.66962955000"
},
"geometry":{
"type":"Point",
"coordinates":[
132.66962955,
33.87314543
]
}
},
{
"type":"Feature",
"properties":{
"Name":"向井公園",
"Jusho":"愛媛県松山市北梅本町2145外",
"Capacity":"3400",
"la":"33.80993774000",
"ln":"132.84182632000"
},
"geometry":{
"type":"Point",
"coordinates":[
132.84182632,
33.80993774
]
}
},
{
"type":"Feature",
"properties":{
"Name":"向陽第２公園",
"Jusho":"愛媛県松山市下伊台町489-102",
"Capacity":"3000",
"la":"33.87534936910",
"ln":"132.80956704000"
},
"geometry":{
"type":"Point",
"coordinates":[
132.80956704,
33.8753493691
]
}
},
{
"type":"Feature",
"properties":{
"Name":"幸町公園",
"Jusho":"愛媛県松山市千舟町7-6-7",
"Capacity":"2400",
"la":"33.83770955000",
"ln":"132.75510290000"
},
"geometry":{
"type":"Point",
"coordinates":[
132.7551029,
33.83770955
]
}
},
{
"type":"Feature",
"properties":{
"Name":"溝辺公園",
"Jusho":"愛媛県松山市溝辺町甲721外",
"Capacity":"3600",
"la":"33.85332022770",
"ln":"132.80328692500"
},
"geometry":{
"type":"Point",
"coordinates":[
132.803286925,
33.8533202277
]
}
},
{
"type":"Feature",
"properties":{
"Name":"高岡みなみ公園",
"Jusho":"愛媛県松山市高岡町地内",
"Capacity":"2000",
"la":"33.82597662000",
"ln":"132.72432923000"
},
"geometry":{
"type":"Point",
"coordinates":[
132.72432923,
33.82597662
]
}
},
{
"type":"Feature",
"properties":{
"Name":"高岡第一公園",
"Jusho":"愛媛県松山市高岡町835",
"Capacity":"4800",
"la":"33.83175094000",
"ln":"132.71393999000"
},
"geometry":{
"type":"Point",
"coordinates":[
132.71393999,
33.83175094
]
}
},
{
"type":"Feature",
"properties":{
"Name":"高岡中央公園",
"Jusho":"愛媛県松山市高岡町562-3外",
"Capacity":"2200",
"la":"33.83193469000",
"ln":"132.72095676000"
},
"geometry":{
"type":"Point",
"coordinates":[
132.72095676,
33.83193469
]
}
},
{
"type":"Feature",
"properties":{
"Name":"高崎公園",
"Jusho":"愛媛県松山市山越6丁目地内",
"Capacity":"6400",
"la":"33.85692407000",
"ln":"132.75099631000"
},
"geometry":{
"type":"Point",
"coordinates":[
132.75099631,
33.85692407
]
}
},
{
"type":"Feature",
"properties":{
"Name":"高浜公園",
"Jusho":"愛媛県松山市高浜町6丁目地内",
"Capacity":"2000",
"la":"33.89534598950",
"ln":"132.70768604200"
},
"geometry":{
"type":"Point",
"coordinates":[
132.707686042,
33.8953459895
]
}
},
{
"type":"Feature",
"properties":{
"Name":"今在家公園",
"Jusho":"愛媛県松山市今在家3-313-1外",
"Capacity":"4000",
"la":"33.80458287000",
"ln":"132.79073646000"
},
"geometry":{
"type":"Point",
"coordinates":[
132.79073646,
33.80458287
]
}
},
{
"type":"Feature",
"properties":{
"Name":"三町三角公園",
"Jusho":"愛媛県松山市三町3丁目85-2",
"Capacity":"600",
"la":"33.82392795300",
"ln":"132.79781564400"
},
"geometry":{
"type":"Point",
"coordinates":[
132.797815644,
33.823927953
]
}
},
{
"type":"Feature",
"properties":{
"Name":"三津住吉公園",
"Jusho":"愛媛県松山市住吉2-90-1",
"Capacity":"2600",
"la":"33.86378879740",
"ln":"132.71647971700"
},
"geometry":{
"type":"Point",
"coordinates":[
132.716479717,
33.8637887974
]
}
},
{
"type":"Feature",
"properties":{
"Name":"三津大可賀公園",
"Jusho":"愛媛県松山市大可賀1",
"Capacity":"27400",
"la":"33.85470760000",
"ln":"132.71527800000"
},
"geometry":{
"type":"Point",
"coordinates":[
132.715278,
33.8547076
]
}
},
{
"type":"Feature",
"properties":{
"Name":"三島公園",
"Jusho":"愛媛県松山市井門町地内",
"Capacity":"5400",
"la":"33.79187003890",
"ln":"132.78352304500"
},
"geometry":{
"type":"Point",
"coordinates":[
132.783523045,
33.7918700389
]
}
},
{
"type":"Feature",
"properties":{
"Name":"三本柳公園",
"Jusho":"愛媛県松山市清住1-8-4",
"Capacity":"2800",
"la":"33.85440200000",
"ln":"132.71897297000"
},
"geometry":{
"type":"Point",
"coordinates":[
132.71897297,
33.854402
]
}
},
{
"type":"Feature",
"properties":{
"Name":"山越公園",
"Jusho":"愛媛県松山市山越5丁目地内",
"Capacity":"6200",
"la":"33.86044148000",
"ln":"132.75296876000"
},
"geometry":{
"type":"Point",
"coordinates":[
132.75296876,
33.86044148
]
}
},
{
"type":"Feature",
"properties":{
"Name":"山口公園",
"Jusho":"愛媛県松山市久谷町615-1外",
"Capacity":"4200",
"la":"33.73590894000",
"ln":"132.83069434000"
},
"geometry":{
"type":"Point",
"coordinates":[
132.83069434,
33.73590894
]
}
},
{
"type":"Feature",
"properties":{
"Name":"山西公園",
"Jusho":"愛媛県松山市山西町909",
"Capacity":"2400",
"la":"33.85427166000",
"ln":"132.72278544000"
},
"geometry":{
"type":"Point",
"coordinates":[
132.72278544,
33.85427166
]
}
},
{
"type":"Feature",
"properties":{
"Name":"枝松公園",
"Jusho":"愛媛県松山市枝松4丁目229-1外",
"Capacity":"5800",
"la":"33.83127846000",
"ln":"132.78604783000"
},
"geometry":{
"type":"Point",
"coordinates":[
132.78604783,
33.83127846
]
}
},
{
"type":"Feature",
"properties":{
"Name":"持田若宮公園",
"Jusho":"愛媛県松山市持田町3-250-1",
"Capacity":"1800",
"la":"33.84429720100",
"ln":"132.78151694900"
},
"geometry":{
"type":"Point",
"coordinates":[
132.781516949,
33.844297201
]
}
},
{
"type":"Feature",
"properties":{
"Name":"若宮公園",
"Jusho":"愛媛県松山市高岡町783-29",
"Capacity":"2800",
"la":"33.83532086000",
"ln":"132.71794957000"
},
"geometry":{
"type":"Point",
"coordinates":[
132.71794957,
33.83532086
]
}
},
{
"type":"Feature",
"properties":{
"Name":"住吉公園",
"Jusho":"愛媛県松山市西垣生町1369-1",
"Capacity":"3800",
"la":"33.81043648000",
"ln":"132.69935674000"
},
"geometry":{
"type":"Point",
"coordinates":[
132.69935674,
33.81043648
]
}
},
{
"type":"Feature",
"properties":{
"Name":"祝谷公園",
"Jusho":"愛媛県松山市祝谷4丁目869",
"Capacity":"3800",
"la":"33.85660997740",
"ln":"132.77750049200"
},
"geometry":{
"type":"Point",
"coordinates":[
132.777500492,
33.8566099774
]
}
},
{
"type":"Feature",
"properties":{
"Name":"祝谷北公園",
"Jusho":"愛媛県松山市祝谷6丁目1093外",
"Capacity":"2800",
"la":"33.86062522000",
"ln":"132.77625022000"
},
"geometry":{
"type":"Point",
"coordinates":[
132.77625022,
33.86062522
]
}
},
{
"type":"Feature",
"properties":{
"Name":"出合公園",
"Jusho":"愛媛県松山市余戸南4-1710-2外",
"Capacity":"3800",
"la":"33.80981636430",
"ln":"132.72726864700"
},
"geometry":{
"type":"Point",
"coordinates":[
132.727268647,
33.8098163643
]
}
},
{
"type":"Feature",
"properties":{
"Name":"小栗公園",
"Jusho":"愛媛県松山市小栗6丁目地内",
"Capacity":"5000",
"la":"33.82668482000",
"ln":"132.75532924000"
},
"geometry":{
"type":"Point",
"coordinates":[
132.75532924,
33.82668482
]
}
},
{
"type":"Feature",
"properties":{
"Name":"小坂公園",
"Jusho":"愛媛県松山市小坂5-306-3",
"Capacity":"1800",
"la":"33.82554171540",
"ln":"132.78099294900"
},
"geometry":{
"type":"Point",
"coordinates":[
132.780992949,
33.8255417154
]
}
},
{
"type":"Feature",
"properties":{
"Name":"小山田公園",
"Jusho":"愛媛県松山市小山田甲331-1外1",
"Capacity":"2000",
"la":"33.99177536000",
"ln":"132.84429951000"
},
"geometry":{
"type":"Point",
"coordinates":[
132.84429951,
33.99177536
]
}
},
{
"type":"Feature",
"properties":{
"Name":"小野公園",
"Jusho":"愛媛県松山市水泥町839",
"Capacity":"6200",
"la":"33.80593363000",
"ln":"132.83507407000"
},
"geometry":{
"type":"Point",
"coordinates":[
132.83507407,
33.80593363
]
}
},
{
"type":"Feature",
"properties":{
"Name":"小野谷公園",
"Jusho":"愛媛県松山市北梅本町2720外",
"Capacity":"4000",
"la":"33.81921735000",
"ln":"132.84881987000"
},
"geometry":{
"type":"Point",
"coordinates":[
132.84881987,
33.81921735
]
}
},
{
"type":"Feature",
"properties":{
"Name":"庄農村公園",
"Jusho":"愛媛県松山市庄291",
"Capacity":"3400",
"la":"33.97196844160",
"ln":"132.80226173300"
},
"geometry":{
"type":"Point",
"coordinates":[
132.802261733,
33.9719684416
]
}
},
{
"type":"Feature",
"properties":{
"Name":"松山総合公園",
"Jusho":"愛媛県松山市朝美1丁目外",
"Capacity":"254600",
"la":"33.84450813000",
"ln":"132.73767414000"
},
"geometry":{
"type":"Point",
"coordinates":[
132.73767414,
33.84450813
]
}
},
{
"type":"Feature",
"properties":{
"Name":"松山中央公園",
"Jusho":"愛媛県松山市市坪西町",
"Capacity":"366200",
"la":"33.80849403000",
"ln":"132.74507894000"
},
"geometry":{
"type":"Point",
"coordinates":[
132.74507894,
33.80849403
]
}
},
{
"type":"Feature",
"properties":{
"Name":"松尾公園",
"Jusho":"愛媛県松山市福角町乙842外",
"Capacity":"3000",
"la":"33.89569478220",
"ln":"132.75571986200"
},
"geometry":{
"type":"Point",
"coordinates":[
132.755719862,
33.8956947822
]
}
},
{
"type":"Feature",
"properties":{
"Name":"松尾西公園",
"Jusho":"愛媛県松山市福角町地内",
"Capacity":"2000",
"la":"33.89582560000",
"ln":"132.75141667000"
},
"geometry":{
"type":"Point",
"coordinates":[
132.75141667,
33.8958256
]
}
},
{
"type":"Feature",
"properties":{
"Name":"上野団地公園",
"Jusho":"愛媛県松山市上野町乙107-17",
"Capacity":"4200",
"la":"33.77517186910",
"ln":"132.79830205000"
},
"geometry":{
"type":"Point",
"coordinates":[
132.79830205,
33.7751718691
]
}
},
{
"type":"Feature",
"properties":{
"Name":"上野町今市公園",
"Jusho":"愛媛県松山市上野町甲1434-2外",
"Capacity":"3800",
"la":"33.77658532000",
"ln":"132.80997599000"
},
"geometry":{
"type":"Point",
"coordinates":[
132.80997599,
33.77658532
]
}
},
{
"type":"Feature",
"properties":{
"Name":"上野町中組公園",
"Jusho":"愛媛県松山市上野町504-4",
"Capacity":"3400",
"la":"33.77021782260",
"ln":"132.80334703000"
},
"geometry":{
"type":"Point",
"coordinates":[
132.80334703,
33.7702178226
]
}
},
{
"type":"Feature",
"properties":{
"Name":"城山公園",
"Jusho":"愛媛県松山市堀之内、丸之内地内",
"Capacity":"530000",
"la":"33.84440313000",
"ln":"132.76645261000"
},
"geometry":{
"type":"Point",
"coordinates":[
132.76645261,
33.84440313
]
}
},
{
"type":"Feature",
"properties":{
"Name":"杖ノ淵公園",
"Jusho":"愛媛県松山市南高井町1346-1外",
"Capacity":"24200",
"la":"33.79193069000",
"ln":"132.81104306000"
},
"geometry":{
"type":"Point",
"coordinates":[
132.81104306,
33.79193069
]
}
},
{
"type":"Feature",
"properties":{
"Name":"浄土寺公園",
"Jusho":"愛媛県松山市鷹子町333-1外",
"Capacity":"5000",
"la":"33.81744505000",
"ln":"132.80874725000"
},
"geometry":{
"type":"Point",
"coordinates":[
132.80874725,
33.81744505
]
}
},
{
"type":"Feature",
"properties":{
"Name":"浄瑠璃公園",
"Jusho":"愛媛県松山市浄瑠璃町地内",
"Capacity":"6600",
"la":"33.75560160000",
"ln":"132.81970894000"
},
"geometry":{
"type":"Point",
"coordinates":[
132.81970894,
33.7556016
]
}
},
{
"type":"Feature",
"properties":{
"Name":"新開公園",
"Jusho":"愛媛県松山市北条辻961-1",
"Capacity":"5200",
"la":"33.96392252000",
"ln":"132.77471395000"
},
"geometry":{
"type":"Point",
"coordinates":[
132.77471395,
33.96392252
]
}
},
{
"type":"Feature",
"properties":{
"Name":"新開浜公園",
"Jusho":"愛媛県松山市北条辻1278",
"Capacity":"1400",
"la":"33.96589309480",
"ln":"132.77181275600"
},
"geometry":{
"type":"Point",
"coordinates":[
132.771812756,
33.9658930948
]
}
},
{
"type":"Feature",
"properties":{
"Name":"新玉公園",
"Jusho":"愛媛県松山市三番町6-4-21外",
"Capacity":"2800",
"la":"33.83823453000",
"ln":"132.75950051000"
},
"geometry":{
"type":"Point",
"coordinates":[
132.75950051,
33.83823453
]
}
},
{
"type":"Feature",
"properties":{
"Name":"新浜公園",
"Jusho":"愛媛県松山市新浜町1145-4外",
"Capacity":"4200",
"la":"33.87357983410",
"ln":"132.71397938600"
},
"geometry":{
"type":"Point",
"coordinates":[
132.713979386,
33.8735798341
]
}
},
{
"type":"Feature",
"properties":{
"Name":"森松本村公園",
"Jusho":"愛媛県松山市森松町地内",
"Capacity":"4000",
"la":"33.79345315000",
"ln":"132.79765622000"
},
"geometry":{
"type":"Point",
"coordinates":[
132.79765622,
33.79345315
]
}
},
{
"type":"Feature",
"properties":{
"Name":"神前公園",
"Jusho":"愛媛県松山市溝辺町地内",
"Capacity":"4600",
"la":"33.85175295000",
"ln":"132.80706581000"
},
"geometry":{
"type":"Point",
"coordinates":[
132.80706581,
33.85175295
]
}
},
{
"type":"Feature",
"properties":{
"Name":"針田公園",
"Jusho":"愛媛県松山市針田町107-6外",
"Capacity":"2200",
"la":"33.82349815000",
"ln":"132.73643246000"
},
"geometry":{
"type":"Point",
"coordinates":[
132.73643246,
33.82349815
]
}
},
{
"type":"Feature",
"properties":{
"Name":"政友公園",
"Jusho":"愛媛県松山市東方町2258-1外",
"Capacity":"6000",
"la":"33.77646982000",
"ln":"132.82168139000"
},
"geometry":{
"type":"Point",
"coordinates":[
132.82168139,
33.77646982
]
}
},
{
"type":"Feature",
"properties":{
"Name":"星が岡公園",
"Jusho":"愛媛県松山市星岡町、東石井町地内",
"Capacity":"46200",
"la":"33.81500386000",
"ln":"132.78556280000"
},
"geometry":{
"type":"Point",
"coordinates":[
132.7855628,
33.81500386
]
}
},
{
"type":"Feature",
"properties":{
"Name":"正円寺公園",
"Jusho":"愛媛県松山市正円寺3丁目地内",
"Capacity":"5000",
"la":"33.83820828000",
"ln":"132.80017838000"
},
"geometry":{
"type":"Point",
"coordinates":[
132.80017838,
33.83820828
]
}
},
{
"type":"Feature",
"properties":{
"Name":"正岡松尾公園",
"Jusho":"愛媛県松山市中西外686-1",
"Capacity":"4400",
"la":"33.96585147000",
"ln":"132.78269787000"
},
"geometry":{
"type":"Point",
"coordinates":[
132.78269787,
33.96585147
]
}
},
{
"type":"Feature",
"properties":{
"Name":"清水公園",
"Jusho":"愛媛県松山市清水町2-7-2",
"Capacity":"6200",
"la":"33.85015174000",
"ln":"132.76299272000"
},
"geometry":{
"type":"Point",
"coordinates":[
132.76299272,
33.85015174
]
}
},
{
"type":"Feature",
"properties":{
"Name":"清和公園",
"Jusho":"愛媛県松山市太山寺町2244",
"Capacity":"4200",
"la":"33.89236068000",
"ln":"132.72228251000"
},
"geometry":{
"type":"Point",
"coordinates":[
132.72228251,
33.89236068
]
}
},
{
"type":"Feature",
"properties":{
"Name":"西ノ下児童公園（柳原末広第一公園）",
"Jusho":"愛媛県松山市柳原901",
"Capacity":"4400",
"la":"33.95962178960",
"ln":"132.77320987800"
},
"geometry":{
"type":"Point",
"coordinates":[
132.773209878,
33.9596217896
]
}
},
{
"type":"Feature",
"properties":{
"Name":"西垣生公園",
"Jusho":"愛媛県松山市西垣生町1066-2",
"Capacity":"1400",
"la":"33.81631633000",
"ln":"132.70362501000"
},
"geometry":{
"type":"Point",
"coordinates":[
132.70362501,
33.81631633
]
}
},
{
"type":"Feature",
"properties":{
"Name":"西須賀公園",
"Jusho":"愛媛県松山市須賀町1-10",
"Capacity":"2800",
"la":"33.85773779910",
"ln":"132.71772323000"
},
"geometry":{
"type":"Point",
"coordinates":[
132.71772323,
33.8577377991
]
}
},
{
"type":"Feature",
"properties":{
"Name":"西石井公園",
"Jusho":"愛媛県松山市西石井5-325-1外",
"Capacity":"5000",
"la":"33.81505636000",
"ln":"132.77055920000"
},
"geometry":{
"type":"Point",
"coordinates":[
132.7705592,
33.81505636
]
}
},
{
"type":"Feature",
"properties":{
"Name":"西長戸公園",
"Jusho":"愛媛県松山市西長戸町地内",
"Capacity":"4400",
"la":"33.86647883000",
"ln":"132.73673642000"
},
"geometry":{
"type":"Point",
"coordinates":[
132.73673642,
33.86647883
]
}
},
{
"type":"Feature",
"properties":{
"Name":"西長戸東公園",
"Jusho":"愛媛県松山市西長戸町151",
"Capacity":"4800",
"la":"33.86724005910",
"ln":"132.74587439000"
},
"geometry":{
"type":"Point",
"coordinates":[
132.74587439,
33.8672400591
]
}
},
{
"type":"Feature",
"properties":{
"Name":"西野公園",
"Jusho":"愛媛県松山市西野町地内",
"Capacity":"2800",
"la":"33.76384389000",
"ln":"132.80202150000"
},
"geometry":{
"type":"Point",
"coordinates":[
132.8020215,
33.76384389
]
}
},
{
"type":"Feature",
"properties":{
"Name":"青葉台公園",
"Jusho":"愛媛県松山市青葉台44",
"Capacity":"5400",
"la":"33.85773162580",
"ln":"132.73420347400"
},
"geometry":{
"type":"Point",
"coordinates":[
132.734203474,
33.8577316258
]
}
},
{
"type":"Feature",
"properties":{
"Name":"川附公園",
"Jusho":"愛媛県松山市枝松6丁目地内",
"Capacity":"5000",
"la":"33.82440155000",
"ln":"132.78476485000"
},
"geometry":{
"type":"Point",
"coordinates":[
132.78476485,
33.82440155
]
}
},
{
"type":"Feature",
"properties":{
"Name":"善応寺農村公園",
"Jusho":"愛媛県松山市善応寺388",
"Capacity":"3800",
"la":"33.94961233340",
"ln":"132.79306832800"
},
"geometry":{
"type":"Point",
"coordinates":[
132.793068328,
33.9496123334
]
}
},
{
"type":"Feature",
"properties":{
"Name":"太衛門公園",
"Jusho":"愛媛県松山市勝岡町地内",
"Capacity":"10800",
"la":"33.89871301910",
"ln":"132.72794120000"
},
"geometry":{
"type":"Point",
"coordinates":[
132.7279412,
33.8987130191
]
}
},
{
"type":"Feature",
"properties":{
"Name":"太山寺小山公園",
"Jusho":"愛媛県松山市太山寺町地内",
"Capacity":"5800",
"la":"33.88824524000",
"ln":"132.72734486000"
},
"geometry":{
"type":"Point",
"coordinates":[
132.72734486,
33.88824524
]
}
},
{
"type":"Feature",
"properties":{
"Name":"太山寺本村公園",
"Jusho":"愛媛県松山市太山寺町1587外",
"Capacity":"3400",
"la":"33.88266034960",
"ln":"132.72266810200"
},
"geometry":{
"type":"Point",
"coordinates":[
132.722668102,
33.8826603496
]
}
},
{
"type":"Feature",
"properties":{
"Name":"太尺寺公園",
"Jusho":"愛媛県松山市北梅本町地内",
"Capacity":"1200",
"la":"33.80560660000",
"ln":"132.85715328000"
},
"geometry":{
"type":"Point",
"coordinates":[
132.85715328,
33.8056066
]
}
},
{
"type":"Feature",
"properties":{
"Name":"太郎丸公園",
"Jusho":"愛媛県松山市問屋町地内",
"Capacity":"2000",
"la":"33.86332891000",
"ln":"132.74921786000"
},
"geometry":{
"type":"Point",
"coordinates":[
132.74921786,
33.86332891
]
}
},
{
"type":"Feature",
"properties":{
"Name":"大新田公園",
"Jusho":"愛媛県松山市西垣生町286",
"Capacity":"3600",
"la":"33.80865608000",
"ln":"132.69975107000"
},
"geometry":{
"type":"Point",
"coordinates":[
132.69975107,
33.80865608
]
}
},
{
"type":"Feature",
"properties":{
"Name":"大西第二区公園",
"Jusho":"愛媛県松山市堀江町地内",
"Capacity":"2200",
"la":"33.89958593330",
"ln":"132.74205917400"
},
"geometry":{
"type":"Point",
"coordinates":[
132.742059174,
33.8995859333
]
}
},
{
"type":"Feature",
"properties":{
"Name":"大渕公園",
"Jusho":"愛媛県松山市太山寺町地内",
"Capacity":"3000",
"la":"33.88437312690",
"ln":"132.73252107300"
},
"geometry":{
"type":"Point",
"coordinates":[
132.732521073,
33.8843731269
]
}
},
{
"type":"Feature",
"properties":{
"Name":"谷町公園",
"Jusho":"愛媛県松山市谷町地内",
"Capacity":"12600",
"la":"33.88217594000",
"ln":"132.75500589000"
},
"geometry":{
"type":"Point",
"coordinates":[
132.75500589,
33.88217594
]
}
},
{
"type":"Feature",
"properties":{
"Name":"中筋公園",
"Jusho":"愛媛県松山市福角町地内",
"Capacity":"2000",
"la":"33.90207278140",
"ln":"132.75463458700"
},
"geometry":{
"type":"Point",
"coordinates":[
132.754634587,
33.9020727814
]
}
},
{
"type":"Feature",
"properties":{
"Name":"中須賀公園",
"Jusho":"愛媛県松山市中須賀1丁目11",
"Capacity":"5800",
"la":"33.86466762000",
"ln":"132.72376994000"
},
"geometry":{
"type":"Point",
"coordinates":[
132.72376994,
33.86466762
]
}
},
{
"type":"Feature",
"properties":{
"Name":"中村公園",
"Jusho":"愛媛県松山市中村3-7-26",
"Capacity":"1200",
"la":"33.83143595000",
"ln":"132.77570052000"
},
"geometry":{
"type":"Point",
"coordinates":[
132.77570052,
33.83143595
]
}
},
{
"type":"Feature",
"properties":{
"Name":"中津公園",
"Jusho":"愛媛県松山市北斎院町地内",
"Capacity":"4000",
"la":"33.83770229000",
"ln":"132.72497325000"
},
"geometry":{
"type":"Point",
"coordinates":[
132.72497325,
33.83770229
]
}
},
{
"type":"Feature",
"properties":{
"Name":"中津東公園",
"Jusho":"愛媛県松山市北斎院町187",
"Capacity":"7800",
"la":"33.83819439290",
"ln":"132.73255365700"
},
"geometry":{
"type":"Point",
"coordinates":[
132.732553657,
33.8381943929
]
}
},
{
"type":"Feature",
"properties":{
"Name":"中野公園",
"Jusho":"愛媛県松山市中野町地内",
"Capacity":"9200",
"la":"33.77933100000",
"ln":"132.82827781000"
},
"geometry":{
"type":"Point",
"coordinates":[
132.82827781,
33.779331
]
}
},
{
"type":"Feature",
"properties":{
"Name":"丁地公園",
"Jusho":"愛媛県松山市山越2丁目地内",
"Capacity":"3200",
"la":"33.86028398000",
"ln":"132.75080229000"
},
"geometry":{
"type":"Point",
"coordinates":[
132.75080229,
33.86028398
]
}
},
{
"type":"Feature",
"properties":{
"Name":"朝生田公園",
"Jusho":"愛媛県松山市朝生田町6丁目地内",
"Capacity":"5000",
"la":"33.82076000000",
"ln":"132.76773000000"
},
"geometry":{
"type":"Point",
"coordinates":[
132.76773,
33.82076
]
}
},
{
"type":"Feature",
"properties":{
"Name":"朝日ケ丘公園",
"Jusho":"愛媛県松山市朝日ケ丘2丁目地内",
"Capacity":"6000",
"la":"33.84760555000",
"ln":"132.74355918000"
},
"geometry":{
"type":"Point",
"coordinates":[
132.74355918,
33.84760555
]
}
},
{
"type":"Feature",
"properties":{
"Name":"津吉公園",
"Jusho":"愛媛県松山市津吉町地内",
"Capacity":"7200",
"la":"33.77163994000",
"ln":"132.84008021000"
},
"geometry":{
"type":"Point",
"coordinates":[
132.84008021,
33.77163994
]
}
},
{
"type":"Feature",
"properties":{
"Name":"津田公園",
"Jusho":"愛媛県松山市北斎院町地内",
"Capacity":"3600",
"la":"33.84120070910",
"ln":"132.71917832000"
},
"geometry":{
"type":"Point",
"coordinates":[
132.71917832,
33.8412007091
]
}
},
{
"type":"Feature",
"properties":{
"Name":"椿公園",
"Jusho":"愛媛県松山市居相4-274-4",
"Capacity":"2000",
"la":"33.80873027000",
"ln":"132.77182028000"
},
"geometry":{
"type":"Point",
"coordinates":[
132.77182028,
33.80873027
]
}
},
{
"type":"Feature",
"properties":{
"Name":"鶴ケ丘公園",
"Jusho":"愛媛県松山市南吉田町地内",
"Capacity":"1000",
"la":"33.82693319000",
"ln":"132.71469421000"
},
"geometry":{
"type":"Point",
"coordinates":[
132.71469421,
33.82693319
]
}
},
{
"type":"Feature",
"properties":{
"Name":"天山公園",
"Jusho":"愛媛県松山市天山3-130-2外",
"Capacity":"2800",
"la":"33.81967743740",
"ln":"132.77452958000"
},
"geometry":{
"type":"Point",
"coordinates":[
132.77452958,
33.8196774374
]
}
},
{
"type":"Feature",
"properties":{
"Name":"土居公園",
"Jusho":"愛媛県松山市土居町1026-1外",
"Capacity":"3800",
"la":"33.79848777000",
"ln":"132.79016089000"
},
"geometry":{
"type":"Point",
"coordinates":[
132.79016089,
33.79848777
]
}
},
{
"type":"Feature",
"properties":{
"Name":"土居田公園",
"Jusho":"愛媛県松山市土居田町地内",
"Capacity":"2000",
"la":"33.82405989000",
"ln":"132.74598433000"
},
"geometry":{
"type":"Point",
"coordinates":[
132.74598433,
33.82405989
]
}
},
{
"type":"Feature",
"properties":{
"Name":"土居田本村公園",
"Jusho":"愛媛県松山市土居田町581-2",
"Capacity":"3000",
"la":"33.82030909180",
"ln":"132.74387205400"
},
"geometry":{
"type":"Point",
"coordinates":[
132.743872054,
33.8203090918
]
}
},
{
"type":"Feature",
"properties":{
"Name":"東雲公園",
"Jusho":"愛媛県松山市東雲町7-2",
"Capacity":"9600",
"la":"33.84582059000",
"ln":"132.77356638000"
},
"geometry":{
"type":"Point",
"coordinates":[
132.77356638,
33.84582059
]
}
},
{
"type":"Feature",
"properties":{
"Name":"東垣生公園",
"Jusho":"愛媛県松山市東垣生町758-2",
"Capacity":"6000",
"la":"33.81613257910",
"ln":"132.71458670000"
},
"geometry":{
"type":"Point",
"coordinates":[
132.7145867,
33.8161325791
]
}
},
{
"type":"Feature",
"properties":{
"Name":"東山古墳公園（星ヶ岡西公園）",
"Jusho":"愛媛県松山市東石井3丁目20",
"Capacity":"2200",
"la":"33.81544577630",
"ln":"132.78048898700"
},
"geometry":{
"type":"Point",
"coordinates":[
132.780488987,
33.8154457763
]
}
},
{
"type":"Feature",
"properties":{
"Name":"東山公園",
"Jusho":"愛媛県松山市東山町4109-1外",
"Capacity":"2600",
"la":"33.86393742000",
"ln":"132.73122840000"
},
"geometry":{
"type":"Point",
"coordinates":[
132.7312284,
33.86393742
]
}
},
{
"type":"Feature",
"properties":{
"Name":"東大栗公園",
"Jusho":"愛媛県松山市東大栗町地内",
"Capacity":"9000",
"la":"33.90805066000",
"ln":"132.78716478000"
},
"geometry":{
"type":"Point",
"coordinates":[
132.78716478,
33.90805066
]
}
},
{
"type":"Feature",
"properties":{
"Name":"東鷹の子公園",
"Jusho":"愛媛県松山市平井町地内",
"Capacity":"5000",
"la":"33.80586315000",
"ln":"132.81629174000"
},
"geometry":{
"type":"Point",
"coordinates":[
132.81629174,
33.80586315
]
}
},
{
"type":"Feature",
"properties":{
"Name":"東町浦公園",
"Jusho":"愛媛県松山市北条辻1443-11",
"Capacity":"5200",
"la":"33.97595653790",
"ln":"132.77368666900"
},
"geometry":{
"type":"Point",
"coordinates":[
132.773686669,
33.9759565379
]
}
},
{
"type":"Feature",
"properties":{
"Name":"東方中央公園",
"Jusho":"愛媛県松山市東方町甲1215外",
"Capacity":"3400",
"la":"33.76909376000",
"ln":"132.82142271000"
},
"geometry":{
"type":"Point",
"coordinates":[
132.82142271,
33.76909376
]
}
},
{
"type":"Feature",
"properties":{
"Name":"湯の山西公園",
"Jusho":"愛媛県松山市湯の山1-12-1外",
"Capacity":"3400",
"la":"33.86815879000",
"ln":"132.81375923000"
},
"geometry":{
"type":"Point",
"coordinates":[
132.81375923,
33.86815879
]
}
},
{
"type":"Feature",
"properties":{
"Name":"湯の山第１公園",
"Jusho":"愛媛県松山市湯の山5丁目地内",
"Capacity":"4000",
"la":"33.86899009000",
"ln":"132.81730374000"
},
"geometry":{
"type":"Point",
"coordinates":[
132.81730374,
33.86899009
]
}
},
{
"type":"Feature",
"properties":{
"Name":"湯の山第２公園",
"Jusho":"愛媛県松山市湯の山2丁目地内",
"Capacity":"11800",
"la":"33.86989959000",
"ln":"132.81400218000"
},
"geometry":{
"type":"Point",
"coordinates":[
132.81400218,
33.86989959
]
}
},
{
"type":"Feature",
"properties":{
"Name":"湯の山東公園",
"Jusho":"愛媛県松山市湯の山8丁目16",
"Capacity":"2800",
"la":"33.87167367420",
"ln":"132.81704084700"
},
"geometry":{
"type":"Point",
"coordinates":[
132.817040847,
33.8716736742
]
}
},
{
"type":"Feature",
"properties":{
"Name":"湯の山東第１公園",
"Jusho":"愛媛県松山市湯の山東1丁目8",
"Capacity":"3600",
"la":"33.87111145000",
"ln":"132.81873540000"
},
"geometry":{
"type":"Point",
"coordinates":[
132.8187354,
33.87111145
]
}
},
{
"type":"Feature",
"properties":{
"Name":"湯の山東第２公園",
"Jusho":"愛媛県松山市湯の山東1丁目7",
"Capacity":"5400",
"la":"33.87185110000",
"ln":"132.81823667000"
},
"geometry":{
"type":"Point",
"coordinates":[
132.81823667,
33.8718511
]
}
},
{
"type":"Feature",
"properties":{
"Name":"湯の山東第３公園",
"Jusho":"愛媛県松山市湯の山東5丁目6",
"Capacity":"5400",
"la":"33.87039368000",
"ln":"132.81926828000"
},
"geometry":{
"type":"Point",
"coordinates":[
132.81926828,
33.87039368
]
}
},
{
"type":"Feature",
"properties":{
"Name":"湯の山東第４公園",
"Jusho":"愛媛県松山市湯の山東2丁目8",
"Capacity":"2000",
"la":"33.87242289000",
"ln":"132.82137965000"
},
"geometry":{
"type":"Point",
"coordinates":[
132.82137965,
33.87242289
]
}
},
{
"type":"Feature",
"properties":{
"Name":"湯の山北公園",
"Jusho":"愛媛県松山市湯の山3-11-1外",
"Capacity":"3000",
"la":"33.87251618000",
"ln":"132.81469696000"
},
"geometry":{
"type":"Point",
"coordinates":[
132.81469696,
33.87251618
]
}
},
{
"type":"Feature",
"properties":{
"Name":"湯月公園",
"Jusho":"愛媛県松山市道後姫塚、桜谷町地内",
"Capacity":"34000",
"la":"33.85030923000",
"ln":"132.79076879000"
},
"geometry":{
"type":"Point",
"coordinates":[
132.79076879,
33.85030923
]
}
},
{
"type":"Feature",
"properties":{
"Name":"湯山公園",
"Jusho":"愛媛県松山市食場町甲316-4外",
"Capacity":"2800",
"la":"33.86259917000",
"ln":"132.81512378000"
},
"geometry":{
"type":"Point",
"coordinates":[
132.81512378,
33.86259917
]
}
},
{
"type":"Feature",
"properties":{
"Name":"道後公園",
"Jusho":"愛媛県松山市道後公園地内",
"Capacity":"171200",
"la":"33.84844553000",
"ln":"132.78679154000"
},
"geometry":{
"type":"Point",
"coordinates":[
132.78679154,
33.84844553
]
}
},
{
"type":"Feature",
"properties":{
"Name":"内宮公園",
"Jusho":"愛媛県松山市内宮町地内",
"Capacity":"2400",
"la":"33.89624558000",
"ln":"132.75022026000"
},
"geometry":{
"type":"Point",
"coordinates":[
132.75022026,
33.89624558
]
}
},
{
"type":"Feature",
"properties":{
"Name":"内新田公園",
"Jusho":"愛媛県松山市勝岡町地内",
"Capacity":"6600",
"la":"33.89758430000",
"ln":"132.73033401000"
},
"geometry":{
"type":"Point",
"coordinates":[
132.73033401,
33.8975843
]
}
},
{
"type":"Feature",
"properties":{
"Name":"内浜公園",
"Jusho":"愛媛県松山市内浜町12",
"Capacity":"6000",
"la":"33.86584884000",
"ln":"132.72765018000"
},
"geometry":{
"type":"Point",
"coordinates":[
132.72765018,
33.86584884
]
}
},
{
"type":"Feature",
"properties":{
"Name":"南吉田公園",
"Jusho":"愛媛県松山市南吉田町地内",
"Capacity":"2400",
"la":"33.82626483000",
"ln":"132.70504777000"
},
"geometry":{
"type":"Point",
"coordinates":[
132.70504777,
33.82626483
]
}
},
{
"type":"Feature",
"properties":{
"Name":"南吉田第三公園",
"Jusho":"愛媛県松山市南吉田町地内",
"Capacity":"3800",
"la":"33.82230118000",
"ln":"132.71064178000"
},
"geometry":{
"type":"Point",
"coordinates":[
132.71064178,
33.82230118
]
}
},
{
"type":"Feature",
"properties":{
"Name":"南吉田第二公園",
"Jusho":"愛媛県松山市南吉田町地内",
"Capacity":"2600",
"la":"33.82277367000",
"ln":"132.71012442000"
},
"geometry":{
"type":"Point",
"coordinates":[
132.71012442,
33.82277367
]
}
},
{
"type":"Feature",
"properties":{
"Name":"南吉田中央公園",
"Jusho":"愛媛県松山市南吉田町地内",
"Capacity":"5600",
"la":"33.82715731000",
"ln":"132.70970406000"
},
"geometry":{
"type":"Point",
"coordinates":[
132.70970406,
33.82715731
]
}
},
{
"type":"Feature",
"properties":{
"Name":"南久米公園",
"Jusho":"愛媛県松山市南久米町594外",
"Capacity":"18800",
"la":"33.81258892000",
"ln":"132.80289455000"
},
"geometry":{
"type":"Point",
"coordinates":[
132.80289455,
33.81258892
]
}
},
{
"type":"Feature",
"properties":{
"Name":"南江戸公園",
"Jusho":"愛媛県松山市南江戸4丁目1",
"Capacity":"34800",
"la":"33.83744325000",
"ln":"132.74269232000"
},
"geometry":{
"type":"Point",
"coordinates":[
132.74269232,
33.83744325
]
}
},
{
"type":"Feature",
"properties":{
"Name":"南斎院公園",
"Jusho":"愛媛県松山市南斎院町地内",
"Capacity":"2400",
"la":"33.83093721000",
"ln":"132.73499031000"
},
"geometry":{
"type":"Point",
"coordinates":[
132.73499031,
33.83093721
]
}
},
{
"type":"Feature",
"properties":{
"Name":"南土居公園",
"Jusho":"愛媛県松山市南土居町239-1",
"Capacity":"3600",
"la":"33.79618308000",
"ln":"132.80276521000"
},
"geometry":{
"type":"Point",
"coordinates":[
132.80276521,
33.79618308
]
}
},
{
"type":"Feature",
"properties":{
"Name":"南梅本公園",
"Jusho":"愛媛県松山市南梅本町225-5外",
"Capacity":"4000",
"la":"33.79972376000",
"ln":"132.83955593000"
},
"geometry":{
"type":"Point",
"coordinates":[
132.83955593,
33.79972376
]
}
},
{
"type":"Feature",
"properties":{
"Name":"南味酒公園",
"Jusho":"愛媛県松山市味酒町1丁目11",
"Capacity":"3400",
"la":"33.84246546030",
"ln":"132.75560464700"
},
"geometry":{
"type":"Point",
"coordinates":[
132.755604647,
33.8424654603
]
}
},
{
"type":"Feature",
"properties":{
"Name":"日尾公園",
"Jusho":"愛媛県松山市南久米町地内",
"Capacity":"50400",
"la":"33.81770519000",
"ln":"132.80554109700"
},
"geometry":{
"type":"Point",
"coordinates":[
132.805541097,
33.81770519
]
}
},
{
"type":"Feature",
"properties":{
"Name":"日分公園",
"Jusho":"愛媛県松山市山越1-531-1",
"Capacity":"2600",
"la":"33.85687767140",
"ln":"132.75825421800"
},
"geometry":{
"type":"Point",
"coordinates":[
132.758254218,
33.8568776714
]
}
},
{
"type":"Feature",
"properties":{
"Name":"馬木第１公園（おおつか公園）",
"Jusho":"愛媛県松山市馬木町",
"Capacity":"1000",
"la":"33.89341076910",
"ln":"132.74407171000"
},
"geometry":{
"type":"Point",
"coordinates":[
132.74407171,
33.8934107691
]
}
},
{
"type":"Feature",
"properties":{
"Name":"馬木第２公園（ともくに公園）",
"Jusho":"愛媛県松山市馬木町",
"Capacity":"2400",
"la":"33.89150302000",
"ln":"132.74570654000"
},
"geometry":{
"type":"Point",
"coordinates":[
132.74570654,
33.89150302
]
}
},
{
"type":"Feature",
"properties":{
"Name":"馬木第５公園（なかのちょう公園）",
"Jusho":"愛媛県松山市馬木町",
"Capacity":"1800",
"la":"33.89332782000",
"ln":"132.74718810000"
},
"geometry":{
"type":"Point",
"coordinates":[
132.7471881,
33.89332782
]
}
},
{
"type":"Feature",
"properties":{
"Name":"馬木第６公園（むくのき公園）",
"Jusho":"愛媛県松山市馬木町",
"Capacity":"2000",
"la":"33.89013442000",
"ln":"132.74752018000"
},
"geometry":{
"type":"Point",
"coordinates":[
132.74752018,
33.89013442
]
}
},
{
"type":"Feature",
"properties":{
"Name":"梅西公園",
"Jusho":"愛媛県松山市南梅本町1048-4",
"Capacity":"600",
"la":"33.79973610910",
"ln":"132.83227367000"
},
"geometry":{
"type":"Point",
"coordinates":[
132.83227367,
33.7997361091
]
}
},
{
"type":"Feature",
"properties":{
"Name":"泊公園",
"Jusho":"愛媛県松山市泊町533",
"Capacity":"3400",
"la":"33.87881602000",
"ln":"132.68247769000"
},
"geometry":{
"type":"Point",
"coordinates":[
132.68247769,
33.87881602
]
}
},
{
"type":"Feature",
"properties":{
"Name":"白山の杜公園",
"Jusho":"愛媛県松山市北井門1-101-1",
"Capacity":"4600",
"la":"33.80604759000",
"ln":"132.77908926000"
},
"geometry":{
"type":"Point",
"coordinates":[
132.77908926,
33.80604759
]
}
},
{
"type":"Feature",
"properties":{
"Name":"白水台公園",
"Jusho":"愛媛県松山市白水台2-12-6",
"Capacity":"4000",
"la":"33.87494687000",
"ln":"132.78027920000"
},
"geometry":{
"type":"Point",
"coordinates":[
132.7802792,
33.87494687
]
}
},
{
"type":"Feature",
"properties":{
"Name":"白水台西公園",
"Jusho":"愛媛県松山市白水台6丁目20",
"Capacity":"3400",
"la":"33.87539152660",
"ln":"132.77677930000"
},
"geometry":{
"type":"Point",
"coordinates":[
132.7767793,
33.8753915266
]
}
},
{
"type":"Feature",
"properties":{
"Name":"白水台南公園",
"Jusho":"愛媛県松山市白水台5-2-13",
"Capacity":"2200",
"la":"33.87200694000",
"ln":"132.77854603000"
},
"geometry":{
"type":"Point",
"coordinates":[
132.77854603,
33.87200694
]
}
},
{
"type":"Feature",
"properties":{
"Name":"白水台北公園",
"Jusho":"愛媛県松山市白水台4-22-7",
"Capacity":"12400",
"la":"33.87828578000",
"ln":"132.78043441000"
},
"geometry":{
"type":"Point",
"coordinates":[
132.78043441,
33.87828578
]
}
},
{
"type":"Feature",
"properties":{
"Name":"畑寺公園",
"Jusho":"愛媛県松山市畑寺1丁目508-1外",
"Capacity":"3800",
"la":"33.83211844000",
"ln":"132.80001671000"
},
"geometry":{
"type":"Point",
"coordinates":[
132.80001671,
33.83211844
]
}
},
{
"type":"Feature",
"properties":{
"Name":"八坂公園",
"Jusho":"愛媛県松山市三番町1-3-3",
"Capacity":"2800",
"la":"33.83731581000",
"ln":"132.77285501000"
},
"geometry":{
"type":"Point",
"coordinates":[
132.77285501,
33.83731581
]
}
},
{
"type":"Feature",
"properties":{
"Name":"八白公園",
"Jusho":"愛媛県松山市溝辺町711",
"Capacity":"6200",
"la":"33.84744805000",
"ln":"132.80680713000"
},
"geometry":{
"type":"Point",
"coordinates":[
132.80680713,
33.84744805
]
}
},
{
"type":"Feature",
"properties":{
"Name":"八反地公園",
"Jusho":"愛媛県松山市東垣生町地内",
"Capacity":"1400",
"la":"33.81547635000",
"ln":"132.71714119000"
},
"geometry":{
"type":"Point",
"coordinates":[
132.71714119,
33.81547635
]
}
},
{
"type":"Feature",
"properties":{
"Name":"飯岡公園",
"Jusho":"愛媛県松山市別府町地内",
"Capacity":"4000",
"la":"33.84897051000",
"ln":"132.72069808000"
},
"geometry":{
"type":"Point",
"coordinates":[
132.72069808,
33.84897051
]
}
},
{
"type":"Feature",
"properties":{
"Name":"尾儀原公園",
"Jusho":"愛媛県松山市尾儀原甲49-3外1",
"Capacity":"1200",
"la":"33.97553962000",
"ln":"132.82869345000"
},
"geometry":{
"type":"Point",
"coordinates":[
132.82869345,
33.97553962
]
}
},
{
"type":"Feature",
"properties":{
"Name":"姫原西公園",
"Jusho":"愛媛県松山市姫原3-392-4",
"Capacity":"2400",
"la":"33.86477262000",
"ln":"132.75610529000"
},
"geometry":{
"type":"Point",
"coordinates":[
132.75610529,
33.86477262
]
}
},
{
"type":"Feature",
"properties":{
"Name":"富久公園",
"Jusho":"愛媛県松山市富久町302-5外",
"Capacity":"4400",
"la":"33.82340365000",
"ln":"132.72774719000"
},
"geometry":{
"type":"Point",
"coordinates":[
132.72774719,
33.82340365
]
}
},
{
"type":"Feature",
"properties":{
"Name":"風早タウン公園",
"Jusho":"愛媛県松山市北条20-152",
"Capacity":"4400",
"la":"33.97905774000",
"ln":"132.78345890000"
},
"geometry":{
"type":"Point",
"coordinates":[
132.7834589,
33.97905774
]
}
},
{
"type":"Feature",
"properties":{
"Name":"福水公園",
"Jusho":"愛媛県松山市別府町136",
"Capacity":"5800",
"la":"33.84610934000",
"ln":"132.72829689000"
},
"geometry":{
"type":"Point",
"coordinates":[
132.72829689,
33.84610934
]
}
},
{
"type":"Feature",
"properties":{
"Name":"平井公園",
"Jusho":"愛媛県松山市平井町甲2520",
"Capacity":"4800",
"la":"33.81024663000",
"ln":"132.82676615000"
},
"geometry":{
"type":"Point",
"coordinates":[
132.82676615,
33.81024663
]
}
},
{
"type":"Feature",
"properties":{
"Name":"平田公園",
"Jusho":"愛媛県松山市平田町地内",
"Capacity":"12000",
"la":"33.89144195000",
"ln":"132.75141667000"
},
"geometry":{
"type":"Point",
"coordinates":[
132.75141667,
33.89144195
]
}
},
{
"type":"Feature",
"properties":{
"Name":"別府清水山公園",
"Jusho":"愛媛県松山市別府町755-2外",
"Capacity":"3000",
"la":"33.84684432000",
"ln":"132.71578310000"
},
"geometry":{
"type":"Point",
"coordinates":[
132.7157831,
33.84684432
]
}
},
{
"type":"Feature",
"properties":{
"Name":"保免公園",
"Jusho":"愛媛県松山市保免町地内",
"Capacity":"4600",
"la":"33.81626967000",
"ln":"132.74907795000"
},
"geometry":{
"type":"Point",
"coordinates":[
132.74907795,
33.81626967
]
}
},
{
"type":"Feature",
"properties":{
"Name":"北吉田公園",
"Jusho":"愛媛県松山市北吉田町1203-17",
"Capacity":"6200",
"la":"33.83827783670",
"ln":"132.70875196300"
},
"geometry":{
"type":"Point",
"coordinates":[
132.708751963,
33.8382778367
]
}
},
{
"type":"Feature",
"properties":{
"Name":"北久米七区公園",
"Jusho":"愛媛県松山市北久米町644",
"Capacity":"4600",
"la":"33.81722779000",
"ln":"132.79549073000"
},
"geometry":{
"type":"Point",
"coordinates":[
132.79549073,
33.81722779
]
}
},
{
"type":"Feature",
"properties":{
"Name":"北久米八区公園",
"Jusho":"愛媛県松山市北久米町1069-1外",
"Capacity":"2600",
"la":"33.81237893000",
"ln":"132.79138317000"
},
"geometry":{
"type":"Point",
"coordinates":[
132.79138317,
33.81237893
]
}
},
{
"type":"Feature",
"properties":{
"Name":"北窪田公園",
"Jusho":"愛媛県松山市久米窪田町地内",
"Capacity":"3600",
"la":"33.80687457000",
"ln":"132.81136832000"
},
"geometry":{
"type":"Point",
"coordinates":[
132.81136832,
33.80687457
]
}
},
{
"type":"Feature",
"properties":{
"Name":"北古川公園",
"Jusho":"愛媛県松山市古川北1丁目地内",
"Capacity":"3200",
"la":"33.81392764000",
"ln":"132.76273404000"
},
"geometry":{
"type":"Point",
"coordinates":[
132.76273404,
33.81392764
]
}
},
{
"type":"Feature",
"properties":{
"Name":"北斎院公園",
"Jusho":"愛媛県松山市北斎院町237-1外",
"Capacity":"3200",
"la":"33.83428559440",
"ln":"132.72969272400"
},
"geometry":{
"type":"Point",
"coordinates":[
132.729692724,
33.8342855944
]
}
},
{
"type":"Feature",
"properties":{
"Name":"北条公園（法橋運動公園）",
"Jusho":"愛媛県松山市下難波甲18-10",
"Capacity":"43400",
"la":"33.98359247950",
"ln":"132.77353858300"
},
"geometry":{
"type":"Point",
"coordinates":[
132.773538583,
33.9835924795
]
}
},
{
"type":"Feature",
"properties":{
"Name":"北土居公園",
"Jusho":"愛媛県松山市北土居4丁目地内",
"Capacity":"3800",
"la":"33.80759736940",
"ln":"132.78519225500"
},
"geometry":{
"type":"Point",
"coordinates":[
132.785192255,
33.8075973694
]
}
},
{
"type":"Feature",
"properties":{
"Name":"北梅本小山公園",
"Jusho":"愛媛県松山市北梅本町地内",
"Capacity":"5200",
"la":"33.81384889000",
"ln":"132.84628860000"
},
"geometry":{
"type":"Point",
"coordinates":[
132.8462886,
33.81384889
]
}
},
{
"type":"Feature",
"properties":{
"Name":"堀江中央公園",
"Jusho":"愛媛県松山市堀江町1567-1",
"Capacity":"4800",
"la":"33.90430413000",
"ln":"132.75041427000"
},
"geometry":{
"type":"Point",
"coordinates":[
132.75041427,
33.90430413
]
}
},
{
"type":"Feature",
"properties":{
"Name":"堀江東公園",
"Jusho":"愛媛県松山市堀江町地内",
"Capacity":"4800",
"la":"33.90658783000",
"ln":"132.75477954000"
},
"geometry":{
"type":"Point",
"coordinates":[
132.75477954,
33.90658783
]
}
},
{
"type":"Feature",
"properties":{
"Name":"味栗公園",
"Jusho":"愛媛県松山市浅海原甲279-1外3",
"Capacity":"3400",
"la":"34.00198307000",
"ln":"132.79441200000"
},
"geometry":{
"type":"Point",
"coordinates":[
132.794412,
34.00198307
]
}
},
{
"type":"Feature",
"properties":{
"Name":"木屋町公園",
"Jusho":"愛媛県松山市木屋町3-4-3",
"Capacity":"2200",
"la":"33.85209000000",
"ln":"132.75995000000"
},
"geometry":{
"type":"Point",
"coordinates":[
132.75995,
33.85209
]
}
},
{
"type":"Feature",
"properties":{
"Name":"門田公園",
"Jusho":"愛媛県松山市門田町地内",
"Capacity":"5200",
"la":"33.90428583830",
"ln":"132.68848253200"
},
"geometry":{
"type":"Point",
"coordinates":[
132.688482532,
33.9042858383
]
}
},
{
"type":"Feature",
"properties":{
"Name":"湧ケ淵公園",
"Jusho":"愛媛県松山市末町乙231-1外",
"Capacity":"30600",
"la":"33.87162370000",
"ln":"132.82879517000"
},
"geometry":{
"type":"Point",
"coordinates":[
132.82879517,
33.8716237
]
}
},
{
"type":"Feature",
"properties":{
"Name":"由良公園",
"Jusho":"愛媛県松山市由良町1032-3外",
"Capacity":"3200",
"la":"33.90406471140",
"ln":"132.68086702600"
},
"geometry":{
"type":"Point",
"coordinates":[
132.680867026,
33.9040647114
]
}
},
{
"type":"Feature",
"properties":{
"Name":"余戸西さくら公園",
"Jusho":"愛媛県松山市余戸西2-2279-1外",
"Capacity":"4400",
"la":"33.81413763000",
"ln":"132.72276754000"
},
"geometry":{
"type":"Point",
"coordinates":[
132.72276754,
33.81413763
]
}
},
{
"type":"Feature",
"properties":{
"Name":"余戸中新開公園",
"Jusho":"愛媛県松山市余戸中5丁目3外",
"Capacity":"4000",
"la":"33.81633733000",
"ln":"132.73208659000"
},
"geometry":{
"type":"Point",
"coordinates":[
132.73208659,
33.81633733
]
}
},
{
"type":"Feature",
"properties":{
"Name":"余戸東すみれ公園",
"Jusho":"愛媛県松山市余戸東3-1082-2",
"Capacity":"4000",
"la":"33.81181307000",
"ln":"132.73326651000"
},
"geometry":{
"type":"Point",
"coordinates":[
132.73326651,
33.81181307
]
}
},
{
"type":"Feature",
"properties":{
"Name":"余戸東竹の宮公園",
"Jusho":"愛媛県松山市余戸東5丁目209",
"Capacity":"3000",
"la":"33.81686232000",
"ln":"132.73736372000"
},
"geometry":{
"type":"Point",
"coordinates":[
132.73736372,
33.81686232
]
}
},
{
"type":"Feature",
"properties":{
"Name":"来住公園",
"Jusho":"愛媛県松山市来住町地内",
"Capacity":"5800",
"la":"33.80563285000",
"ln":"132.79972569000"
},
"geometry":{
"type":"Point",
"coordinates":[
132.79972569,
33.80563285
]
}
},
{
"type":"Feature",
"properties":{
"Name":"六町公園",
"Jusho":"愛媛県松山市勝岡町地内",
"Capacity":"4400",
"la":"33.90183670000",
"ln":"132.72422263000"
},
"geometry":{
"type":"Point",
"coordinates":[
132.72422263,
33.9018367
]
}
},
{
"type":"Feature",
"properties":{
"Name":"和気公園",
"Jusho":"愛媛県松山市和気町1丁目地内",
"Capacity":"6800",
"la":"33.89010324000",
"ln":"132.73722145000"
},
"geometry":{
"type":"Point",
"coordinates":[
132.73722145,
33.89010324
]
}
},
{
"type":"Feature",
"properties":{
"Name":"和気松原公園",
"Jusho":"愛媛県松山市和気町2丁目818-1外",
"Capacity":"3200",
"la":"33.90129716300",
"ln":"132.73603025500"
},
"geometry":{
"type":"Point",
"coordinates":[
132.736030255,
33.901297163
]
}
},
{
"type":"Feature",
"properties":{
"Name":"和気浜公園",
"Jusho":"愛媛県松山市和気町2丁目986外",
"Capacity":"3600",
"la":"33.89701890000",
"ln":"132.73426274000"
},
"geometry":{
"type":"Point",
"coordinates":[
132.73426274,
33.8970189
]
}
},
{
"type":"Feature",
"properties":{
"Name":"和泉公園",
"Jusho":"愛媛県松山市和泉北3丁目地内",
"Capacity":"2600",
"la":"33.81913198470",
"ln":"132.75654638000"
},
"geometry":{
"type":"Point",
"coordinates":[
132.75654638,
33.8191319847
]
}
},
{
"type":"Feature",
"properties":{
"Name":"和泉南公園",
"Jusho":"愛媛県松山市和泉南4丁目地内",
"Capacity":"2800",
"la":"33.81537135000",
"ln":"132.75911248000"
},
"geometry":{
"type":"Point",
"coordinates":[
132.75911248,
33.81537135
]
}
},
{
"type":"Feature",
"properties":{
"Name":"鷲ケ巣公園",
"Jusho":"愛媛県松山市由良町418",
"Capacity":"2400",
"la":"33.89938698250",
"ln":"132.66790701600"
},
"geometry":{
"type":"Point",
"coordinates":[
132.667907016,
33.8993869825
]
}
},
{
"type":"Feature",
"properties":{
"Name":"祓川公園",
"Jusho":"愛媛県松山市祓川2丁目3",
"Capacity":"2200",
"la":"33.86055258910",
"ln":"132.72090535800"
},
"geometry":{
"type":"Point",
"coordinates":[
132.720905358,
33.8605525891
]
}
},
{
"type":"Feature",
"properties":{
"Name":"今治市営玉川総合公園多目的広場",
"Jusho":"愛媛県今治市玉川町摺木108番地",
"Capacity":"490",
"la":"34.02255899910",
"ln":"132.93547600000"
},
"geometry":{
"type":"Point",
"coordinates":[
132.935476,
34.0225589991
]
}
},
{
"type":"Feature",
"properties":{
"Name":"今治市宮窪石文化運動公園（石文化伝承館）",
"Jusho":"愛媛県今治市宮窪町宮窪3546番地",
"Capacity":"410",
"la":"34.16088184580",
"ln":"133.07221194200"
},
"geometry":{
"type":"Point",
"coordinates":[
133.072211942,
34.1608818458
]
}
},
{
"type":"Feature",
"properties":{
"Name":"波方公園武道館",
"Jusho":"愛媛県今治市波方町樋口乙730番地",
"Capacity":"300",
"la":"34.10410204650",
"ln":"132.95031392800"
},
"geometry":{
"type":"Point",
"coordinates":[
132.950313928,
34.1041020465
]
}
},
{
"type":"Feature",
"properties":{
"Name":"緑の広場（運動公園）総合体育館",
"Jusho":"愛媛県今治市菊間町池原1691番地1",
"Capacity":"930",
"la":"34.03109199910",
"ln":"132.86213600000"
},
"geometry":{
"type":"Point",
"coordinates":[
132.862136,
34.0310919991
]
}
},
{
"type":"Feature",
"properties":{
"Name":"ふれあい運動公園",
"Jusho":"愛媛県宇和島市吉田町鶴間1507",
"Capacity":"3645",
"la":"33.27900899910",
"ln":"132.53417900000"
},
"geometry":{
"type":"Point",
"coordinates":[
132.534179,
33.2790089991
]
}
},
{
"type":"Feature",
"properties":{
"Name":"愛宕公園",
"Jusho":"愛媛県宇和島市大超寺奥丙165番地1",
"Capacity":"12400",
"la":"33.21432811400",
"ln":"132.57438201000"
},
"geometry":{
"type":"Point",
"coordinates":[
132.57438201,
33.214328114
]
}
},
{
"type":"Feature",
"properties":{
"Name":"丸山公園",
"Jusho":"愛媛県宇和島市和霊町555番地1",
"Capacity":"37000",
"la":"33.22912052000",
"ln":"132.57637403000"
},
"geometry":{
"type":"Point",
"coordinates":[
132.57637403,
33.22912052
]
}
},
{
"type":"Feature",
"properties":{
"Name":"丸山公園ピアノタウン団地",
"Jusho":"愛媛県宇和島市",
"Capacity":"－",
"la":"33.22621991550",
"ln":"132.57487918500"
},
"geometry":{
"type":"Point",
"coordinates":[
132.574879185,
33.2262199155
]
}
},
{
"type":"Feature",
"properties":{
"Name":"丸山公園運動広場",
"Jusho":"愛媛県宇和島市",
"Capacity":"－",
"la":"33.22876629690",
"ln":"132.57491728700"
},
"geometry":{
"type":"Point",
"coordinates":[
132.574917287,
33.2287662969
]
}
},
{
"type":"Feature",
"properties":{
"Name":"吉田公園（ふれあいの森頂上）",
"Jusho":"愛媛県宇和島市",
"Capacity":"－",
"la":"33.28407194910",
"ln":"132.53269345000"
},
"geometry":{
"type":"Point",
"coordinates":[
132.53269345,
33.2840719491
]
}
},
{
"type":"Feature",
"properties":{
"Name":"吉田公園自由広場",
"Jusho":"愛媛県宇和島市吉田町鶴間新",
"Capacity":"5240",
"la":"33.28514167660",
"ln":"132.53354586000"
},
"geometry":{
"type":"Point",
"coordinates":[
132.53354586,
33.2851416766
]
}
},
{
"type":"Feature",
"properties":{
"Name":"吉田児童公園",
"Jusho":"愛媛県宇和島市西小路7",
"Capacity":"1960",
"la":"33.28000794000",
"ln":"132.53942027000"
},
"geometry":{
"type":"Point",
"coordinates":[
132.53942027,
33.28000794
]
}
},
{
"type":"Feature",
"properties":{
"Name":"魚棚児童公園",
"Jusho":"愛媛県宇和島市吉田町魚棚35-1",
"Capacity":"610",
"la":"33.27575800000",
"ln":"132.54131600000"
},
"geometry":{
"type":"Point",
"coordinates":[
132.541316,
33.275758
]
}
},
{
"type":"Feature",
"properties":{
"Name":"君ケ浦公園",
"Jusho":"愛媛県宇和島市吉田町立間尻",
"Capacity":"840",
"la":"33.26795937910",
"ln":"132.54299239000"
},
"geometry":{
"type":"Point",
"coordinates":[
132.54299239,
33.2679593791
]
}
},
{
"type":"Feature",
"properties":{
"Name":"君ヶ浦児童公園",
"Jusho":"愛媛県宇和島市",
"Capacity":"－",
"la":"33.26762842700",
"ln":"132.54320777600"
},
"geometry":{
"type":"Point",
"coordinates":[
132.543207776,
33.267628427
]
}
},
{
"type":"Feature",
"properties":{
"Name":"三間町運動公園",
"Jusho":"愛媛県宇和島市三間町黒井地1542番地",
"Capacity":"－",
"la":"33.30924593000",
"ln":"132.59693711000"
},
"geometry":{
"type":"Point",
"coordinates":[
132.59693711,
33.30924593
]
}
},
{
"type":"Feature",
"properties":{
"Name":"市営団地裏公園",
"Jusho":"愛媛県宇和島市",
"Capacity":"－",
"la":"33.23743717470",
"ln":"132.58221094200"
},
"geometry":{
"type":"Point",
"coordinates":[
132.582210942,
33.2374371747
]
}
},
{
"type":"Feature",
"properties":{
"Name":"住吉山公園",
"Jusho":"愛媛県宇和島市",
"Capacity":"－",
"la":"33.22819255140",
"ln":"132.55549579400"
},
"geometry":{
"type":"Point",
"coordinates":[
132.555495794,
33.2281925514
]
}
},
{
"type":"Feature",
"properties":{
"Name":"城山公園",
"Jusho":"愛媛県宇和島市",
"Capacity":"－",
"la":"33.22057712000",
"ln":"132.56426608000"
},
"geometry":{
"type":"Point",
"coordinates":[
132.56426608,
33.22057712
]
}
},
{
"type":"Feature",
"properties":{
"Name":"石丸公園",
"Jusho":"愛媛県宇和島市祝森甲580番地1",
"Capacity":"3800",
"la":"33.18093146000",
"ln":"132.54351635000"
},
"geometry":{
"type":"Point",
"coordinates":[
132.54351635,
33.18093146
]
}
},
{
"type":"Feature",
"properties":{
"Name":"天赦公園",
"Jusho":"愛媛県宇和島市天赦公園",
"Capacity":"26200",
"la":"33.21555892000",
"ln":"132.56099642000"
},
"geometry":{
"type":"Point",
"coordinates":[
132.56099642,
33.21555892
]
}
},
{
"type":"Feature",
"properties":{
"Name":"土居の奥公園",
"Jusho":"愛媛県宇和島市",
"Capacity":"－",
"la":"33.12287661550",
"ln":"132.52406568300"
},
"geometry":{
"type":"Point",
"coordinates":[
132.524065683,
33.1228766155
]
}
},
{
"type":"Feature",
"properties":{
"Name":"平浦公園上の山",
"Jusho":"愛媛県宇和島市",
"Capacity":"－",
"la":"33.19159780350",
"ln":"132.50010761500"
},
"geometry":{
"type":"Point",
"coordinates":[
132.500107615,
33.1915978035
]
}
},
{
"type":"Feature",
"properties":{
"Name":"保手公園",
"Jusho":"愛媛県宇和島市",
"Capacity":"－",
"la":"33.21398294910",
"ln":"132.54766235000"
},
"geometry":{
"type":"Point",
"coordinates":[
132.54766235,
33.2139829491
]
}
},
{
"type":"Feature",
"properties":{
"Name":"和霊公園",
"Jusho":"愛媛県宇和島市和霊公園",
"Capacity":"11800",
"la":"33.22837401000",
"ln":"132.56569656000"
},
"geometry":{
"type":"Point",
"coordinates":[
132.56569656,
33.22837401
]
}
},
{
"type":"Feature",
"properties":{
"Name":"喜光地公園",
"Jusho":"愛媛県新居浜市喜光地町2-7",
"Capacity":"3400",
"la":"33.93279092280",
"ln":"133.30129512800"
},
"geometry":{
"type":"Point",
"coordinates":[
133.301295128,
33.9327909228
]
}
},
{
"type":"Feature",
"properties":{
"Name":"山根公園",
"Jusho":"愛媛県新居浜市角野新田町3-13",
"Capacity":"204000",
"la":"33.92349927000",
"ln":"133.31125514000"
},
"geometry":{
"type":"Point",
"coordinates":[
133.31125514,
33.92349927
]
}
},
{
"type":"Feature",
"properties":{
"Name":"寿公園",
"Jusho":"愛媛県新居浜市寿町4",
"Capacity":"5600",
"la":"33.94309515910",
"ln":"133.30463919000"
},
"geometry":{
"type":"Point",
"coordinates":[
133.30463919,
33.9430951591
]
}
},
{
"type":"Feature",
"properties":{
"Name":"松の木公園",
"Jusho":"愛媛県新居浜市松の木町8",
"Capacity":"13400",
"la":"33.97965341000",
"ln":"133.29582644000"
},
"geometry":{
"type":"Point",
"coordinates":[
133.29582644,
33.97965341
]
}
},
{
"type":"Feature",
"properties":{
"Name":"新居浜公園",
"Jusho":"愛媛県新居浜市新須賀町3-2",
"Capacity":"54000",
"la":"33.97013541000",
"ln":"133.28509788000"
},
"geometry":{
"type":"Point",
"coordinates":[
133.28509788,
33.97013541
]
}
},
{
"type":"Feature",
"properties":{
"Name":"新須賀公園",
"Jusho":"愛媛県新居浜市新須賀町4-9",
"Capacity":"3600",
"la":"33.97106855000",
"ln":"133.28877624000"
},
"geometry":{
"type":"Point",
"coordinates":[
133.28877624,
33.97106855
]
}
},
{
"type":"Feature",
"properties":{
"Name":"新田公園",
"Jusho":"愛媛県新居浜市角野新田町1-16",
"Capacity":"5800",
"la":"33.92506592000",
"ln":"133.31699774000"
},
"geometry":{
"type":"Point",
"coordinates":[
133.31699774,
33.92506592
]
}
},
{
"type":"Feature",
"properties":{
"Name":"瀬戸公園",
"Jusho":"愛媛県新居浜市瀬戸町3",
"Capacity":"4000",
"la":"33.94330744940",
"ln":"133.29940980300"
},
"geometry":{
"type":"Point",
"coordinates":[
133.299409803,
33.9433074494
]
}
},
{
"type":"Feature",
"properties":{
"Name":"西喜光地公園",
"Jusho":"愛媛県新居浜市西喜光地町6",
"Capacity":"4200",
"la":"33.93660467000",
"ln":"133.29401280000"
},
"geometry":{
"type":"Point",
"coordinates":[
133.2940128,
33.93660467
]
}
},
{
"type":"Feature",
"properties":{
"Name":"船木公園",
"Jusho":"愛媛県新居浜市船木国領",
"Capacity":"5400",
"la":"33.93690252000",
"ln":"133.32198059000"
},
"geometry":{
"type":"Point",
"coordinates":[
133.32198059,
33.93690252
]
}
},
{
"type":"Feature",
"properties":{
"Name":"中央公園",
"Jusho":"愛媛県新居浜市繁本町3",
"Capacity":"10800",
"la":"33.96115655000",
"ln":"133.28200703000"
},
"geometry":{
"type":"Point",
"coordinates":[
133.28200703,
33.96115655
]
}
},
{
"type":"Feature",
"properties":{
"Name":"中須賀公園",
"Jusho":"愛媛県新居浜市中須賀町2-5",
"Capacity":"3800",
"la":"33.96700072810",
"ln":"133.27063817600"
},
"geometry":{
"type":"Point",
"coordinates":[
133.270638176,
33.9670007281
]
}
},
{
"type":"Feature",
"properties":{
"Name":"土橋公園",
"Jusho":"愛媛県新居浜市土橋2-14",
"Capacity":"12600",
"la":"33.93040448000",
"ln":"133.29352746000"
},
"geometry":{
"type":"Point",
"coordinates":[
133.29352746,
33.93040448
]
}
},
{
"type":"Feature",
"properties":{
"Name":"別子山市民運動公園",
"Jusho":"愛媛県新居浜市別子山乙304-8",
"Capacity":"22760",
"la":"33.86281093620",
"ln":"133.44198984300"
},
"geometry":{
"type":"Point",
"coordinates":[
133.441989843,
33.8628109362
]
}
},
{
"type":"Feature",
"properties":{
"Name":"喜多川公園",
"Jusho":"愛媛県西条市喜多川752",
"Capacity":"－",
"la":"33.92256613000",
"ln":"133.17180935000"
},
"geometry":{
"type":"Point",
"coordinates":[
133.17180935,
33.92256613
]
}
},
{
"type":"Feature",
"properties":{
"Name":"吉岡東部ふれあい公園",
"Jusho":"愛媛県西条市安用出作136-3",
"Capacity":"－",
"la":"33.93047789510",
"ln":"133.05910198300"
},
"geometry":{
"type":"Point",
"coordinates":[
133.059101983,
33.9304778951
]
}
},
{
"type":"Feature",
"properties":{
"Name":"桑村大池公園",
"Jusho":"愛媛県西条市桑村154-2",
"Capacity":"－",
"la":"33.94320298000",
"ln":"133.06145912000"
},
"geometry":{
"type":"Point",
"coordinates":[
133.06145912,
33.94320298
]
}
},
{
"type":"Feature",
"properties":{
"Name":"高須公園",
"Jusho":"愛媛県西条市高田458-1",
"Capacity":"－",
"la":"33.94975154000",
"ln":"133.08636400000"
},
"geometry":{
"type":"Point",
"coordinates":[
133.086364,
33.94975154
]
}
},
{
"type":"Feature",
"properties":{
"Name":"黒谷公園",
"Jusho":"愛媛県西条市黒谷乙34-41",
"Capacity":"－",
"la":"33.95205944010",
"ln":"133.00822923000"
},
"geometry":{
"type":"Point",
"coordinates":[
133.00822923,
33.9520594401
]
}
},
{
"type":"Feature",
"properties":{
"Name":"三津屋東１号公園",
"Jusho":"愛媛県西条市三津屋東43",
"Capacity":"－",
"la":"33.93332832000",
"ln":"133.09466586000"
},
"geometry":{
"type":"Point",
"coordinates":[
133.09466586,
33.93332832
]
}
},
{
"type":"Feature",
"properties":{
"Name":"小松中央公園",
"Jusho":"愛媛県西条市小松町新屋敷甲2427",
"Capacity":"－",
"la":"33.88804004000",
"ln":"133.10986466000"
},
"geometry":{
"type":"Point",
"coordinates":[
133.10986466,
33.88804004
]
}
},
{
"type":"Feature",
"properties":{
"Name":"神戸公園",
"Jusho":"愛媛県西条市中野甲1799",
"Capacity":"－",
"la":"33.89639681000",
"ln":"133.18248682000"
},
"geometry":{
"type":"Point",
"coordinates":[
133.18248682,
33.89639681
]
}
},
{
"type":"Feature",
"properties":{
"Name":"西条運動公園",
"Jusho":"愛媛県西条市ひうち1-2",
"Capacity":"－",
"la":"33.93587889000",
"ln":"133.18652281000"
},
"geometry":{
"type":"Point",
"coordinates":[
133.18652281,
33.93587889
]
}
},
{
"type":"Feature",
"properties":{
"Name":"西条市民公園",
"Jusho":"愛媛県西条市大町457",
"Capacity":"－",
"la":"33.91742350000",
"ln":"133.19324093000"
},
"geometry":{
"type":"Point",
"coordinates":[
133.19324093,
33.9174235
]
}
},
{
"type":"Feature",
"properties":{
"Name":"西条西部公園",
"Jusho":"愛媛県西条市氷見乙608",
"Capacity":"－",
"la":"33.89942432000",
"ln":"133.13321206000"
},
"geometry":{
"type":"Point",
"coordinates":[
133.13321206,
33.89942432
]
}
},
{
"type":"Feature",
"properties":{
"Name":"石井記念公園",
"Jusho":"愛媛県西条市禎瑞1824",
"Capacity":"－",
"la":"33.91501808000",
"ln":"133.13916386000"
},
"geometry":{
"type":"Point",
"coordinates":[
133.13916386,
33.91501808
]
}
},
{
"type":"Feature",
"properties":{
"Name":"石根ふれあい公園",
"Jusho":"愛媛県西条市小松町大頭甲614",
"Capacity":"－",
"la":"33.87763037000",
"ln":"133.06940265000"
},
"geometry":{
"type":"Point",
"coordinates":[
133.06940265,
33.87763037
]
}
},
{
"type":"Feature",
"properties":{
"Name":"石土神社公園",
"Jusho":"愛媛県西条市小松町妙口721-1",
"Capacity":"－",
"la":"33.87834183030",
"ln":"133.08020934800"
},
"geometry":{
"type":"Point",
"coordinates":[
133.080209348,
33.8783418303
]
}
},
{
"type":"Feature",
"properties":{
"Name":"川沿公園",
"Jusho":"愛媛県西条市喜多川284",
"Capacity":"－",
"la":"33.91240530000",
"ln":"133.17114520000"
},
"geometry":{
"type":"Point",
"coordinates":[
133.1711452,
33.9124053
]
}
},
{
"type":"Feature",
"properties":{
"Name":"大曲公園",
"Jusho":"愛媛県西条市三津屋南1-46",
"Capacity":"－",
"la":"33.93395041000",
"ln":"133.08843308000"
},
"geometry":{
"type":"Point",
"coordinates":[
133.08843308,
33.93395041
]
}
},
{
"type":"Feature",
"properties":{
"Name":"大新田公園",
"Jusho":"愛媛県西条市大新田108-3",
"Capacity":"－",
"la":"33.94058605000",
"ln":"133.08774338000"
},
"geometry":{
"type":"Point",
"coordinates":[
133.08774338,
33.94058605
]
}
},
{
"type":"Feature",
"properties":{
"Name":"丹原総合公園",
"Jusho":"愛媛県西条市丹原町久妙寺甲244",
"Capacity":"－",
"la":"33.90000494000",
"ln":"133.04610634000"
},
"geometry":{
"type":"Point",
"coordinates":[
133.04610634,
33.90000494
]
}
},
{
"type":"Feature",
"properties":{
"Name":"東予運動公園",
"Jusho":"愛媛県西条市河原津新田甲157",
"Capacity":"－",
"la":"33.96420480000",
"ln":"133.07402615000"
},
"geometry":{
"type":"Point",
"coordinates":[
133.07402615,
33.9642048
]
}
},
{
"type":"Feature",
"properties":{
"Name":"北条新田公園",
"Jusho":"愛媛県西条市北条1300-1",
"Capacity":"－",
"la":"33.93200119000",
"ln":"133.10255902000"
},
"geometry":{
"type":"Point",
"coordinates":[
133.10255902,
33.93200119
]
}
},
{
"type":"Feature",
"properties":{
"Name":"北川農村公園",
"Jusho":"愛媛県西条市小松町北川286-1",
"Capacity":"－",
"la":"33.89944026800",
"ln":"133.09113381100"
},
"geometry":{
"type":"Point",
"coordinates":[
133.091133811,
33.899440268
]
}
},
{
"type":"Feature",
"properties":{
"Name":"本谷公園",
"Jusho":"愛媛県西条市河之内486-1",
"Capacity":"－",
"la":"33.92994716490",
"ln":"133.02323478700"
},
"geometry":{
"type":"Point",
"coordinates":[
133.023234787,
33.9299471649
]
}
},
{
"type":"Feature",
"properties":{
"Name":"稲荷山公園",
"Jusho":"愛媛県大洲市新谷",
"Capacity":"－",
"la":"33.52826368000",
"ln":"132.60097310000"
},
"geometry":{
"type":"Point",
"coordinates":[
132.6009731,
33.52826368
]
}
},
{
"type":"Feature",
"properties":{
"Name":"新谷公園",
"Jusho":"愛媛県大洲市新谷町",
"Capacity":"－",
"la":"33.53865261000",
"ln":"132.59711592000"
},
"geometry":{
"type":"Point",
"coordinates":[
132.59711592,
33.53865261
]
}
},
{
"type":"Feature",
"properties":{
"Name":"森林公園",
"Jusho":"愛媛県大洲市北只",
"Capacity":"－",
"la":"33.49409011000",
"ln":"132.53736804000"
},
"geometry":{
"type":"Point",
"coordinates":[
132.53736804,
33.49409011
]
}
},
{
"type":"Feature",
"properties":{
"Name":"大洲総合運動公園",
"Jusho":"愛媛県大洲市平野町野田乙1644番地",
"Capacity":"－",
"la":"33.48556745000",
"ln":"132.51882295000"
},
"geometry":{
"type":"Point",
"coordinates":[
132.51882295,
33.48556745
]
}
},
{
"type":"Feature",
"properties":{
"Name":"徳森公園",
"Jusho":"愛媛県大洲市徳森2280番地2",
"Capacity":"－",
"la":"33.51906161270",
"ln":"132.58362058700"
},
"geometry":{
"type":"Point",
"coordinates":[
132.583620587,
33.5190616127
]
}
},
{
"type":"Feature",
"properties":{
"Name":"徳森児童公園",
"Jusho":"愛媛県大洲市徳森1809番地1",
"Capacity":"－",
"la":"33.52553677870",
"ln":"132.58739355100"
},
"geometry":{
"type":"Point",
"coordinates":[
132.587393551,
33.5255367787
]
}
},
{
"type":"Feature",
"properties":{
"Name":"冨士山公園",
"Jusho":"愛媛県大洲市柚木",
"Capacity":"－",
"la":"33.50941430000",
"ln":"132.56127741000"
},
"geometry":{
"type":"Point",
"coordinates":[
132.56127741,
33.5094143
]
}
},
{
"type":"Feature",
"properties":{
"Name":"ふたみ潮風ふれあい公園潮風みどりの広場",
"Jusho":"愛媛県伊予市双海町上灘",
"Capacity":"－",
"la":"33.68307474350",
"ln":"132.63520424100"
},
"geometry":{
"type":"Point",
"coordinates":[
132.635204241,
33.6830747435
]
}
},
{
"type":"Feature",
"properties":{
"Name":"やまじ風公園",
"Jusho":"愛媛県四国中央市土居町畑野1637",
"Capacity":"12400",
"la":"33.94720800000",
"ln":"133.41203500000"
},
"geometry":{
"type":"Point",
"coordinates":[
133.412035,
33.947208
]
}
},
{
"type":"Feature",
"properties":{
"Name":"伊予三島運動公園",
"Jusho":"愛媛県四国中央市中之庄町1665-1",
"Capacity":"35600",
"la":"33.97902095000",
"ln":"133.52737824000"
},
"geometry":{
"type":"Point",
"coordinates":[
133.52737824,
33.97902095
]
}
},
{
"type":"Feature",
"properties":{
"Name":"新田公園",
"Jusho":"愛媛県四国中央市柴生町宇山瀬乙169",
"Capacity":"3100",
"la":"33.99382155000",
"ln":"133.61649557000"
},
"geometry":{
"type":"Point",
"coordinates":[
133.61649557,
33.99382155
]
}
},
{
"type":"Feature",
"properties":{
"Name":"森と湖畔の公園",
"Jusho":"愛媛県四国中央市金田町半田232",
"Capacity":"1000",
"la":"34.00211118050",
"ln":"133.60514394000"
},
"geometry":{
"type":"Point",
"coordinates":[
133.60514394,
34.0021111805
]
}
},
{
"type":"Feature",
"properties":{
"Name":"朝日児童公園",
"Jusho":"愛媛県四国中央市三島朝日2丁目51-1",
"Capacity":"700",
"la":"33.98801568530",
"ln":"133.55802089800"
},
"geometry":{
"type":"Point",
"coordinates":[
133.558020898,
33.9880156853
]
}
},
{
"type":"Feature",
"properties":{
"Name":"浜公園多目的広場",
"Jusho":"愛媛県四国中央市川之江町4109-3",
"Capacity":"9700",
"la":"34.01844601000",
"ln":"133.56674823000"
},
"geometry":{
"type":"Point",
"coordinates":[
133.56674823,
34.01844601
]
}
},
{
"type":"Feature",
"properties":{
"Name":"いきなスポレク公園体育館",
"Jusho":"愛媛県越智郡上島町生名4528番地",
"Capacity":"－",
"la":"34.26205699910",
"ln":"133.17300100000"
},
"geometry":{
"type":"Point",
"coordinates":[
133.173001,
34.2620569991
]
}
},
{
"type":"Feature",
"properties":{
"Name":"いきなスポレク公園野球場",
"Jusho":"愛媛県越智郡上島町",
"Capacity":"－",
"la":"34.26122400000",
"ln":"133.17308300000"
},
"geometry":{
"type":"Point",
"coordinates":[
133.173083,
34.261224
]
}
},
{
"type":"Feature",
"properties":{
"Name":"久保の谷公園付近",
"Jusho":"愛媛県越智郡上島町",
"Capacity":"－",
"la":"34.26577704330",
"ln":"133.18018483200"
},
"geometry":{
"type":"Point",
"coordinates":[
133.180184832,
34.2657770433
]
}
},
{
"type":"Feature",
"properties":{
"Name":"弓削大橋記念公園",
"Jusho":"愛媛県越智郡上島町",
"Capacity":"－",
"la":"34.25258123790",
"ln":"133.20276436100"
},
"geometry":{
"type":"Point",
"coordinates":[
133.202764361,
34.2525812379
]
}
},
{
"type":"Feature",
"properties":{
"Name":"鯨池公園",
"Jusho":"愛媛県越智郡上島町",
"Capacity":"－",
"la":"34.28805941260",
"ln":"133.22698981900"
},
"geometry":{
"type":"Point",
"coordinates":[
133.226989819,
34.2880594126
]
}
},
{
"type":"Feature",
"properties":{
"Name":"新池フラワー公園",
"Jusho":"愛媛県越智郡上島町",
"Capacity":"－",
"la":"34.27398292030",
"ln":"133.21291326500"
},
"geometry":{
"type":"Point",
"coordinates":[
133.212913265,
34.2739829203
]
}
},
{
"type":"Feature",
"properties":{
"Name":"深坂池親水公園",
"Jusho":"愛媛県越智郡上島町",
"Capacity":"－",
"la":"34.25176098240",
"ln":"133.20458855000"
},
"geometry":{
"type":"Point",
"coordinates":[
133.20458855,
34.2517609824
]
}
},
{
"type":"Feature",
"properties":{
"Name":"中崎公園",
"Jusho":"愛媛県越智郡上島町",
"Capacity":"－",
"la":"34.25031696320",
"ln":"133.21101183100"
},
"geometry":{
"type":"Point",
"coordinates":[
133.211011831,
34.2503169632
]
}
},
{
"type":"Feature",
"properties":{
"Name":"久万公園グランド",
"Jusho":"愛媛県上浮穴郡久万高原町菅生2番1644番地1",
"Capacity":"－",
"la":"33.66439808000",
"ln":"132.90668609000"
},
"geometry":{
"type":"Point",
"coordinates":[
132.90668609,
33.66439808
]
}
},
{
"type":"Feature",
"properties":{
"Name":"小村農村公園広場",
"Jusho":"愛媛県上浮穴郡久万高原町",
"Capacity":"－",
"la":"33.52581624830",
"ln":"132.96582117200"
},
"geometry":{
"type":"Point",
"coordinates":[
132.965821172,
33.5258162483
]
}
},
{
"type":"Feature",
"properties":{
"Name":"松前公園",
"Jusho":"愛媛県伊予郡松前町筒井638",
"Capacity":"2650",
"la":"33.78847945000",
"ln":"132.71360386000"
},
"geometry":{
"type":"Point",
"coordinates":[
132.71360386,
33.78847945
]
}
},
{
"type":"Feature",
"properties":{
"Name":"陶街道ゆとり公園",
"Jusho":"愛媛県伊予郡砥部町千足400",
"Capacity":"80000",
"la":"33.74738500000",
"ln":"132.79770200000"
},
"geometry":{
"type":"Point",
"coordinates":[
132.797702,
33.747385
]
}
},
{
"type":"Feature",
"properties":{
"Name":"花の木公園",
"Jusho":"愛媛県喜多郡内子町",
"Capacity":"750",
"la":"33.57112086980",
"ln":"132.78824542000"
},
"geometry":{
"type":"Point",
"coordinates":[
132.78824542,
33.5711208698
]
}
},
{
"type":"Feature",
"properties":{
"Name":"城の台公園グランド",
"Jusho":"愛媛県喜多郡内子町",
"Capacity":"240",
"la":"33.56898476000",
"ln":"132.80671248000"
},
"geometry":{
"type":"Point",
"coordinates":[
132.80671248,
33.56898476
]
}
},
{
"type":"Feature",
"properties":{
"Name":"城の台公園体育館",
"Jusho":"愛媛県喜多郡内子町小田420番地",
"Capacity":"4100",
"la":"33.56816408820",
"ln":"132.80689698300"
},
"geometry":{
"type":"Point",
"coordinates":[
132.806896983,
33.5681640882
]
}
},
{
"type":"Feature",
"properties":{
"Name":"内子運動公園",
"Jusho":"愛媛県喜多郡内子町内子179番地",
"Capacity":"5000",
"la":"33.54837797000",
"ln":"132.64137764000"
},
"geometry":{
"type":"Point",
"coordinates":[
132.64137764,
33.54837797
]
}
},
{
"type":"Feature",
"properties":{
"Name":"平岡児童公園",
"Jusho":"愛媛県喜多郡内子町平岡甲38",
"Capacity":"400",
"la":"33.53447480000",
"ln":"132.65991604000"
},
"geometry":{
"type":"Point",
"coordinates":[
132.65991604,
33.5344748
]
}
},
{
"type":"Feature",
"properties":{
"Name":"妙見公園",
"Jusho":"愛媛県喜多郡内子町五十崎357-1他",
"Capacity":"950",
"la":"33.53202981750",
"ln":"132.65496223500"
},
"geometry":{
"type":"Point",
"coordinates":[
132.654962235,
33.5320298175
]
}
},
{
"type":"Feature",
"properties":{
"Name":"龍王公園",
"Jusho":"愛媛県喜多郡内子町五十崎甲1524番地1",
"Capacity":"1000",
"la":"33.54262094270",
"ln":"132.65424996400"
},
"geometry":{
"type":"Point",
"coordinates":[
132.654249964,
33.5426209427
]
}
},
{
"type":"Feature",
"properties":{
"Name":"下鍵山公園",
"Jusho":"愛媛県北宇和郡鬼北町下鍵山298番地1",
"Capacity":"－",
"la":"33.33490450320",
"ln":"132.79634537800"
},
"geometry":{
"type":"Point",
"coordinates":[
132.796345378,
33.3349045032
]
}
},
{
"type":"Feature",
"properties":{
"Name":"鬼北総合公園体育館",
"Jusho":"愛媛県北宇和郡鬼北町永野市1290番地1",
"Capacity":"1068",
"la":"33.24621631570",
"ln":"132.68385428000"
},
"geometry":{
"type":"Point",
"coordinates":[
132.68385428,
33.2462163157
]
}
},
{
"type":"Feature",
"properties":{
"Name":"桜公園",
"Jusho":"愛媛県南宇和郡愛南町中浦1231番地1",
"Capacity":"－",
"la":"32.96590592200",
"ln":"132.49146965800"
},
"geometry":{
"type":"Point",
"coordinates":[
132.491469658,
32.965905922
]
}
},
{
"type":"Feature",
"properties":{
"Name":"松軒山公園駐車場",
"Jusho":"愛媛県南宇和郡愛南町御荘平城969番地3",
"Capacity":"－",
"la":"32.97285310510",
"ln":"132.55644691200"
},
"geometry":{
"type":"Point",
"coordinates":[
132.556446912,
32.9728531051
]
}
},
{
"type":"Feature",
"properties":{
"Name":"内海隧道－大浜口公園",
"Jusho":"愛媛県南宇和郡愛南町柏63番地",
"Capacity":"－",
"la":"33.02371624410",
"ln":"132.48585649300"
},
"geometry":{
"type":"Point",
"coordinates":[
132.485856493,
33.0237162441
]
}
},
{
"type":"Feature",
"properties":{
"Name":"油袋展望公園",
"Jusho":"愛媛県南宇和郡愛南町油袋516番地",
"Capacity":"－",
"la":"33.04872779910",
"ln":"132.45084810500"
},
"geometry":{
"type":"Point",
"coordinates":[
132.450848105,
33.0487277991
]
}
}
]
};