var st={
"type":"FeatureCollection",
"features":[
{
"type":"Feature",
"properties":{
"Name":"さくら小学校",
"Jusho":"愛媛県松山市余戸中4-11-1",
"Capacity":"19400",
"la":"33.81867500000",
"ln":"132.72907800000"
},
"geometry":{
"type":"Point",
"coordinates":[
132.729078,
33.818675
]
}
},
{
"type":"Feature",
"properties":{
"Name":"たちばな小学校",
"Jusho":"愛媛県松山市針田町209-1",
"Capacity":"24700",
"la":"33.82348000000",
"ln":"132.73402200000"
},
"geometry":{
"type":"Point",
"coordinates":[
132.734022,
33.82348
]
}
},
{
"type":"Feature",
"properties":{
"Name":"みどり小学校",
"Jusho":"愛媛県松山市西長戸町493-2",
"Capacity":"20900",
"la":"33.86639200000",
"ln":"132.73885500000"
},
"geometry":{
"type":"Point",
"coordinates":[
132.738855,
33.866392
]
}
},
{
"type":"Feature",
"properties":{
"Name":"愛媛大学教育学部附属小学校（体育館）",
"Jusho":"愛媛県松山市持田町1-5-22",
"Capacity":"8000",
"la":"33.84367400000",
"ln":"132.78268400000"
},
"geometry":{
"type":"Point",
"coordinates":[
132.782684,
33.843674
]
}
},
{
"type":"Feature",
"properties":{
"Name":"粟井小学校",
"Jusho":"愛媛県松山市常竹甲100",
"Capacity":"16500",
"la":"33.93471800000",
"ln":"132.77585100000"
},
"geometry":{
"type":"Point",
"coordinates":[
132.775851,
33.934718
]
}
},
{
"type":"Feature",
"properties":{
"Name":"伊台小学校",
"Jusho":"愛媛県松山市下伊台町1438-1",
"Capacity":"16100",
"la":"33.87739200000",
"ln":"132.79840500000"
},
"geometry":{
"type":"Point",
"coordinates":[
132.798405,
33.877392
]
}
},
{
"type":"Feature",
"properties":{
"Name":"荏原小学校",
"Jusho":"愛媛県松山市東方町甲1245",
"Capacity":"15400",
"la":"33.76865500000",
"ln":"132.81748700000"
},
"geometry":{
"type":"Point",
"coordinates":[
132.817487,
33.768655
]
}
},
{
"type":"Feature",
"properties":{
"Name":"河野小学校",
"Jusho":"愛媛県松山市宮内甲9-1",
"Capacity":"15700",
"la":"33.95002200000",
"ln":"132.78521100000"
},
"geometry":{
"type":"Point",
"coordinates":[
132.785211,
33.950022
]
}
},
{
"type":"Feature",
"properties":{
"Name":"垣生小学校",
"Jusho":"愛媛県松山市西垣生町730-1",
"Capacity":"35500",
"la":"33.81337000000",
"ln":"132.70472000000"
},
"geometry":{
"type":"Point",
"coordinates":[
132.70472,
33.81337
]
}
},
{
"type":"Feature",
"properties":{
"Name":"久枝小学校",
"Jusho":"愛媛県松山市安城寺町586-1",
"Capacity":"18600",
"la":"33.87161300000",
"ln":"132.74057700000"
},
"geometry":{
"type":"Point",
"coordinates":[
132.740577,
33.871613
]
}
},
{
"type":"Feature",
"properties":{
"Name":"久米小学校",
"Jusho":"愛媛県松山市鷹子町15-1",
"Capacity":"21100",
"la":"33.81059500000",
"ln":"132.80673700000"
},
"geometry":{
"type":"Point",
"coordinates":[
132.806737,
33.810595
]
}
},
{
"type":"Feature",
"properties":{
"Name":"宮前小学校",
"Jusho":"愛媛県松山市祓川1-3-39",
"Capacity":"15500",
"la":"33.85933600000",
"ln":"132.72038500000"
},
"geometry":{
"type":"Point",
"coordinates":[
132.720385,
33.859336
]
}
},
{
"type":"Feature",
"properties":{
"Name":"興居島小学校",
"Jusho":"愛媛県松山市泊町425-3",
"Capacity":"5600",
"la":"33.89369133870",
"ln":"132.67175985700"
},
"geometry":{
"type":"Point",
"coordinates":[
132.671759857,
33.8936913387
]
}
},
{
"type":"Feature",
"properties":{
"Name":"興居島小学校釣島分校",
"Jusho":"愛媛県松山市泊町1465",
"Capacity":"4000",
"la":"33.89431704850",
"ln":"132.63773305600"
},
"geometry":{
"type":"Point",
"coordinates":[
132.637733056,
33.8943170485
]
}
},
{
"type":"Feature",
"properties":{
"Name":"窪田小学校",
"Jusho":"愛媛県松山市久米窪田町307",
"Capacity":"16700",
"la":"33.80159600000",
"ln":"132.81543100000"
},
"geometry":{
"type":"Point",
"coordinates":[
132.815431,
33.801596
]
}
},
{
"type":"Feature",
"properties":{
"Name":"桑原小学校",
"Jusho":"愛媛県松山市桑原3-7-27",
"Capacity":"16200",
"la":"33.83564700000",
"ln":"132.79360000000"
},
"geometry":{
"type":"Point",
"coordinates":[
132.7936,
33.835647
]
}
},
{
"type":"Feature",
"properties":{
"Name":"五明小学校",
"Jusho":"愛媛県松山市菅沢町乙45-4",
"Capacity":"5200",
"la":"33.90286200000",
"ln":"132.81956900000"
},
"geometry":{
"type":"Point",
"coordinates":[
132.819569,
33.902862
]
}
},
{
"type":"Feature",
"properties":{
"Name":"高浜小学校",
"Jusho":"愛媛県松山市梅津寺町1352-2",
"Capacity":"19900",
"la":"33.87616700000",
"ln":"132.70908100000"
},
"geometry":{
"type":"Point",
"coordinates":[
132.709081,
33.876167
]
}
},
{
"type":"Feature",
"properties":{
"Name":"坂本小学校",
"Jusho":"愛媛県松山市久谷町30",
"Capacity":"9000",
"la":"33.74943499910",
"ln":"132.82515200000"
},
"geometry":{
"type":"Point",
"coordinates":[
132.825152,
33.7494349991
]
}
},
{
"type":"Feature",
"properties":{
"Name":"三津浜小学校",
"Jusho":"愛媛県松山市梅田町2-42",
"Capacity":"15200",
"la":"33.85997500000",
"ln":"132.71463600000"
},
"geometry":{
"type":"Point",
"coordinates":[
132.714636,
33.859975
]
}
},
{
"type":"Feature",
"properties":{
"Name":"小野小学校",
"Jusho":"愛媛県松山市平井町3673",
"Capacity":"13200",
"la":"33.80761400000",
"ln":"132.83808200000"
},
"geometry":{
"type":"Point",
"coordinates":[
132.838082,
33.807614
]
}
},
{
"type":"Feature",
"properties":{
"Name":"城山小学校跡",
"Jusho":"愛媛県松山市中島粟井876",
"Capacity":"4630",
"la":"33.99446016390",
"ln":"132.63750081800"
},
"geometry":{
"type":"Point",
"coordinates":[
132.637500818,
33.9944601639
]
}
},
{
"type":"Feature",
"properties":{
"Name":"新玉小学校",
"Jusho":"愛媛県松山市千舟町8-89",
"Capacity":"17900",
"la":"33.83675700000",
"ln":"132.75396500000"
},
"geometry":{
"type":"Point",
"coordinates":[
132.753965,
33.836757
]
}
},
{
"type":"Feature",
"properties":{
"Name":"正岡小学校",
"Jusho":"愛媛県松山市八反地甲160",
"Capacity":"10400",
"la":"33.97032500000",
"ln":"132.79384800000"
},
"geometry":{
"type":"Point",
"coordinates":[
132.793848,
33.970325
]
}
},
{
"type":"Feature",
"properties":{
"Name":"清水小学校",
"Jusho":"愛媛県松山市清水町3-15",
"Capacity":"13900",
"la":"33.85156100000",
"ln":"132.76738000000"
},
"geometry":{
"type":"Point",
"coordinates":[
132.76738,
33.851561
]
}
},
{
"type":"Feature",
"properties":{
"Name":"生石小学校",
"Jusho":"愛媛県松山市高岡町630-3",
"Capacity":"17900",
"la":"33.83145100000",
"ln":"132.71630200000"
},
"geometry":{
"type":"Point",
"coordinates":[
132.716302,
33.831451
]
}
},
{
"type":"Feature",
"properties":{
"Name":"石井小学校",
"Jusho":"愛媛県松山市東石井6-8-52",
"Capacity":"13800",
"la":"33.81134600000",
"ln":"132.77641800000"
},
"geometry":{
"type":"Point",
"coordinates":[
132.776418,
33.811346
]
}
},
{
"type":"Feature",
"properties":{
"Name":"石井東小学校",
"Jusho":"愛媛県松山市越智1-3-35",
"Capacity":"18300",
"la":"33.80803900000",
"ln":"132.78715600000"
},
"geometry":{
"type":"Point",
"coordinates":[
132.787156,
33.808039
]
}
},
{
"type":"Feature",
"properties":{
"Name":"石井北小学校",
"Jusho":"愛媛県松山市和泉南1-3-32",
"Capacity":"13500",
"la":"33.81885300000",
"ln":"132.76738500000"
},
"geometry":{
"type":"Point",
"coordinates":[
132.767385,
33.818853
]
}
},
{
"type":"Feature",
"properties":{
"Name":"浅海小学校",
"Jusho":"愛媛県松山市浅海本谷甲728",
"Capacity":"12300",
"la":"34.00901600000",
"ln":"132.80315100000"
},
"geometry":{
"type":"Point",
"coordinates":[
132.803151,
34.009016
]
}
},
{
"type":"Feature",
"properties":{
"Name":"素鵞小学校",
"Jusho":"愛媛県松山市小坂1-4-48",
"Capacity":"14400",
"la":"33.83531400000",
"ln":"132.77993400000"
},
"geometry":{
"type":"Point",
"coordinates":[
132.779934,
33.835314
]
}
},
{
"type":"Feature",
"properties":{
"Name":"双葉小学校",
"Jusho":"愛媛県松山市土居田町123-3",
"Capacity":"18700",
"la":"33.82348100000",
"ln":"132.75227100000"
},
"geometry":{
"type":"Point",
"coordinates":[
132.752271,
33.823481
]
}
},
{
"type":"Feature",
"properties":{
"Name":"中島小学校",
"Jusho":"愛媛県松山市長師564",
"Capacity":"15600",
"la":"33.96248400000",
"ln":"132.62631900000"
},
"geometry":{
"type":"Point",
"coordinates":[
132.626319,
33.962484
]
}
},
{
"type":"Feature",
"properties":{
"Name":"中島東小学校跡",
"Jusho":"愛媛県松山市中島大浦3021",
"Capacity":"2050",
"la":"33.97408100000",
"ln":"132.62736000000"
},
"geometry":{
"type":"Point",
"coordinates":[
132.62736,
33.974081
]
}
},
{
"type":"Feature",
"properties":{
"Name":"中島南小学校跡",
"Jusho":"愛媛県松山市宮野1651",
"Capacity":"1250",
"la":"33.95698600000",
"ln":"132.61256200000"
},
"geometry":{
"type":"Point",
"coordinates":[
132.612562,
33.956986
]
}
},
{
"type":"Feature",
"properties":{
"Name":"潮見小学校",
"Jusho":"愛媛県松山市吉藤4-7-13",
"Capacity":"10400",
"la":"33.87458600000",
"ln":"132.75499200000"
},
"geometry":{
"type":"Point",
"coordinates":[
132.754992,
33.874586
]
}
},
{
"type":"Feature",
"properties":{
"Name":"津和地小学校",
"Jusho":"愛媛県松山市津和地1588-1",
"Capacity":"7400",
"la":"33.97576100000",
"ln":"132.50796100000"
},
"geometry":{
"type":"Point",
"coordinates":[
132.507961,
33.975761
]
}
},
{
"type":"Feature",
"properties":{
"Name":"椿小学校",
"Jusho":"愛媛県松山市和泉南6-1-47",
"Capacity":"19400",
"la":"33.81082400000",
"ln":"132.75991600000"
},
"geometry":{
"type":"Point",
"coordinates":[
132.759916,
33.810824
]
}
},
{
"type":"Feature",
"properties":{
"Name":"天谷小学校跡",
"Jusho":"愛媛県松山市吉木甲77-3",
"Capacity":"1550",
"la":"33.97598400000",
"ln":"132.59506300000"
},
"geometry":{
"type":"Point",
"coordinates":[
132.595063,
33.975984
]
}
},
{
"type":"Feature",
"properties":{
"Name":"怒和小学校",
"Jusho":"愛媛県松山市元怒和甲8-2",
"Capacity":"5000",
"la":"33.97337200000",
"ln":"132.54906800000"
},
"geometry":{
"type":"Point",
"coordinates":[
132.549068,
33.973372
]
}
},
{
"type":"Feature",
"properties":{
"Name":"東雲小学校",
"Jusho":"愛媛県松山市文京町2-1",
"Capacity":"12400",
"la":"33.84936700000",
"ln":"132.77485200000"
},
"geometry":{
"type":"Point",
"coordinates":[
132.774852,
33.849367
]
}
},
{
"type":"Feature",
"properties":{
"Name":"湯山小学校",
"Jusho":"愛媛県松山市食場町甲128",
"Capacity":"11500",
"la":"33.86086700000",
"ln":"132.81434800000"
},
"geometry":{
"type":"Point",
"coordinates":[
132.814348,
33.860867
]
}
},
{
"type":"Feature",
"properties":{
"Name":"湯築小学校",
"Jusho":"愛媛県松山市道後北代10-41",
"Capacity":"13800",
"la":"33.85378300000",
"ln":"132.77754600000"
},
"geometry":{
"type":"Point",
"coordinates":[
132.777546,
33.853783
]
}
},
{
"type":"Feature",
"properties":{
"Name":"道後小学校",
"Jusho":"愛媛県松山市石手4-10-5",
"Capacity":"8600",
"la":"33.84542400000",
"ln":"132.79198900000"
},
"geometry":{
"type":"Point",
"coordinates":[
132.791989,
33.845424
]
}
},
{
"type":"Feature",
"properties":{
"Name":"難波小学校",
"Jusho":"愛媛県松山市中通甲807-1",
"Capacity":"14900",
"la":"33.98301800000",
"ln":"132.79409800000"
},
"geometry":{
"type":"Point",
"coordinates":[
132.794098,
33.983018
]
}
},
{
"type":"Feature",
"properties":{
"Name":"二神小学校",
"Jusho":"愛媛県松山市二神227",
"Capacity":"4100",
"la":"33.93529500000",
"ln":"132.54462900000"
},
"geometry":{
"type":"Point",
"coordinates":[
132.544629,
33.935295
]
}
},
{
"type":"Feature",
"properties":{
"Name":"日浦小学校",
"Jusho":"愛媛県松山市河中町甲79-2",
"Capacity":"13100",
"la":"33.90028000000",
"ln":"132.87150800000"
},
"geometry":{
"type":"Point",
"coordinates":[
132.871508,
33.90028
]
}
},
{
"type":"Feature",
"properties":{
"Name":"泊小学校跡",
"Jusho":"愛媛県松山市泊町618-1",
"Capacity":"1300",
"la":"33.88136000000",
"ln":"132.67966900000"
},
"geometry":{
"type":"Point",
"coordinates":[
132.679669,
33.88136
]
}
},
{
"type":"Feature",
"properties":{
"Name":"八坂小学校",
"Jusho":"愛媛県松山市湯渡町4-20",
"Capacity":"15300",
"la":"33.83970200000",
"ln":"132.78212900000"
},
"geometry":{
"type":"Point",
"coordinates":[
132.782129,
33.839702
]
}
},
{
"type":"Feature",
"properties":{
"Name":"番町小学校",
"Jusho":"愛媛県松山市二番町2-6-1",
"Capacity":"13000",
"la":"33.83959000000",
"ln":"132.76626900000"
},
"geometry":{
"type":"Point",
"coordinates":[
132.766269,
33.83959
]
}
},
{
"type":"Feature",
"properties":{
"Name":"姫山小学校",
"Jusho":"愛媛県松山市山越3-800",
"Capacity":"10900",
"la":"33.86372600000",
"ln":"132.76318600000"
},
"geometry":{
"type":"Point",
"coordinates":[
132.763186,
33.863726
]
}
},
{
"type":"Feature",
"properties":{
"Name":"浮穴小学校",
"Jusho":"愛媛県松山市森松町832",
"Capacity":"22600",
"la":"33.79281900000",
"ln":"132.79743300000"
},
"geometry":{
"type":"Point",
"coordinates":[
132.797433,
33.792819
]
}
},
{
"type":"Feature",
"properties":{
"Name":"福音小学校",
"Jusho":"愛媛県松山市福音寺町355-1",
"Capacity":"21000",
"la":"33.82139900000",
"ln":"132.79079400000"
},
"geometry":{
"type":"Point",
"coordinates":[
132.790794,
33.821399
]
}
},
{
"type":"Feature",
"properties":{
"Name":"北久米小学校",
"Jusho":"愛媛県松山市福音寺町9",
"Capacity":"18400",
"la":"33.82045500000",
"ln":"132.79832100000"
},
"geometry":{
"type":"Point",
"coordinates":[
132.798321,
33.820455
]
}
},
{
"type":"Feature",
"properties":{
"Name":"北条小学校",
"Jusho":"愛媛県松山市北条辻64",
"Capacity":"19400",
"la":"33.97499800000",
"ln":"132.77861300000"
},
"geometry":{
"type":"Point",
"coordinates":[
132.778613,
33.974998
]
}
},
{
"type":"Feature",
"properties":{
"Name":"睦月小学校",
"Jusho":"愛媛県松山市睦月甲1068-6",
"Capacity":"4200",
"la":"33.95818400000",
"ln":"132.66450300000"
},
"geometry":{
"type":"Point",
"coordinates":[
132.664503,
33.958184
]
}
},
{
"type":"Feature",
"properties":{
"Name":"堀江小学校",
"Jusho":"愛媛県松山市福角町甲1409-2",
"Capacity":"18500",
"la":"33.90211100000",
"ln":"132.75849200000"
},
"geometry":{
"type":"Point",
"coordinates":[
132.758492,
33.902111
]
}
},
{
"type":"Feature",
"properties":{
"Name":"味酒小学校",
"Jusho":"愛媛県松山市宮西2-2-21",
"Capacity":"11000",
"la":"33.84742200000",
"ln":"132.75268700000"
},
"geometry":{
"type":"Point",
"coordinates":[
132.752687,
33.847422
]
}
},
{
"type":"Feature",
"properties":{
"Name":"味生小学校",
"Jusho":"愛媛県松山市別府町166-4",
"Capacity":"25200",
"la":"33.84495000000",
"ln":"132.72507900000"
},
"geometry":{
"type":"Point",
"coordinates":[
132.725079,
33.84495
]
}
},
{
"type":"Feature",
"properties":{
"Name":"味生第二小学校",
"Jusho":"愛媛県松山市別府町3-1",
"Capacity":"25000",
"la":"33.84420000000",
"ln":"132.72855100000"
},
"geometry":{
"type":"Point",
"coordinates":[
132.728551,
33.8442
]
}
},
{
"type":"Feature",
"properties":{
"Name":"野忽那小学校",
"Jusho":"愛媛県松山市野忽那甲1540-1",
"Capacity":"5900",
"la":"33.97543000000",
"ln":"132.68946400000"
},
"geometry":{
"type":"Point",
"coordinates":[
132.689464,
33.97543
]
}
},
{
"type":"Feature",
"properties":{
"Name":"由良小学校跡",
"Jusho":"愛媛県松山市由良町873-1",
"Capacity":"1450",
"la":"33.90458100000",
"ln":"132.68000200000"
},
"geometry":{
"type":"Point",
"coordinates":[
132.680002,
33.904581
]
}
},
{
"type":"Feature",
"properties":{
"Name":"雄郡小学校",
"Jusho":"愛媛県松山市土橋町1",
"Capacity":"13800",
"la":"33.83134100000",
"ln":"132.75799200000"
},
"geometry":{
"type":"Point",
"coordinates":[
132.757992,
33.831341
]
}
},
{
"type":"Feature",
"properties":{
"Name":"余土小学校",
"Jusho":"愛媛県松山市余戸東1-14-17",
"Capacity":"11700",
"la":"33.81509200000",
"ln":"132.73635600000"
},
"geometry":{
"type":"Point",
"coordinates":[
132.736356,
33.815092
]
}
},
{
"type":"Feature",
"properties":{
"Name":"立岩小学校",
"Jusho":"愛媛県松山市猿川原甲49",
"Capacity":"11600",
"la":"33.97599300000",
"ln":"132.83617700000"
},
"geometry":{
"type":"Point",
"coordinates":[
132.836177,
33.975993
]
}
},
{
"type":"Feature",
"properties":{
"Name":"和気小学校",
"Jusho":"愛媛県松山市太山寺町671-3",
"Capacity":"18400",
"la":"33.88986100000",
"ln":"132.73316100000"
},
"geometry":{
"type":"Point",
"coordinates":[
132.733161,
33.889861
]
}
},
{
"type":"Feature",
"properties":{
"Name":"伊方小学校",
"Jusho":"愛媛県今治市伯方町伊方甲1820番地5",
"Capacity":"1100",
"la":"34.21786200000",
"ln":"133.06676100000"
},
"geometry":{
"type":"Point",
"coordinates":[
133.066761,
34.217862
]
}
},
{
"type":"Feature",
"properties":{
"Name":"岡村小学校",
"Jusho":"愛媛県今治市関前岡村甲415番地",
"Capacity":"110",
"la":"34.18778400000",
"ln":"132.88362600000"
},
"geometry":{
"type":"Point",
"coordinates":[
132.883626,
34.187784
]
}
},
{
"type":"Feature",
"properties":{
"Name":"岡村小学校僻地集会室",
"Jusho":"愛媛県今治市関前岡村甲697番地1",
"Capacity":"50",
"la":"34.18473200000",
"ln":"132.88376500000"
},
"geometry":{
"type":"Point",
"coordinates":[
132.883765,
34.184732
]
}
},
{
"type":"Feature",
"properties":{
"Name":"下朝小学校",
"Jusho":"愛媛県今治市朝倉北甲281番地",
"Capacity":"410",
"la":"33.99849600000",
"ln":"133.01666000000"
},
"geometry":{
"type":"Point",
"coordinates":[
133.01666,
33.998496
]
}
},
{
"type":"Feature",
"properties":{
"Name":"鴨部小学校",
"Jusho":"愛媛県今治市玉川町中村甲547番地1",
"Capacity":"430",
"la":"34.02239400000",
"ln":"132.95642700000"
},
"geometry":{
"type":"Point",
"coordinates":[
132.956427,
34.022394
]
}
},
{
"type":"Feature",
"properties":{
"Name":"亀岡小学校",
"Jusho":"愛媛県今治市菊間町種52番地",
"Capacity":"410",
"la":"34.05485400000",
"ln":"132.87323000000"
},
"geometry":{
"type":"Point",
"coordinates":[
132.87323,
34.054854
]
}
},
{
"type":"Feature",
"properties":{
"Name":"菊間小学校",
"Jusho":"愛媛県今治市菊間町長坂2000番地1",
"Capacity":"590",
"la":"34.03254600000",
"ln":"132.84535200000"
},
"geometry":{
"type":"Point",
"coordinates":[
132.845352,
34.032546
]
}
},
{
"type":"Feature",
"properties":{
"Name":"吉海小学校",
"Jusho":"愛媛県今治市吉海町八幡157番地",
"Capacity":"460",
"la":"34.14465100000",
"ln":"133.04093700000"
},
"geometry":{
"type":"Point",
"coordinates":[
133.040937,
34.144651
]
}
},
{
"type":"Feature",
"properties":{
"Name":"宮窪小学校",
"Jusho":"愛媛県今治市宮窪町宮窪4765番地",
"Capacity":"830",
"la":"34.17216600000",
"ln":"133.07252400000"
},
"geometry":{
"type":"Point",
"coordinates":[
133.072524,
34.172166
]
}
},
{
"type":"Feature",
"properties":{
"Name":"近見小学校",
"Jusho":"愛媛県今治市近見町1丁目5番1号",
"Capacity":"2460",
"la":"34.08940100000",
"ln":"132.98574600000"
},
"geometry":{
"type":"Point",
"coordinates":[
132.985746,
34.089401
]
}
},
{
"type":"Feature",
"properties":{
"Name":"九和小学校",
"Jusho":"愛媛県今治市玉川町摺木甲71番地1",
"Capacity":"500",
"la":"34.02130900000",
"ln":"132.93885000000"
},
"geometry":{
"type":"Point",
"coordinates":[
132.93885,
34.021309
]
}
},
{
"type":"Feature",
"properties":{
"Name":"国分小学校",
"Jusho":"愛媛県今治市古国分2丁目7番1号",
"Capacity":"2230",
"la":"34.03257500000",
"ln":"133.03110300000"
},
"geometry":{
"type":"Point",
"coordinates":[
133.031103,
34.032575
]
}
},
{
"type":"Feature",
"properties":{
"Name":"今治小学校",
"Jusho":"愛媛県今治市南大門町2丁目5番地",
"Capacity":"1630",
"la":"34.06623600000",
"ln":"132.99524700000"
},
"geometry":{
"type":"Point",
"coordinates":[
132.995247,
34.066236
]
}
},
{
"type":"Feature",
"properties":{
"Name":"桜井小学校",
"Jusho":"愛媛県今治市郷桜井1丁目8番26号",
"Capacity":"3180",
"la":"34.01723924840",
"ln":"133.03369384000"
},
"geometry":{
"type":"Point",
"coordinates":[
133.03369384,
34.0172392484
]
}
},
{
"type":"Feature",
"properties":{
"Name":"上浦小学校",
"Jusho":"愛媛県今治市上浦町井口4497番地1",
"Capacity":"470",
"la":"34.26316700000",
"ln":"133.03204600000"
},
"geometry":{
"type":"Point",
"coordinates":[
133.032046,
34.263167
]
}
},
{
"type":"Feature",
"properties":{
"Name":"上朝小学校",
"Jusho":"愛媛県今治市朝倉上甲776番地1",
"Capacity":"430",
"la":"33.97591500000",
"ln":"133.00643900000"
},
"geometry":{
"type":"Point",
"coordinates":[
133.006439,
33.975915
]
}
},
{
"type":"Feature",
"properties":{
"Name":"城東小学校",
"Jusho":"愛媛県今治市東門町4丁目3番16号",
"Capacity":"1870",
"la":"34.05993200000",
"ln":"133.01310500000"
},
"geometry":{
"type":"Point",
"coordinates":[
133.013105,
34.059932
]
}
},
{
"type":"Feature",
"properties":{
"Name":"常盤小学校",
"Jusho":"愛媛県今治市中日吉町2丁目6番55号",
"Capacity":"2660",
"la":"34.05918000000",
"ln":"132.99022000000"
},
"geometry":{
"type":"Point",
"coordinates":[
132.99022,
34.05918
]
}
},
{
"type":"Feature",
"properties":{
"Name":"清水小学校",
"Jusho":"愛媛県今治市五十嵐甲13番地3",
"Capacity":"2410",
"la":"34.03285100000",
"ln":"132.98421800000"
},
"geometry":{
"type":"Point",
"coordinates":[
132.984218,
34.032851
]
}
},
{
"type":"Feature",
"properties":{
"Name":"大三島小学校",
"Jusho":"愛媛県今治市大三島町宮浦5145番地",
"Capacity":"760",
"la":"34.24646800000",
"ln":"133.00093100000"
},
"geometry":{
"type":"Point",
"coordinates":[
133.000931,
34.246468
]
}
},
{
"type":"Feature",
"properties":{
"Name":"大西小学校",
"Jusho":"愛媛県今治市大西町大井浜103番地",
"Capacity":"750",
"la":"34.06336100000",
"ln":"132.92322600000"
},
"geometry":{
"type":"Point",
"coordinates":[
132.923226,
34.063361
]
}
},
{
"type":"Feature",
"properties":{
"Name":"鳥生小学校",
"Jusho":"愛媛県今治市南高下町3丁目3番71号",
"Capacity":"2080",
"la":"34.04854500000",
"ln":"133.01304900000"
},
"geometry":{
"type":"Point",
"coordinates":[
133.013049,
34.048545
]
}
},
{
"type":"Feature",
"properties":{
"Name":"日吉小学校",
"Jusho":"愛媛県今治市南宝来町1丁目6番地1",
"Capacity":"1560",
"la":"34.06134800000",
"ln":"132.99908000000"
},
"geometry":{
"type":"Point",
"coordinates":[
132.99908,
34.061348
]
}
},
{
"type":"Feature",
"properties":{
"Name":"日高小学校",
"Jusho":"愛媛県今治市別名446番地2",
"Capacity":"3150",
"la":"34.04584900000",
"ln":"132.97624700000"
},
"geometry":{
"type":"Point",
"coordinates":[
132.976247,
34.045849
]
}
},
{
"type":"Feature",
"properties":{
"Name":"乃万小学校",
"Jusho":"愛媛県今治市延喜甲349番地",
"Capacity":"2570",
"la":"34.06457000000",
"ln":"132.95799800000"
},
"geometry":{
"type":"Point",
"coordinates":[
132.957998,
34.06457
]
}
},
{
"type":"Feature",
"properties":{
"Name":"波止浜小学校",
"Jusho":"愛媛県今治市地堀1丁目3番40号",
"Capacity":"1950",
"la":"34.10603700000",
"ln":"132.96524800000"
},
"geometry":{
"type":"Point",
"coordinates":[
132.965248,
34.106037
]
}
},
{
"type":"Feature",
"properties":{
"Name":"波方小学校",
"Jusho":"愛媛県今治市波方町養老甲803番地の1",
"Capacity":"1220",
"la":"34.10472200000",
"ln":"132.94627100000"
},
"geometry":{
"type":"Point",
"coordinates":[
132.946271,
34.104722
]
}
},
{
"type":"Feature",
"properties":{
"Name":"伯方小学校",
"Jusho":"愛媛県今治市伯方町木浦甲3599番地2",
"Capacity":"1600",
"la":"34.20488600000",
"ln":"133.11133600000"
},
"geometry":{
"type":"Point",
"coordinates":[
133.111336,
34.204886
]
}
},
{
"type":"Feature",
"properties":{
"Name":"美須賀小学校",
"Jusho":"愛媛県今治市黄金町1丁目9番地",
"Capacity":"1410",
"la":"34.06509800000",
"ln":"133.00310700000"
},
"geometry":{
"type":"Point",
"coordinates":[
133.003107,
34.065098
]
}
},
{
"type":"Feature",
"properties":{
"Name":"富田小学校",
"Jusho":"愛媛県今治市上徳甲394番地4",
"Capacity":"2630",
"la":"34.03407500000",
"ln":"133.01388200000"
},
"geometry":{
"type":"Point",
"coordinates":[
133.013882,
34.034075
]
}
},
{
"type":"Feature",
"properties":{
"Name":"別宮小学校",
"Jusho":"愛媛県今治市別宮町5丁目1番地7",
"Capacity":"2780",
"la":"34.07129100000",
"ln":"132.99244100000"
},
"geometry":{
"type":"Point",
"coordinates":[
132.992441,
34.071291
]
}
},
{
"type":"Feature",
"properties":{
"Name":"北浦小学校",
"Jusho":"愛媛県今治市伯方町北浦甲2313番地",
"Capacity":"650",
"la":"34.23122800000",
"ln":"133.09620000000"
},
"geometry":{
"type":"Point",
"coordinates":[
133.0962,
34.231228
]
}
},
{
"type":"Feature",
"properties":{
"Name":"有津小学校",
"Jusho":"愛媛県今治市伯方町有津甲921番地",
"Capacity":"600",
"la":"34.20519000000",
"ln":"133.09385800000"
},
"geometry":{
"type":"Point",
"coordinates":[
133.093858,
34.20519
]
}
},
{
"type":"Feature",
"properties":{
"Name":"立花小学校",
"Jusho":"愛媛県今治市立花町4丁目3番45号",
"Capacity":"2950",
"la":"34.04796100000",
"ln":"133.00199500000"
},
"geometry":{
"type":"Point",
"coordinates":[
133.001995,
34.047961
]
}
},
{
"type":"Feature",
"properties":{
"Name":"宇和津小学校",
"Jusho":"愛媛県宇和島市妙典寺前乙640番地",
"Capacity":"4600",
"la":"33.21201900000",
"ln":"132.56829800000"
},
"geometry":{
"type":"Point",
"coordinates":[
132.568298,
33.212019
]
}
},
{
"type":"Feature",
"properties":{
"Name":"浦知小学校",
"Jusho":"愛媛県宇和島市津島町浦知380",
"Capacity":"3580",
"la":"33.06437600000",
"ln":"132.48993500000"
},
"geometry":{
"type":"Point",
"coordinates":[
132.489935,
33.064376
]
}
},
{
"type":"Feature",
"properties":{
"Name":"浦知小学校裏農道",
"Jusho":"愛媛県宇和島市",
"Capacity":"－",
"la":"33.06259821980",
"ln":"132.49257324000"
},
"geometry":{
"type":"Point",
"coordinates":[
132.49257324,
33.0625982198
]
}
},
{
"type":"Feature",
"properties":{
"Name":"奥南小学校",
"Jusho":"愛媛県宇和島市吉田町奥浦甲65-1",
"Capacity":"6240",
"la":"33.27194800000",
"ln":"132.48807600000"
},
"geometry":{
"type":"Point",
"coordinates":[
132.488076,
33.271948
]
}
},
{
"type":"Feature",
"properties":{
"Name":"下灘小学校",
"Jusho":"愛媛県宇和島市津島町鼡鳴135",
"Capacity":"6930",
"la":"33.08537900000",
"ln":"132.47841200000"
},
"geometry":{
"type":"Point",
"coordinates":[
132.478412,
33.085379
]
}
},
{
"type":"Feature",
"properties":{
"Name":"嘉島小学校",
"Jusho":"愛媛県宇和島市戸島4110番地",
"Capacity":"1473",
"la":"33.22431900000",
"ln":"132.36428800000"
},
"geometry":{
"type":"Point",
"coordinates":[
132.364288,
33.224319
]
}
},
{
"type":"Feature",
"properties":{
"Name":"岩松小学校",
"Jusho":"愛媛県宇和島市津島町岩松甲503",
"Capacity":"11030",
"la":"33.12517700000",
"ln":"132.52035100000"
},
"geometry":{
"type":"Point",
"coordinates":[
132.520351,
33.125177
]
}
},
{
"type":"Feature",
"properties":{
"Name":"喜佐方小学校",
"Jusho":"愛媛県宇和島市吉田町沖村甲2325-1",
"Capacity":"4120",
"la":"33.29247600000",
"ln":"132.52161700000"
},
"geometry":{
"type":"Point",
"coordinates":[
132.521617,
33.292476
]
}
},
{
"type":"Feature",
"properties":{
"Name":"玉津小学校",
"Jusho":"愛媛県宇和島市吉田町法花津7-333",
"Capacity":"500",
"la":"33.31890500000",
"ln":"132.52020100000"
},
"geometry":{
"type":"Point",
"coordinates":[
132.520201,
33.318905
]
}
},
{
"type":"Feature",
"properties":{
"Name":"九島小学校",
"Jusho":"愛媛県宇和島市百之浦1262番地6",
"Capacity":"4632",
"la":"33.22341461930",
"ln":"132.52527493500"
},
"geometry":{
"type":"Point",
"coordinates":[
132.525274935,
33.2234146193
]
}
},
{
"type":"Feature",
"properties":{
"Name":"結出小学校",
"Jusho":"愛媛県宇和島市下波3731、3739、3740番地",
"Capacity":"3118",
"la":"33.16724400000",
"ln":"132.45739400000"
},
"geometry":{
"type":"Point",
"coordinates":[
132.457394,
33.167244
]
}
},
{
"type":"Feature",
"properties":{
"Name":"戸島小学校",
"Jusho":"愛媛県宇和島市戸島2335番地",
"Capacity":"4525",
"la":"33.20273800000",
"ln":"132.36065100000"
},
"geometry":{
"type":"Point",
"coordinates":[
132.360651,
33.202738
]
}
},
{
"type":"Feature",
"properties":{
"Name":"御槙小学校",
"Jusho":"愛媛県宇和島市津島町槙川2-178-37",
"Capacity":"3210",
"la":"33.09645100000",
"ln":"132.63411000000"
},
"geometry":{
"type":"Point",
"coordinates":[
132.63411,
33.096451
]
}
},
{
"type":"Feature",
"properties":{
"Name":"高光小学校",
"Jusho":"愛媛県宇和島市高串2番耕地121番地1",
"Capacity":"4413",
"la":"33.25468100000",
"ln":"132.57227000000"
},
"geometry":{
"type":"Point",
"coordinates":[
132.57227,
33.254681
]
}
},
{
"type":"Feature",
"properties":{
"Name":"三浦小学校",
"Jusho":"愛媛県宇和島市三浦西新23番地1",
"Capacity":"3917",
"la":"33.16946700000",
"ln":"132.50597200000"
},
"geometry":{
"type":"Point",
"coordinates":[
132.505972,
33.169467
]
}
},
{
"type":"Feature",
"properties":{
"Name":"三浦小学校裏の砂防ダム",
"Jusho":"愛媛県宇和島市",
"Capacity":"－",
"la":"33.16866861850",
"ln":"132.50677173800"
},
"geometry":{
"type":"Point",
"coordinates":[
132.506771738,
33.1686686185
]
}
},
{
"type":"Feature",
"properties":{
"Name":"市立鶴島小学校",
"Jusho":"愛媛県宇和島市文京町2番1号",
"Capacity":"2407",
"la":"33.21801800000",
"ln":"132.55985400000"
},
"geometry":{
"type":"Point",
"coordinates":[
132.559854,
33.218018
]
}
},
{
"type":"Feature",
"properties":{
"Name":"市立明倫小学校",
"Jusho":"愛媛県宇和島市文京町4番1号",
"Capacity":"3821",
"la":"33.21510200000",
"ln":"132.55899300000"
},
"geometry":{
"type":"Point",
"coordinates":[
132.558993,
33.215102
]
}
},
{
"type":"Feature",
"properties":{
"Name":"市立和霊小学校",
"Jusho":"愛媛県宇和島市伊吹町甲111番地",
"Capacity":"3260",
"la":"33.23074000000",
"ln":"132.57565800000"
},
"geometry":{
"type":"Point",
"coordinates":[
132.575658,
33.23074
]
}
},
{
"type":"Feature",
"properties":{
"Name":"住吉小学校",
"Jusho":"愛媛県宇和島市住吉町807番地2",
"Capacity":"7551",
"la":"33.23032200000",
"ln":"132.55554900000"
},
"geometry":{
"type":"Point",
"coordinates":[
132.555549,
33.230322
]
}
},
{
"type":"Feature",
"properties":{
"Name":"小学校上の墓地",
"Jusho":"愛媛県宇和島市",
"Capacity":"－",
"la":"33.22404956630",
"ln":"132.52569675700"
},
"geometry":{
"type":"Point",
"coordinates":[
132.525696757,
33.2240495663
]
}
},
{
"type":"Feature",
"properties":{
"Name":"小学校裏新設道路",
"Jusho":"愛媛県宇和島市",
"Capacity":"－",
"la":"33.05632080500",
"ln":"132.42943369000"
},
"geometry":{
"type":"Point",
"coordinates":[
132.42943369,
33.056320805
]
}
},
{
"type":"Feature",
"properties":{
"Name":"小池小学校",
"Jusho":"愛媛県宇和島市小池1679番地3",
"Capacity":"5508",
"la":"33.20001900000",
"ln":"132.50558200000"
},
"geometry":{
"type":"Point",
"coordinates":[
132.505582,
33.200019
]
}
},
{
"type":"Feature",
"properties":{
"Name":"蒋淵小学校",
"Jusho":"愛媛県宇和島市蒋淵983番地",
"Capacity":"2988",
"la":"33.20034000000",
"ln":"132.40751800000"
},
"geometry":{
"type":"Point",
"coordinates":[
132.407518,
33.20034
]
}
},
{
"type":"Feature",
"properties":{
"Name":"上槙小学校跡地",
"Jusho":"愛媛県宇和島市津島町下畑地",
"Capacity":"1130",
"la":"33.05568041730",
"ln":"132.55525290700"
},
"geometry":{
"type":"Point",
"coordinates":[
132.555252907,
33.0556804173
]
}
},
{
"type":"Feature",
"properties":{
"Name":"清満小学校",
"Jusho":"愛媛県宇和島市津島町岩渕丙395",
"Capacity":"7040",
"la":"33.12470100000",
"ln":"132.55120700000"
},
"geometry":{
"type":"Point",
"coordinates":[
132.551207,
33.124701
]
}
},
{
"type":"Feature",
"properties":{
"Name":"石応小学校",
"Jusho":"愛媛県宇和島市石応1616番地",
"Capacity":"4676",
"la":"33.21296200000",
"ln":"132.51497000000"
},
"geometry":{
"type":"Point",
"coordinates":[
132.51497,
33.212962
]
}
},
{
"type":"Feature",
"properties":{
"Name":"石応小学校裏山",
"Jusho":"愛媛県宇和島市",
"Capacity":"－",
"la":"33.21223121350",
"ln":"132.51551072000"
},
"geometry":{
"type":"Point",
"coordinates":[
132.51551072,
33.2122312135
]
}
},
{
"type":"Feature",
"properties":{
"Name":"曽根小学校",
"Jusho":"愛媛県宇和島市津島町脇706",
"Capacity":"2200",
"la":"33.10017800000",
"ln":"132.47997400000"
},
"geometry":{
"type":"Point",
"coordinates":[
132.479974,
33.100178
]
}
},
{
"type":"Feature",
"properties":{
"Name":"町立三間小学校",
"Jusho":"愛媛県宇和島市三間町宮野下493番地",
"Capacity":"－",
"la":"33.28952700000",
"ln":"132.60437300000"
},
"geometry":{
"type":"Point",
"coordinates":[
132.604373,
33.289527
]
}
},
{
"type":"Feature",
"properties":{
"Name":"町立成妙小学校",
"Jusho":"愛媛県宇和島市三間町成家759番地",
"Capacity":"－",
"la":"33.29894400000",
"ln":"132.59368000000"
},
"geometry":{
"type":"Point",
"coordinates":[
132.59368,
33.298944
]
}
},
{
"type":"Feature",
"properties":{
"Name":"町立二名小学校",
"Jusho":"愛媛県宇和島市三間町大内64番地",
"Capacity":"－",
"la":"33.28683800000",
"ln":"132.64323700000"
},
"geometry":{
"type":"Point",
"coordinates":[
132.643237,
33.286838
]
}
},
{
"type":"Feature",
"properties":{
"Name":"天神小学校",
"Jusho":"愛媛県宇和島市丸穂町甲978番地",
"Capacity":"8850",
"la":"33.22182600000",
"ln":"132.57356600000"
},
"geometry":{
"type":"Point",
"coordinates":[
132.573566,
33.221826
]
}
},
{
"type":"Feature",
"properties":{
"Name":"南部小学校",
"Jusho":"愛媛県宇和島市津島町北灘丁930-1",
"Capacity":"3270",
"la":"33.12014100000",
"ln":"132.47431100000"
},
"geometry":{
"type":"Point",
"coordinates":[
132.474311,
33.120141
]
}
},
{
"type":"Feature",
"properties":{
"Name":"日振島小学校",
"Jusho":"愛媛県宇和島市日振島2069番地",
"Capacity":"3347",
"la":"33.16860100000",
"ln":"132.29026900000"
},
"geometry":{
"type":"Point",
"coordinates":[
132.290269,
33.168601
]
}
},
{
"type":"Feature",
"properties":{
"Name":"畑地小学校",
"Jusho":"愛媛県宇和島市津島町上畑地甲80",
"Capacity":"4490",
"la":"33.08833100000",
"ln":"132.51454200000"
},
"geometry":{
"type":"Point",
"coordinates":[
132.514542,
33.088331
]
}
},
{
"type":"Feature",
"properties":{
"Name":"番城小学校",
"Jusho":"愛媛県宇和島市宮下甲201番地",
"Capacity":"8668",
"la":"33.20093600000",
"ln":"132.54985500000"
},
"geometry":{
"type":"Point",
"coordinates":[
132.549855,
33.200936
]
}
},
{
"type":"Feature",
"properties":{
"Name":"北灘小学校",
"Jusho":"愛媛県宇和島市津島町北灘乙153",
"Capacity":"7610",
"la":"33.14166700000",
"ln":"132.46845200000"
},
"geometry":{
"type":"Point",
"coordinates":[
132.468452,
33.141667
]
}
},
{
"type":"Feature",
"properties":{
"Name":"由良小学校",
"Jusho":"愛媛県宇和島市津島町成408",
"Capacity":"3910",
"la":"33.05678000000",
"ln":"132.42968800000"
},
"geometry":{
"type":"Point",
"coordinates":[
132.429688,
33.05678
]
}
},
{
"type":"Feature",
"properties":{
"Name":"由良小学校須下分校",
"Jusho":"愛媛県宇和島市津島町須下181-7",
"Capacity":"3020",
"la":"33.06207500000",
"ln":"132.41665200000"
},
"geometry":{
"type":"Point",
"coordinates":[
132.416652,
33.062075
]
}
},
{
"type":"Feature",
"properties":{
"Name":"由良小学校須下分校裏県道",
"Jusho":"愛媛県宇和島市",
"Capacity":"－",
"la":"33.06130311880",
"ln":"132.41657475400"
},
"geometry":{
"type":"Point",
"coordinates":[
132.416574754,
33.0613031188
]
}
},
{
"type":"Feature",
"properties":{
"Name":"由良小学校平井分校",
"Jusho":"愛媛県宇和島市津島町平井366",
"Capacity":"2330",
"la":"33.05634700000",
"ln":"132.45644300000"
},
"geometry":{
"type":"Point",
"coordinates":[
132.456443,
33.056347
]
}
},
{
"type":"Feature",
"properties":{
"Name":"遊子小学校",
"Jusho":"愛媛県宇和島市遊子3624番地",
"Capacity":"3769",
"la":"33.19393500000",
"ln":"132.45475400000"
},
"geometry":{
"type":"Point",
"coordinates":[
132.454754,
33.193935
]
}
},
{
"type":"Feature",
"properties":{
"Name":"和霊小学校グランド",
"Jusho":"愛媛県宇和島市",
"Capacity":"－",
"la":"33.23073999910",
"ln":"132.57565800000"
},
"geometry":{
"type":"Point",
"coordinates":[
132.575658,
33.2307399991
]
}
},
{
"type":"Feature",
"properties":{
"Name":"喜須来小学校",
"Jusho":"愛媛県八幡浜市保内町喜木2-224",
"Capacity":"673",
"la":"33.48689500000",
"ln":"132.41161100000"
},
"geometry":{
"type":"Point",
"coordinates":[
132.411611,
33.486895
]
}
},
{
"type":"Feature",
"properties":{
"Name":"宮内小学校",
"Jusho":"愛媛県八幡浜市保内町宮内5-46",
"Capacity":"950",
"la":"33.49153800000",
"ln":"132.39671900000"
},
"geometry":{
"type":"Point",
"coordinates":[
132.396719,
33.491538
]
}
},
{
"type":"Feature",
"properties":{
"Name":"旧磯崎小学校",
"Jusho":"愛媛県八幡浜市保内町磯崎1501",
"Capacity":"440",
"la":"33.54257600000",
"ln":"132.41468600000"
},
"geometry":{
"type":"Point",
"coordinates":[
132.414686,
33.542576
]
}
},
{
"type":"Feature",
"properties":{
"Name":"江戸岡小学校",
"Jusho":"愛媛県八幡浜市江戸岡1-7-1",
"Capacity":"1800",
"la":"33.45754300000",
"ln":"132.43397100000"
},
"geometry":{
"type":"Point",
"coordinates":[
132.433971,
33.457543
]
}
},
{
"type":"Feature",
"properties":{
"Name":"松蔭小学校",
"Jusho":"愛媛県八幡浜市広瀬3-4-3",
"Capacity":"2430",
"la":"33.45459800000",
"ln":"132.42694400000"
},
"geometry":{
"type":"Point",
"coordinates":[
132.426944,
33.454598
]
}
},
{
"type":"Feature",
"properties":{
"Name":"真穴小学校",
"Jusho":"愛媛県八幡浜市真網代戊162",
"Capacity":"900",
"la":"33.40329800000",
"ln":"132.39203200000"
},
"geometry":{
"type":"Point",
"coordinates":[
132.392032,
33.403298
]
}
},
{
"type":"Feature",
"properties":{
"Name":"神山小学校",
"Jusho":"愛媛県八幡浜市川筋上",
"Capacity":"1800",
"la":"33.44737700000",
"ln":"132.43755500000"
},
"geometry":{
"type":"Point",
"coordinates":[
132.437555,
33.447377
]
}
},
{
"type":"Feature",
"properties":{
"Name":"舌田小学校",
"Jusho":"愛媛県八幡浜市舌間2-544",
"Capacity":"880",
"la":"33.44437700000",
"ln":"132.41800100000"
},
"geometry":{
"type":"Point",
"coordinates":[
132.418001,
33.444377
]
}
},
{
"type":"Feature",
"properties":{
"Name":"千丈小学校",
"Jusho":"愛媛県八幡浜市稲ケ市",
"Capacity":"1590",
"la":"33.46468100000",
"ln":"132.45141400000"
},
"geometry":{
"type":"Point",
"coordinates":[
132.451414,
33.464681
]
}
},
{
"type":"Feature",
"properties":{
"Name":"川上小学校",
"Jusho":"愛媛県八幡浜市川上町川名津甲305",
"Capacity":"1200",
"la":"33.42299000000",
"ln":"132.40761300000"
},
"geometry":{
"type":"Point",
"coordinates":[
132.407613,
33.42299
]
}
},
{
"type":"Feature",
"properties":{
"Name":"川之石小学校",
"Jusho":"愛媛県八幡浜市保内町川之石3-300",
"Capacity":"1070",
"la":"33.47621800000",
"ln":"132.39393700000"
},
"geometry":{
"type":"Point",
"coordinates":[
132.393937,
33.476218
]
}
},
{
"type":"Feature",
"properties":{
"Name":"川之内小学校",
"Jusho":"愛媛県八幡浜市川之内1-182",
"Capacity":"400",
"la":"33.46779300000",
"ln":"132.48005100000"
},
"geometry":{
"type":"Point",
"coordinates":[
132.480051,
33.467793
]
}
},
{
"type":"Feature",
"properties":{
"Name":"双岩小学校",
"Jusho":"愛媛県八幡浜市若山3-167",
"Capacity":"1000",
"la":"33.42057500000",
"ln":"132.45891400000"
},
"geometry":{
"type":"Point",
"coordinates":[
132.458914,
33.420575
]
}
},
{
"type":"Feature",
"properties":{
"Name":"大島小学校",
"Jusho":"愛媛県八幡浜市大島3-298-5",
"Capacity":"350",
"la":"33.39392078010",
"ln":"132.34417381200"
},
"geometry":{
"type":"Point",
"coordinates":[
132.344173812,
33.3939207801
]
}
},
{
"type":"Feature",
"properties":{
"Name":"長谷小学校",
"Jusho":"愛媛県八幡浜市高野地716",
"Capacity":"200",
"la":"33.47870800000",
"ln":"132.44938600000"
},
"geometry":{
"type":"Point",
"coordinates":[
132.449386,
33.478708
]
}
},
{
"type":"Feature",
"properties":{
"Name":"日土小学校",
"Jusho":"愛媛県八幡浜市中当",
"Capacity":"1190",
"la":"33.50073300000",
"ln":"132.42788700000"
},
"geometry":{
"type":"Point",
"coordinates":[
132.427887,
33.500733
]
}
},
{
"type":"Feature",
"properties":{
"Name":"日土東小学校",
"Jusho":"愛媛県八幡浜市尾之花",
"Capacity":"860",
"la":"33.50870500000",
"ln":"132.45844100000"
},
"geometry":{
"type":"Point",
"coordinates":[
132.458441,
33.508705
]
}
},
{
"type":"Feature",
"properties":{
"Name":"白浜小学校",
"Jusho":"愛媛県八幡浜市白浜通",
"Capacity":"2840",
"la":"33.46554200000",
"ln":"132.42333300000"
},
"geometry":{
"type":"Point",
"coordinates":[
132.423333,
33.465542
]
}
},
{
"type":"Feature",
"properties":{
"Name":"垣生小学校",
"Jusho":"愛媛県新居浜市垣生1-5-38",
"Capacity":"17057",
"la":"33.98044700000",
"ln":"133.31896700000"
},
"geometry":{
"type":"Point",
"coordinates":[
133.318967,
33.980447
]
}
},
{
"type":"Feature",
"properties":{
"Name":"角野小学校",
"Jusho":"愛媛県新居浜市中筋町2-7-10",
"Capacity":"35210",
"la":"33.92181600000",
"ln":"133.30663400000"
},
"geometry":{
"type":"Point",
"coordinates":[
133.306634,
33.921816
]
}
},
{
"type":"Feature",
"properties":{
"Name":"宮西小学校",
"Jusho":"愛媛県新居浜市宮西町5-56",
"Capacity":"24904",
"la":"33.96150500000",
"ln":"133.27502600000"
},
"geometry":{
"type":"Point",
"coordinates":[
133.275026,
33.961505
]
}
},
{
"type":"Feature",
"properties":{
"Name":"金栄小学校",
"Jusho":"愛媛県新居浜市西の土居町1-5-1",
"Capacity":"31469",
"la":"33.95075700000",
"ln":"133.28288700000"
},
"geometry":{
"type":"Point",
"coordinates":[
133.282887,
33.950757
]
}
},
{
"type":"Feature",
"properties":{
"Name":"金子小学校",
"Jusho":"愛媛県新居浜市久保田町1-3-57",
"Capacity":"24020",
"la":"33.95756100000",
"ln":"133.28097000000"
},
"geometry":{
"type":"Point",
"coordinates":[
133.28097,
33.957561
]
}
},
{
"type":"Feature",
"properties":{
"Name":"高津小学校",
"Jusho":"愛媛県新居浜市宇高町2-13-7",
"Capacity":"23328",
"la":"33.97458700000",
"ln":"133.30174700000"
},
"geometry":{
"type":"Point",
"coordinates":[
133.301747,
33.974587
]
}
},
{
"type":"Feature",
"properties":{
"Name":"若宮小学校",
"Jusho":"愛媛県新居浜市新田町1-8-56",
"Capacity":"23611",
"la":"33.95739500000",
"ln":"133.26422200000"
},
"geometry":{
"type":"Point",
"coordinates":[
133.264222,
33.957395
]
}
},
{
"type":"Feature",
"properties":{
"Name":"新居浜小学校",
"Jusho":"愛媛県新居浜市新須賀町3-1-58",
"Capacity":"24331",
"la":"33.96906000000",
"ln":"133.28397000000"
},
"geometry":{
"type":"Point",
"coordinates":[
133.28397,
33.96906
]
}
},
{
"type":"Feature",
"properties":{
"Name":"神郷小学校",
"Jusho":"愛媛県新居浜市神郷1-1-1",
"Capacity":"22210",
"la":"33.96739400000",
"ln":"133.31557800000"
},
"geometry":{
"type":"Point",
"coordinates":[
133.315578,
33.967394
]
}
},
{
"type":"Feature",
"properties":{
"Name":"泉川小学校",
"Jusho":"愛媛県新居浜市岸の上町1-13-68",
"Capacity":"23278",
"la":"33.94345200000",
"ln":"133.30655100000"
},
"geometry":{
"type":"Point",
"coordinates":[
133.306551,
33.943452
]
}
},
{
"type":"Feature",
"properties":{
"Name":"船木小学校",
"Jusho":"愛媛県新居浜市船木4299-1",
"Capacity":"14206",
"la":"33.93720400000",
"ln":"133.32952000000"
},
"geometry":{
"type":"Point",
"coordinates":[
133.32952,
33.937204
]
}
},
{
"type":"Feature",
"properties":{
"Name":"惣開小学校",
"Jusho":"愛媛県新居浜市王子町1-3",
"Capacity":"18467",
"la":"33.95225600000",
"ln":"133.26855400000"
},
"geometry":{
"type":"Point",
"coordinates":[
133.268554,
33.952256
]
}
},
{
"type":"Feature",
"properties":{
"Name":"多喜浜小学校",
"Jusho":"愛媛県新居浜市多喜浜5-7-34",
"Capacity":"15125",
"la":"33.97486500000",
"ln":"133.35140800000"
},
"geometry":{
"type":"Point",
"coordinates":[
133.351408,
33.974865
]
}
},
{
"type":"Feature",
"properties":{
"Name":"大生院小学校",
"Jusho":"愛媛県新居浜市大生院1070-1",
"Capacity":"17959",
"la":"33.91918523630",
"ln":"133.25396123900"
},
"geometry":{
"type":"Point",
"coordinates":[
133.253961239,
33.9191852363
]
}
},
{
"type":"Feature",
"properties":{
"Name":"大島小学校",
"Jusho":"愛媛県新居浜市大島589",
"Capacity":"5089",
"la":"33.99616800000",
"ln":"133.36826700000"
},
"geometry":{
"type":"Point",
"coordinates":[
133.368267,
33.996168
]
}
},
{
"type":"Feature",
"properties":{
"Name":"中萩小学校",
"Jusho":"愛媛県新居浜市中萩町6-61",
"Capacity":"25202",
"la":"33.92895400000",
"ln":"133.28069200000"
},
"geometry":{
"type":"Point",
"coordinates":[
133.280692,
33.928954
]
}
},
{
"type":"Feature",
"properties":{
"Name":"浮島小学校",
"Jusho":"愛媛県新居浜市八幡2-2-65",
"Capacity":"18925",
"la":"33.98025300000",
"ln":"133.30816300000"
},
"geometry":{
"type":"Point",
"coordinates":[
133.308163,
33.980253
]
}
},
{
"type":"Feature",
"properties":{
"Name":"（旧）鞍瀬小学校",
"Jusho":"愛媛県西条市丹原町鞍瀬386-1",
"Capacity":"－",
"la":"33.84200663100",
"ln":"133.00765730000"
},
"geometry":{
"type":"Point",
"coordinates":[
133.0076573,
33.842006631
]
}
},
{
"type":"Feature",
"properties":{
"Name":"浦山小学校",
"Jusho":"愛媛県西条市黒瀬甲895-1",
"Capacity":"－",
"la":"33.85243100000",
"ln":"133.15998000000"
},
"geometry":{
"type":"Point",
"coordinates":[
133.15998,
33.852431
]
}
},
{
"type":"Feature",
"properties":{
"Name":"吉井小学校",
"Jusho":"愛媛県西条市玉之江235-1",
"Capacity":"－",
"la":"33.91292300000",
"ln":"133.10123500000"
},
"geometry":{
"type":"Point",
"coordinates":[
133.101235,
33.912923
]
}
},
{
"type":"Feature",
"properties":{
"Name":"吉岡小学校",
"Jusho":"愛媛県西条市広岡116-1",
"Capacity":"－",
"la":"33.93241900000",
"ln":"133.04924100000"
},
"geometry":{
"type":"Point",
"coordinates":[
133.049241,
33.932419
]
}
},
{
"type":"Feature",
"properties":{
"Name":"橘小学校",
"Jusho":"愛媛県西条市西泉乙417",
"Capacity":"－",
"la":"33.89281500000",
"ln":"133.14661900000"
},
"geometry":{
"type":"Point",
"coordinates":[
133.146619,
33.892815
]
}
},
{
"type":"Feature",
"properties":{
"Name":"玉津小学校",
"Jusho":"愛媛県西条市玉津200-1",
"Capacity":"－",
"la":"33.92211900000",
"ln":"133.20133700000"
},
"geometry":{
"type":"Point",
"coordinates":[
133.201337,
33.922119
]
}
},
{
"type":"Feature",
"properties":{
"Name":"国安小学校",
"Jusho":"愛媛県西条市桑村131",
"Capacity":"－",
"la":"33.94114000000",
"ln":"133.06354500000"
},
"geometry":{
"type":"Point",
"coordinates":[
133.063545,
33.94114
]
}
},
{
"type":"Feature",
"properties":{
"Name":"三芳小学校",
"Jusho":"愛媛県西条市三芳1217",
"Capacity":"－",
"la":"33.95158400000",
"ln":"133.05882400000"
},
"geometry":{
"type":"Point",
"coordinates":[
133.058824,
33.951584
]
}
},
{
"type":"Feature",
"properties":{
"Name":"周布小学校",
"Jusho":"愛媛県西条市周布1521",
"Capacity":"－",
"la":"33.91142200000",
"ln":"133.07682100000"
},
"geometry":{
"type":"Point",
"coordinates":[
133.076821,
33.911422
]
}
},
{
"type":"Feature",
"properties":{
"Name":"小松小学校",
"Jusho":"愛媛県西条市小松町新屋敷甲280-1",
"Capacity":"－",
"la":"33.89606500000",
"ln":"133.11232100000"
},
"geometry":{
"type":"Point",
"coordinates":[
133.112321,
33.896065
]
}
},
{
"type":"Feature",
"properties":{
"Name":"庄内小学校",
"Jusho":"愛媛県西条市旦之上甲618",
"Capacity":"－",
"la":"33.94311200000",
"ln":"133.03496400000"
},
"geometry":{
"type":"Point",
"coordinates":[
133.034964,
33.943112
]
}
},
{
"type":"Feature",
"properties":{
"Name":"神戸小学校",
"Jusho":"愛媛県西条市洲之内甲200",
"Capacity":"－",
"la":"33.90009300000",
"ln":"133.17817200000"
},
"geometry":{
"type":"Point",
"coordinates":[
133.178172,
33.900093
]
}
},
{
"type":"Feature",
"properties":{
"Name":"神拝小学校",
"Jusho":"愛媛県西条市神拝甲427",
"Capacity":"－",
"la":"33.91539700000",
"ln":"133.17681100000"
},
"geometry":{
"type":"Point",
"coordinates":[
133.176811,
33.915397
]
}
},
{
"type":"Feature",
"properties":{
"Name":"壬生川小学校",
"Jusho":"愛媛県西条市壬生川425-2",
"Capacity":"－",
"la":"33.93614100000",
"ln":"133.08159800000"
},
"geometry":{
"type":"Point",
"coordinates":[
133.081598,
33.936141
]
}
},
{
"type":"Feature",
"properties":{
"Name":"西条小学校",
"Jusho":"愛媛県西条市神拝乙112",
"Capacity":"－",
"la":"33.92506300000",
"ln":"133.18036600000"
},
"geometry":{
"type":"Point",
"coordinates":[
133.180366,
33.925063
]
}
},
{
"type":"Feature",
"properties":{
"Name":"石根小学校",
"Jusho":"愛媛県西条市小松町大頭甲262-1",
"Capacity":"－",
"la":"33.88243800000",
"ln":"133.07511800000"
},
"geometry":{
"type":"Point",
"coordinates":[
133.075118,
33.882438
]
}
},
{
"type":"Feature",
"properties":{
"Name":"多賀小学校",
"Jusho":"愛媛県西条市北条1504",
"Capacity":"－",
"la":"33.92869800000",
"ln":"133.09320800000"
},
"geometry":{
"type":"Point",
"coordinates":[
133.093208,
33.928698
]
}
},
{
"type":"Feature",
"properties":{
"Name":"大町小学校",
"Jusho":"愛媛県西条市大町992-2",
"Capacity":"－",
"la":"33.90839800000",
"ln":"133.18822700000"
},
"geometry":{
"type":"Point",
"coordinates":[
133.188227,
33.908398
]
}
},
{
"type":"Feature",
"properties":{
"Name":"丹原小学校",
"Jusho":"愛媛県西条市丹原町池田1778-1",
"Capacity":"－",
"la":"33.90587200000",
"ln":"133.06183800000"
},
"geometry":{
"type":"Point",
"coordinates":[
133.061838,
33.905872
]
}
},
{
"type":"Feature",
"properties":{
"Name":"中川小学校",
"Jusho":"愛媛県西条市丹原町来見1-122",
"Capacity":"－",
"la":"33.86486000000",
"ln":"133.02732000000"
},
"geometry":{
"type":"Point",
"coordinates":[
133.02732,
33.86486
]
}
},
{
"type":"Feature",
"properties":{
"Name":"禎瑞小学校",
"Jusho":"愛媛県西条市禎瑞1829",
"Capacity":"－",
"la":"33.91503500000",
"ln":"133.14075800000"
},
"geometry":{
"type":"Point",
"coordinates":[
133.140758,
33.915035
]
}
},
{
"type":"Feature",
"properties":{
"Name":"田滝小学校",
"Jusho":"愛媛県西条市丹原町高松2266-1",
"Capacity":"－",
"la":"33.88026600000",
"ln":"133.02028900000"
},
"geometry":{
"type":"Point",
"coordinates":[
133.020289,
33.880266
]
}
},
{
"type":"Feature",
"properties":{
"Name":"田野小学校",
"Jusho":"愛媛県西条市丹原町田野上方2098-1",
"Capacity":"－",
"la":"33.87957200000",
"ln":"133.04553100000"
},
"geometry":{
"type":"Point",
"coordinates":[
133.045531,
33.879572
]
}
},
{
"type":"Feature",
"properties":{
"Name":"徳田小学校",
"Jusho":"愛媛県西条市丹原町古田甲720-1",
"Capacity":"－",
"la":"33.91099300000",
"ln":"133.04518900000"
},
"geometry":{
"type":"Point",
"coordinates":[
133.045189,
33.910993
]
}
},
{
"type":"Feature",
"properties":{
"Name":"楠河小学校",
"Jusho":"愛媛県西条市河原津甲464-1",
"Capacity":"－",
"la":"33.96358300000",
"ln":"133.06101800000"
},
"geometry":{
"type":"Point",
"coordinates":[
133.061018,
33.963583
]
}
},
{
"type":"Feature",
"properties":{
"Name":"飯岡小学校",
"Jusho":"愛媛県西条市飯岡2124",
"Capacity":"－",
"la":"33.91981400000",
"ln":"133.22736300000"
},
"geometry":{
"type":"Point",
"coordinates":[
133.227363,
33.919814
]
}
},
{
"type":"Feature",
"properties":{
"Name":"氷見小学校",
"Jusho":"愛媛県西条市氷見乙1143-2",
"Capacity":"－",
"la":"33.89450900000",
"ln":"133.12714900000"
},
"geometry":{
"type":"Point",
"coordinates":[
133.127149,
33.894509
]
}
},
{
"type":"Feature",
"properties":{
"Name":"粟津小学校",
"Jusho":"愛媛県大洲市八多喜町甲1101番地",
"Capacity":"－",
"la":"33.56411700000",
"ln":"132.54118300000"
},
"geometry":{
"type":"Point",
"coordinates":[
132.541183,
33.564117
]
}
},
{
"type":"Feature",
"properties":{
"Name":"河辺小学校",
"Jusho":"愛媛県大洲市河辺町植松674番地",
"Capacity":"－",
"la":"33.49193800000",
"ln":"132.74332000000"
},
"geometry":{
"type":"Point",
"coordinates":[
132.74332,
33.491938
]
}
},
{
"type":"Feature",
"properties":{
"Name":"戒川小学校",
"Jusho":"愛媛県大洲市戒川乙903番地",
"Capacity":"－",
"la":"33.59434073700",
"ln":"132.53432017400"
},
"geometry":{
"type":"Point",
"coordinates":[
132.534320174,
33.594340737
]
}
},
{
"type":"Feature",
"properties":{
"Name":"喜多小学校",
"Jusho":"愛媛県大洲市若宮332番地",
"Capacity":"－",
"la":"33.52181700000",
"ln":"132.54873900000"
},
"geometry":{
"type":"Point",
"coordinates":[
132.548739,
33.521817
]
}
},
{
"type":"Feature",
"properties":{
"Name":"喜多灘小学校",
"Jusho":"愛媛県大洲市長浜町今坊甲1154番地",
"Capacity":"－",
"la":"33.62950400000",
"ln":"132.52156000000"
},
"geometry":{
"type":"Point",
"coordinates":[
132.52156,
33.629504
]
}
},
{
"type":"Feature",
"properties":{
"Name":"久米小学校",
"Jusho":"愛媛県大洲市阿蔵甲636番地",
"Capacity":"－",
"la":"33.50798400000",
"ln":"132.52751900000"
},
"geometry":{
"type":"Point",
"coordinates":[
132.527519,
33.507984
]
}
},
{
"type":"Feature",
"properties":{
"Name":"櫛生小学校",
"Jusho":"愛媛県大洲市長浜町櫛生乙141番地",
"Capacity":"－",
"la":"33.57243500000",
"ln":"132.44715400000"
},
"geometry":{
"type":"Point",
"coordinates":[
132.447154,
33.572435
]
}
},
{
"type":"Feature",
"properties":{
"Name":"元岩谷小学校",
"Jusho":"愛媛県大洲市肱川町山鳥坂3744番地",
"Capacity":"－",
"la":"33.48144108820",
"ln":"132.72054025900"
},
"geometry":{
"type":"Point",
"coordinates":[
132.720540259,
33.4814410882
]
}
},
{
"type":"Feature",
"properties":{
"Name":"三善小学校",
"Jusho":"愛媛県大洲市春賀甲1888番地",
"Capacity":"－",
"la":"33.55453600000",
"ln":"132.55593200000"
},
"geometry":{
"type":"Point",
"coordinates":[
132.555932,
33.554536
]
}
},
{
"type":"Feature",
"properties":{
"Name":"柴小学校",
"Jusho":"愛媛県大洲市柴甲595番地",
"Capacity":"－",
"la":"33.57174758910",
"ln":"132.52575720100"
},
"geometry":{
"type":"Point",
"coordinates":[
132.525757201,
33.5717475891
]
}
},
{
"type":"Feature",
"properties":{
"Name":"出海小学校",
"Jusho":"愛媛県大洲市長浜町出海乙4番地",
"Capacity":"－",
"la":"33.55698500000",
"ln":"132.43387400000"
},
"geometry":{
"type":"Point",
"coordinates":[
132.433874,
33.556985
]
}
},
{
"type":"Feature",
"properties":{
"Name":"上須戒小学校",
"Jusho":"愛媛県大洲市上須戒甲1511番地",
"Capacity":"－",
"la":"33.53709200000",
"ln":"132.50338100000"
},
"geometry":{
"type":"Point",
"coordinates":[
132.503381,
33.537092
]
}
},
{
"type":"Feature",
"properties":{
"Name":"新谷小学校",
"Jusho":"愛媛県大洲市新谷町甲190番地2",
"Capacity":"－",
"la":"33.53906600000",
"ln":"132.59837300000"
},
"geometry":{
"type":"Point",
"coordinates":[
132.598373,
33.539066
]
}
},
{
"type":"Feature",
"properties":{
"Name":"菅田小学校",
"Jusho":"愛媛県大洲市菅田町菅田甲703番地",
"Capacity":"－",
"la":"33.51090300000",
"ln":"132.59287400000"
},
"geometry":{
"type":"Point",
"coordinates":[
132.592874,
33.510903
]
}
},
{
"type":"Feature",
"properties":{
"Name":"正山小学校",
"Jusho":"愛媛県大洲市肱川町名荷谷1750番地",
"Capacity":"－",
"la":"33.48842100000",
"ln":"132.68541500000"
},
"geometry":{
"type":"Point",
"coordinates":[
132.685415,
33.488421
]
}
},
{
"type":"Feature",
"properties":{
"Name":"蔵川小学校",
"Jusho":"愛媛県大洲市蔵川甲239番地",
"Capacity":"－",
"la":"33.45979700000",
"ln":"132.61467900000"
},
"geometry":{
"type":"Point",
"coordinates":[
132.614679,
33.459797
]
}
},
{
"type":"Feature",
"properties":{
"Name":"大洲小学校",
"Jusho":"愛媛県大洲市大洲711番地",
"Capacity":"－",
"la":"33.50692900000",
"ln":"132.54235000000"
},
"geometry":{
"type":"Point",
"coordinates":[
132.54235,
33.506929
]
}
},
{
"type":"Feature",
"properties":{
"Name":"大成小学校",
"Jusho":"愛媛県大洲市森山甲726番地1",
"Capacity":"－",
"la":"33.48365700000",
"ln":"132.64292600000"
},
"geometry":{
"type":"Point",
"coordinates":[
132.642926,
33.483657
]
}
},
{
"type":"Feature",
"properties":{
"Name":"大谷小学校",
"Jusho":"愛媛県大洲市肱川町大谷2660番地",
"Capacity":"－",
"la":"33.43478100000",
"ln":"132.66310500000"
},
"geometry":{
"type":"Point",
"coordinates":[
132.663105,
33.434781
]
}
},
{
"type":"Feature",
"properties":{
"Name":"大和小学校",
"Jusho":"愛媛県大洲市長浜町下須戒甲669番地5",
"Capacity":"－",
"la":"33.59252800000",
"ln":"132.49451300000"
},
"geometry":{
"type":"Point",
"coordinates":[
132.494513,
33.592528
]
}
},
{
"type":"Feature",
"properties":{
"Name":"中野小学校",
"Jusho":"愛媛県大洲市肱川町山鳥坂527番地1",
"Capacity":"－",
"la":"33.45865000000",
"ln":"132.68019300000"
},
"geometry":{
"type":"Point",
"coordinates":[
132.680193,
33.45865
]
}
},
{
"type":"Feature",
"properties":{
"Name":"長浜小学校",
"Jusho":"愛媛県大洲市長浜甲190番地",
"Capacity":"－",
"la":"33.61188800000",
"ln":"132.48238100000"
},
"geometry":{
"type":"Point",
"coordinates":[
132.482381,
33.611888
]
}
},
{
"type":"Feature",
"properties":{
"Name":"田処小学校",
"Jusho":"愛媛県大洲市田処甲216番地",
"Capacity":"－",
"la":"33.59961400000",
"ln":"132.58773300000"
},
"geometry":{
"type":"Point",
"coordinates":[
132.587733,
33.599614
]
}
},
{
"type":"Feature",
"properties":{
"Name":"南久米小学校",
"Jusho":"愛媛県大洲市野佐来479番地",
"Capacity":"－",
"la":"33.46843300000",
"ln":"132.54518400000"
},
"geometry":{
"type":"Point",
"coordinates":[
132.545184,
33.468433
]
}
},
{
"type":"Feature",
"properties":{
"Name":"白滝小学校",
"Jusho":"愛媛県大洲市白滝甲557番地2",
"Capacity":"－",
"la":"33.58278100000",
"ln":"132.52137800000"
},
"geometry":{
"type":"Point",
"coordinates":[
132.521378,
33.582781
]
}
},
{
"type":"Feature",
"properties":{
"Name":"平小学校",
"Jusho":"愛媛県大洲市徳森2600番地",
"Capacity":"－",
"la":"33.52217900000",
"ln":"132.58159700000"
},
"geometry":{
"type":"Point",
"coordinates":[
132.581597,
33.522179
]
}
},
{
"type":"Feature",
"properties":{
"Name":"平野小学校",
"Jusho":"愛媛県大洲市平野町平地47番地",
"Capacity":"－",
"la":"33.49773500000",
"ln":"132.51621400000"
},
"geometry":{
"type":"Point",
"coordinates":[
132.516214,
33.497735
]
}
},
{
"type":"Feature",
"properties":{
"Name":"豊茂小学校",
"Jusho":"愛媛県大洲市豊茂甲532番地",
"Capacity":"－",
"la":"33.56211699910",
"ln":"132.46913300000"
},
"geometry":{
"type":"Point",
"coordinates":[
132.469133,
33.5621169991
]
}
},
{
"type":"Feature",
"properties":{
"Name":"柳沢小学校",
"Jusho":"愛媛県大洲市柳沢甲760番地",
"Capacity":"－",
"la":"33.57989500000",
"ln":"132.59937100000"
},
"geometry":{
"type":"Point",
"coordinates":[
132.599371,
33.579895
]
}
},
{
"type":"Feature",
"properties":{
"Name":"予子林小学校",
"Jusho":"愛媛県大洲市肱川町予子林1957番地",
"Capacity":"－",
"la":"33.43552000000",
"ln":"132.70636200000"
},
"geometry":{
"type":"Point",
"coordinates":[
132.706362,
33.43552
]
}
},
{
"type":"Feature",
"properties":{
"Name":"伊予小学校",
"Jusho":"愛媛県伊予市上野2270",
"Capacity":"－",
"la":"33.77084700000",
"ln":"132.74132800000"
},
"geometry":{
"type":"Point",
"coordinates":[
132.741328,
33.770847
]
}
},
{
"type":"Feature",
"properties":{
"Name":"下灘小学校",
"Jusho":"愛媛県伊予市双海町串甲110-3",
"Capacity":"－",
"la":"33.65068300000",
"ln":"132.58024700000"
},
"geometry":{
"type":"Point",
"coordinates":[
132.580247,
33.650683
]
}
},
{
"type":"Feature",
"properties":{
"Name":"郡中小学校",
"Jusho":"愛媛県伊予市上吾川110",
"Capacity":"－",
"la":"33.75640400000",
"ln":"132.70897000000"
},
"geometry":{
"type":"Point",
"coordinates":[
132.70897,
33.756404
]
}
},
{
"type":"Feature",
"properties":{
"Name":"佐礼谷小学校",
"Jusho":"愛媛県伊予市中山町佐礼谷甲827-2",
"Capacity":"－",
"la":"33.68301700000",
"ln":"132.71905100000"
},
"geometry":{
"type":"Point",
"coordinates":[
132.719051,
33.683017
]
}
},
{
"type":"Feature",
"properties":{
"Name":"翠小学校体育館",
"Jusho":"愛媛県伊予市双海町上灘甲452-1",
"Capacity":"－",
"la":"33.67993499910",
"ln":"132.66798200000"
},
"geometry":{
"type":"Point",
"coordinates":[
132.667982,
33.6799349991
]
}
},
{
"type":"Feature",
"properties":{
"Name":"中山小学校",
"Jusho":"愛媛県伊予市中山町出渕2-143",
"Capacity":"－",
"la":"33.64291700000",
"ln":"132.71138600000"
},
"geometry":{
"type":"Point",
"coordinates":[
132.711386,
33.642917
]
}
},
{
"type":"Feature",
"properties":{
"Name":"南山崎小学校",
"Jusho":"愛媛県伊予市大平甲942",
"Capacity":"－",
"la":"33.71507500000",
"ln":"132.70697000000"
},
"geometry":{
"type":"Point",
"coordinates":[
132.70697,
33.715075
]
}
},
{
"type":"Feature",
"properties":{
"Name":"北山崎小学校",
"Jusho":"愛媛県伊予市中村41",
"Capacity":"－",
"la":"33.74193300000",
"ln":"132.69497200000"
},
"geometry":{
"type":"Point",
"coordinates":[
132.694972,
33.741933
]
}
},
{
"type":"Feature",
"properties":{
"Name":"由並小学校",
"Jusho":"愛媛県伊予市双海町高岸甲867",
"Capacity":"－",
"la":"33.68570700000",
"ln":"132.63639300000"
},
"geometry":{
"type":"Point",
"coordinates":[
132.636393,
33.685707
]
}
},
{
"type":"Feature",
"properties":{
"Name":"寒川小学校",
"Jusho":"愛媛県四国中央市寒川町1814",
"Capacity":"3800",
"la":"33.96448100000",
"ln":"133.51647400000"
},
"geometry":{
"type":"Point",
"coordinates":[
133.516474,
33.964481
]
}
},
{
"type":"Feature",
"properties":{
"Name":"関川小学校",
"Jusho":"愛媛県四国中央市土居町上野1726-1",
"Capacity":"3000",
"la":"33.94446000000",
"ln":"133.38817500000"
},
"geometry":{
"type":"Point",
"coordinates":[
133.388175,
33.94446
]
}
},
{
"type":"Feature",
"properties":{
"Name":"旧新宮小学校",
"Jusho":"愛媛県四国中央市新宮町新宮448",
"Capacity":"7050",
"la":"33.94455000000",
"ln":"133.63839600000"
},
"geometry":{
"type":"Point",
"coordinates":[
133.638396,
33.94455
]
}
},
{
"type":"Feature",
"properties":{
"Name":"旧西庄小学校講堂",
"Jusho":"愛媛県四国中央市新宮町上山922",
"Capacity":"80",
"la":"33.95089430400",
"ln":"133.65161372800"
},
"geometry":{
"type":"Point",
"coordinates":[
133.651613728,
33.950894304
]
}
},
{
"type":"Feature",
"properties":{
"Name":"金生第一小学校",
"Jusho":"愛媛県四国中央市金生町下分1665",
"Capacity":"5900",
"la":"34.00242100000",
"ln":"133.58346900000"
},
"geometry":{
"type":"Point",
"coordinates":[
133.583469,
34.002421
]
}
},
{
"type":"Feature",
"properties":{
"Name":"金生第二小学校",
"Jusho":"愛媛県四国中央市金生町山田井775",
"Capacity":"4100",
"la":"34.01266900000",
"ln":"133.59774500000"
},
"geometry":{
"type":"Point",
"coordinates":[
133.597745,
34.012669
]
}
},
{
"type":"Feature",
"properties":{
"Name":"妻鳥小学校",
"Jusho":"愛媛県四国中央市妻鳥町1488",
"Capacity":"6700",
"la":"33.99153400000",
"ln":"133.57105400000"
},
"geometry":{
"type":"Point",
"coordinates":[
133.571054,
33.991534
]
}
},
{
"type":"Feature",
"properties":{
"Name":"三島小学校",
"Jusho":"愛媛県四国中央市三島中央3-2-23",
"Capacity":"4500",
"la":"33.98022300000",
"ln":"133.54402100000"
},
"geometry":{
"type":"Point",
"coordinates":[
133.544021,
33.980223
]
}
},
{
"type":"Feature",
"properties":{
"Name":"小富士小学校",
"Jusho":"愛媛県四国中央市土居町小林667",
"Capacity":"3700",
"la":"33.96199300000",
"ln":"133.43670500000"
},
"geometry":{
"type":"Point",
"coordinates":[
133.436705,
33.961993
]
}
},
{
"type":"Feature",
"properties":{
"Name":"松柏小学校",
"Jusho":"愛媛県四国中央市下柏町407",
"Capacity":"3500",
"la":"33.98449133340",
"ln":"133.56403841800"
},
"geometry":{
"type":"Point",
"coordinates":[
133.564038418,
33.9844913334
]
}
},
{
"type":"Feature",
"properties":{
"Name":"上分小学校",
"Jusho":"愛媛県四国中央市上分町800",
"Capacity":"3400",
"la":"33.99211700000",
"ln":"133.58610700000"
},
"geometry":{
"type":"Point",
"coordinates":[
133.586107,
33.992117
]
}
},
{
"type":"Feature",
"properties":{
"Name":"川之江小学校",
"Jusho":"愛媛県四国中央市川之江町2370",
"Capacity":"500",
"la":"34.01544700000",
"ln":"133.57894200000"
},
"geometry":{
"type":"Point",
"coordinates":[
133.578942,
34.015447
]
}
},
{
"type":"Feature",
"properties":{
"Name":"中曽根小学校",
"Jusho":"愛媛県四国中央市中曽根町1556",
"Capacity":"3300",
"la":"33.97595200000",
"ln":"133.54758400000"
},
"geometry":{
"type":"Point",
"coordinates":[
133.547584,
33.975952
]
}
},
{
"type":"Feature",
"properties":{
"Name":"中之庄小学校",
"Jusho":"愛媛県四国中央市中之庄町140",
"Capacity":"4400",
"la":"33.97284100000",
"ln":"133.53152900000"
},
"geometry":{
"type":"Point",
"coordinates":[
133.531529,
33.972841
]
}
},
{
"type":"Feature",
"properties":{
"Name":"長津小学校",
"Jusho":"愛媛県四国中央市土居町津根2061",
"Capacity":"3500",
"la":"33.96361783290",
"ln":"133.45637057600"
},
"geometry":{
"type":"Point",
"coordinates":[
133.456370576,
33.9636178329
]
}
},
{
"type":"Feature",
"properties":{
"Name":"土居小学校",
"Jusho":"愛媛県四国中央市土居町土居1580",
"Capacity":"3400",
"la":"33.96004000000",
"ln":"133.42069100000"
},
"geometry":{
"type":"Point",
"coordinates":[
133.420691,
33.96004
]
}
},
{
"type":"Feature",
"properties":{
"Name":"南小学校",
"Jusho":"愛媛県四国中央市金田町金川145",
"Capacity":"6900",
"la":"33.99175600000",
"ln":"133.60063300000"
},
"geometry":{
"type":"Point",
"coordinates":[
133.600633,
33.991756
]
}
},
{
"type":"Feature",
"properties":{
"Name":"豊岡小学校",
"Jusho":"愛媛県四国中央市豊岡町豊田45",
"Capacity":"3300",
"la":"33.96498000000",
"ln":"133.48100500000"
},
"geometry":{
"type":"Point",
"coordinates":[
133.481005,
33.96498
]
}
},
{
"type":"Feature",
"properties":{
"Name":"北小学校",
"Jusho":"愛媛県四国中央市土居町蕪崎1040",
"Capacity":"4000",
"la":"33.97913500000",
"ln":"133.42591500000"
},
"geometry":{
"type":"Point",
"coordinates":[
133.425915,
33.979135
]
}
},
{
"type":"Feature",
"properties":{
"Name":"宇和町小学校",
"Jusho":"愛媛県西予市宇和町卯之町2-145",
"Capacity":"－",
"la":"33.36651200000",
"ln":"132.51077600000"
},
"geometry":{
"type":"Point",
"coordinates":[
132.510776,
33.366512
]
}
},
{
"type":"Feature",
"properties":{
"Name":"下泊小学校",
"Jusho":"愛媛県西予市三瓶町下泊785",
"Capacity":"－",
"la":"33.33604300000",
"ln":"132.38998600000"
},
"geometry":{
"type":"Point",
"coordinates":[
132.389986,
33.336043
]
}
},
{
"type":"Feature",
"properties":{
"Name":"河成小学校",
"Jusho":"愛媛県西予市野村町予子林5192-1",
"Capacity":"－",
"la":"33.41690300000",
"ln":"132.71856800000"
},
"geometry":{
"type":"Point",
"coordinates":[
132.718568,
33.416903
]
}
},
{
"type":"Feature",
"properties":{
"Name":"皆田小学校",
"Jusho":"愛媛県西予市宇和町皆田1115",
"Capacity":"－",
"la":"33.34581200000",
"ln":"132.53704400000"
},
"geometry":{
"type":"Point",
"coordinates":[
132.537044,
33.345812
]
}
},
{
"type":"Feature",
"properties":{
"Name":"魚成小学校",
"Jusho":"愛媛県西予市城川町魚成5672",
"Capacity":"－",
"la":"33.38005900000",
"ln":"132.72349900000"
},
"geometry":{
"type":"Point",
"coordinates":[
132.723499,
33.380059
]
}
},
{
"type":"Feature",
"properties":{
"Name":"渓筋小学校",
"Jusho":"愛媛県西予市野村町鳥鹿野870",
"Capacity":"－",
"la":"33.40409600000",
"ln":"132.58684300000"
},
"geometry":{
"type":"Point",
"coordinates":[
132.586843,
33.404096
]
}
},
{
"type":"Feature",
"properties":{
"Name":"高山小学校",
"Jusho":"愛媛県西予市明浜町高山甲3420",
"Capacity":"－",
"la":"33.32233100000",
"ln":"132.43178000000"
},
"geometry":{
"type":"Point",
"coordinates":[
132.43178,
33.322331
]
}
},
{
"type":"Feature",
"properties":{
"Name":"高川小学校",
"Jusho":"愛媛県西予市城川町高野子806",
"Capacity":"－",
"la":"33.36895100000",
"ln":"132.80376600000"
},
"geometry":{
"type":"Point",
"coordinates":[
132.803766,
33.368951
]
}
},
{
"type":"Feature",
"properties":{
"Name":"三瓶小学校",
"Jusho":"愛媛県西予市三瓶町朝立1-337-2",
"Capacity":"－",
"la":"33.38152500000",
"ln":"132.42274600000"
},
"geometry":{
"type":"Point",
"coordinates":[
132.422746,
33.381525
]
}
},
{
"type":"Feature",
"properties":{
"Name":"狩江小学校",
"Jusho":"愛媛県西予市明浜町狩浜2-1350",
"Capacity":"－",
"la":"33.32007600000",
"ln":"132.46595700000"
},
"geometry":{
"type":"Point",
"coordinates":[
132.465957,
33.320076
]
}
},
{
"type":"Feature",
"properties":{
"Name":"周木小学校",
"Jusho":"愛媛県西予市三瓶町周木6-247-1",
"Capacity":"－",
"la":"33.37605600000",
"ln":"132.38896000000"
},
"geometry":{
"type":"Point",
"coordinates":[
132.38896,
33.376056
]
}
},
{
"type":"Feature",
"properties":{
"Name":"石城小学校",
"Jusho":"愛媛県西予市宇和町西山田164-1",
"Capacity":"－",
"la":"33.38430300000",
"ln":"132.47459700000"
},
"geometry":{
"type":"Point",
"coordinates":[
132.474597,
33.384303
]
}
},
{
"type":"Feature",
"properties":{
"Name":"惣川小学校",
"Jusho":"愛媛県西予市野村町惣川3888",
"Capacity":"－",
"la":"33.48066866500",
"ln":"132.79659223000"
},
"geometry":{
"type":"Point",
"coordinates":[
132.79659223,
33.480668665
]
}
},
{
"type":"Feature",
"properties":{
"Name":"蔵貫小学校",
"Jusho":"愛媛県西予市三瓶町蔵貫浦491",
"Capacity":"－",
"la":"33.35648400000",
"ln":"132.42382100000"
},
"geometry":{
"type":"Point",
"coordinates":[
132.423821,
33.356484
]
}
},
{
"type":"Feature",
"properties":{
"Name":"多田小学校",
"Jusho":"愛媛県西予市宇和町河内171",
"Capacity":"－",
"la":"33.42822300000",
"ln":"132.50511100000"
},
"geometry":{
"type":"Point",
"coordinates":[
132.505111,
33.428223
]
}
},
{
"type":"Feature",
"properties":{
"Name":"大野ヶ原小学校",
"Jusho":"愛媛県西予市野村町大野ヶ原217",
"Capacity":"－",
"la":"33.47983400000",
"ln":"132.87074900000"
},
"geometry":{
"type":"Point",
"coordinates":[
132.870749,
33.479834
]
}
},
{
"type":"Feature",
"properties":{
"Name":"大和田小学校",
"Jusho":"愛媛県西予市野村町阿下2-428",
"Capacity":"－",
"la":"33.39680800000",
"ln":"132.67345500000"
},
"geometry":{
"type":"Point",
"coordinates":[
132.673455,
33.396808
]
}
},
{
"type":"Feature",
"properties":{
"Name":"中筋小学校",
"Jusho":"愛媛県西予市野村町高瀬4098",
"Capacity":"－",
"la":"33.41425300000",
"ln":"132.63386000000"
},
"geometry":{
"type":"Point",
"coordinates":[
132.63386,
33.414253
]
}
},
{
"type":"Feature",
"properties":{
"Name":"中川小学校",
"Jusho":"愛媛県西予市宇和町田苗真土1614",
"Capacity":"－",
"la":"33.39884200000",
"ln":"132.50657700000"
},
"geometry":{
"type":"Point",
"coordinates":[
132.506577,
33.398842
]
}
},
{
"type":"Feature",
"properties":{
"Name":"田之筋小学校",
"Jusho":"愛媛県西予市宇和町新城982",
"Capacity":"－",
"la":"33.38374100000",
"ln":"132.53269800000"
},
"geometry":{
"type":"Point",
"coordinates":[
132.532698,
33.383741
]
}
},
{
"type":"Feature",
"properties":{
"Name":"田之浜小学校",
"Jusho":"愛媛県西予市明浜町田之浜甲1234",
"Capacity":"－",
"la":"33.31981300000",
"ln":"132.39018200000"
},
"geometry":{
"type":"Point",
"coordinates":[
132.390182,
33.319813
]
}
},
{
"type":"Feature",
"properties":{
"Name":"土居小学校",
"Jusho":"愛媛県西予市城川町土居86",
"Capacity":"－",
"la":"33.38166600000",
"ln":"132.76753800000"
},
"geometry":{
"type":"Point",
"coordinates":[
132.767538,
33.381666
]
}
},
{
"type":"Feature",
"properties":{
"Name":"二木生小学校",
"Jusho":"愛媛県西予市三瓶町二及2-466",
"Capacity":"－",
"la":"33.37722800000",
"ln":"132.40224000000"
},
"geometry":{
"type":"Point",
"coordinates":[
132.40224,
33.377228
]
}
},
{
"type":"Feature",
"properties":{
"Name":"俵津小学校",
"Jusho":"愛媛県西予市明浜町俵津8-316-1",
"Capacity":"－",
"la":"33.32459000000",
"ln":"132.48768400000"
},
"geometry":{
"type":"Point",
"coordinates":[
132.487684,
33.32459
]
}
},
{
"type":"Feature",
"properties":{
"Name":"明間小学校",
"Jusho":"愛媛県西予市宇和町明間1065-1",
"Capacity":"－",
"la":"33.34581400000",
"ln":"132.58269300000"
},
"geometry":{
"type":"Point",
"coordinates":[
132.582693,
33.345814
]
}
},
{
"type":"Feature",
"properties":{
"Name":"野村小学校",
"Jusho":"愛媛県西予市野村町野村11-43",
"Capacity":"－",
"la":"33.37280900000",
"ln":"132.64357600000"
},
"geometry":{
"type":"Point",
"coordinates":[
132.643576,
33.372809
]
}
},
{
"type":"Feature",
"properties":{
"Name":"遊子川小学校",
"Jusho":"愛媛県西予市城川町遊子谷3160",
"Capacity":"－",
"la":"33.43326600000",
"ln":"132.76699900000"
},
"geometry":{
"type":"Point",
"coordinates":[
132.766999,
33.433266
]
}
},
{
"type":"Feature",
"properties":{
"Name":"上林小学校",
"Jusho":"愛媛県東温市上林甲2565",
"Capacity":"－",
"la":"33.75590800000",
"ln":"132.88695200000"
},
"geometry":{
"type":"Point",
"coordinates":[
132.886952,
33.755908
]
}
},
{
"type":"Feature",
"properties":{
"Name":"西谷小学校",
"Jusho":"愛媛県東温市則之内乙835",
"Capacity":"－",
"la":"33.77135200000",
"ln":"132.91739300000"
},
"geometry":{
"type":"Point",
"coordinates":[
132.917393,
33.771352
]
}
},
{
"type":"Feature",
"properties":{
"Name":"川上小学校",
"Jusho":"愛媛県東温市北方甲2655",
"Capacity":"－",
"la":"33.80090300000",
"ln":"132.90411800000"
},
"geometry":{
"type":"Point",
"coordinates":[
132.904118,
33.800903
]
}
},
{
"type":"Feature",
"properties":{
"Name":"東谷小学校",
"Jusho":"愛媛県東温市則之内甲334",
"Capacity":"－",
"la":"33.79223800000",
"ln":"132.95372400000"
},
"geometry":{
"type":"Point",
"coordinates":[
132.953724,
33.792238
]
}
},
{
"type":"Feature",
"properties":{
"Name":"南吉井小学校",
"Jusho":"愛媛県東温市田窪1100",
"Capacity":"－",
"la":"33.79154200000",
"ln":"132.85290100000"
},
"geometry":{
"type":"Point",
"coordinates":[
132.852901,
33.791542
]
}
},
{
"type":"Feature",
"properties":{
"Name":"拝志小学校",
"Jusho":"愛媛県東温市下林甲1585",
"Capacity":"－",
"la":"33.77968300000",
"ln":"132.87101000000"
},
"geometry":{
"type":"Point",
"coordinates":[
132.87101,
33.779683
]
}
},
{
"type":"Feature",
"properties":{
"Name":"北吉井小学校",
"Jusho":"愛媛県東温市志津川131",
"Capacity":"－",
"la":"33.80590200000",
"ln":"132.88064800000"
},
"geometry":{
"type":"Point",
"coordinates":[
132.880648,
33.805902
]
}
},
{
"type":"Feature",
"properties":{
"Name":"岩城小学校",
"Jusho":"愛媛県越智郡上島町岩城2263-1",
"Capacity":"－",
"la":"34.24515800000",
"ln":"133.14043300000"
},
"geometry":{
"type":"Point",
"coordinates":[
133.140433,
34.245158
]
}
},
{
"type":"Feature",
"properties":{
"Name":"弓削小学校体育館",
"Jusho":"愛媛県越智郡上島町弓削引野1219番地",
"Capacity":"－",
"la":"34.26760679270",
"ln":"133.20031337500"
},
"geometry":{
"type":"Point",
"coordinates":[
133.200313375,
34.2676067927
]
}
},
{
"type":"Feature",
"properties":{
"Name":"旧佐島小学校体育館",
"Jusho":"愛媛県越智郡上島町弓削佐島583番地",
"Capacity":"－",
"la":"34.25180906310",
"ln":"133.18878208900"
},
"geometry":{
"type":"Point",
"coordinates":[
133.188782089,
34.2518090631
]
}
},
{
"type":"Feature",
"properties":{
"Name":"高井神小学校",
"Jusho":"愛媛県越智郡上島町魚島二番耕地151",
"Capacity":"－",
"la":"34.19203800000",
"ln":"133.27211700000"
},
"geometry":{
"type":"Point",
"coordinates":[
133.272117,
34.192038
]
}
},
{
"type":"Feature",
"properties":{
"Name":"生名小学校",
"Jusho":"愛媛県越智郡上島町生名965",
"Capacity":"－",
"la":"34.26898300000",
"ln":"133.18403400000"
},
"geometry":{
"type":"Point",
"coordinates":[
133.184034,
34.268983
]
}
},
{
"type":"Feature",
"properties":{
"Name":"久万小学校",
"Jusho":"愛媛県上浮穴郡久万高原町上野尻甲846",
"Capacity":"－",
"la":"33.65275500000",
"ln":"132.90461800000"
},
"geometry":{
"type":"Point",
"coordinates":[
132.904618,
33.652755
]
}
},
{
"type":"Feature",
"properties":{
"Name":"旧西谷小学校グランド",
"Jusho":"愛媛県上浮穴郡久万高原町",
"Capacity":"－",
"la":"33.51593254600",
"ln":"132.96102079400"
},
"geometry":{
"type":"Point",
"coordinates":[
132.961020794,
33.515932546
]
}
},
{
"type":"Feature",
"properties":{
"Name":"旧石墨小学校グランド",
"Jusho":"愛媛県上浮穴郡久万高原町",
"Capacity":"－",
"la":"33.70765751580",
"ln":"132.99906730000"
},
"geometry":{
"type":"Point",
"coordinates":[
132.9990673,
33.7076575158
]
}
},
{
"type":"Feature",
"properties":{
"Name":"旧二名小学校グランド",
"Jusho":"愛媛県上浮穴郡久万高原町",
"Capacity":"－",
"la":"33.64046368820",
"ln":"132.85184282900"
},
"geometry":{
"type":"Point",
"coordinates":[
132.851842829,
33.6404636882
]
}
},
{
"type":"Feature",
"properties":{
"Name":"仕七川小学校",
"Jusho":"愛媛県上浮穴郡久万高原町東川207-1",
"Capacity":"－",
"la":"33.63698200000",
"ln":"133.00413500000"
},
"geometry":{
"type":"Point",
"coordinates":[
133.004135,
33.636982
]
}
},
{
"type":"Feature",
"properties":{
"Name":"直瀬小学校グラウンド",
"Jusho":"愛媛県上浮穴郡久万高原町",
"Capacity":"－",
"la":"33.69960556460",
"ln":"132.96518205500"
},
"geometry":{
"type":"Point",
"coordinates":[
132.965182055,
33.6996055646
]
}
},
{
"type":"Feature",
"properties":{
"Name":"畑野川小学校",
"Jusho":"愛媛県上浮穴郡久万高原町上畑野川甲521",
"Capacity":"－",
"la":"33.68580800000",
"ln":"132.92522600000"
},
"geometry":{
"type":"Point",
"coordinates":[
132.925226,
33.685808
]
}
},
{
"type":"Feature",
"properties":{
"Name":"美川小学校",
"Jusho":"愛媛県上浮穴郡久万高原町大川4333",
"Capacity":"－",
"la":"33.61720400000",
"ln":"132.94008700000"
},
"geometry":{
"type":"Point",
"coordinates":[
132.940087,
33.617204
]
}
},
{
"type":"Feature",
"properties":{
"Name":"父二峰小学校",
"Jusho":"愛媛県上浮穴郡久万高原町露峰甲364",
"Capacity":"－",
"la":"33.61393300000",
"ln":"132.88578400000"
},
"geometry":{
"type":"Point",
"coordinates":[
132.885784,
33.613933
]
}
},
{
"type":"Feature",
"properties":{
"Name":"明神小学校",
"Jusho":"愛媛県上浮穴郡久万高原町東明神甲698-1",
"Capacity":"－",
"la":"33.68019600000",
"ln":"132.88531300000"
},
"geometry":{
"type":"Point",
"coordinates":[
132.885313,
33.680196
]
}
},
{
"type":"Feature",
"properties":{
"Name":"岡田小学校",
"Jusho":"愛媛県伊予郡松前町西高柳156",
"Capacity":"3056",
"la":"33.80450999910",
"ln":"132.72110700000"
},
"geometry":{
"type":"Point",
"coordinates":[
132.721107,
33.8045099991
]
}
},
{
"type":"Feature",
"properties":{
"Name":"松前小学校",
"Jusho":"愛媛県伊予郡松前町筒井1175",
"Capacity":"4486",
"la":"33.78231800000",
"ln":"132.70288700000"
},
"geometry":{
"type":"Point",
"coordinates":[
132.702887,
33.782318
]
}
},
{
"type":"Feature",
"properties":{
"Name":"北伊予小学校",
"Jusho":"愛媛県伊予郡松前町神崎226",
"Capacity":"3080",
"la":"33.78581799910",
"ln":"132.74521700000"
},
"geometry":{
"type":"Point",
"coordinates":[
132.745217,
33.7858179991
]
}
},
{
"type":"Feature",
"properties":{
"Name":"宮内小学校",
"Jusho":"愛媛県伊予郡砥部町宮内640",
"Capacity":"11266",
"la":"33.75340600000",
"ln":"132.78707200000"
},
"geometry":{
"type":"Point",
"coordinates":[
132.787072,
33.753406
]
}
},
{
"type":"Feature",
"properties":{
"Name":"玉谷小学校",
"Jusho":"愛媛県伊予郡砥部町玉谷670",
"Capacity":"3822",
"la":"33.66480600000",
"ln":"132.79490600000"
},
"geometry":{
"type":"Point",
"coordinates":[
132.794906,
33.664806
]
}
},
{
"type":"Feature",
"properties":{
"Name":"広田小学校",
"Jusho":"愛媛県伊予郡砥部町総津375",
"Capacity":"7236",
"la":"33.63233800000",
"ln":"132.79746200000"
},
"geometry":{
"type":"Point",
"coordinates":[
132.797462,
33.632338
]
}
},
{
"type":"Feature",
"properties":{
"Name":"高市小学校",
"Jusho":"愛媛県伊予郡砥部町高市1105",
"Capacity":"3784",
"la":"33.63108600000",
"ln":"132.76252100000"
},
"geometry":{
"type":"Point",
"coordinates":[
132.762521,
33.631086
]
}
},
{
"type":"Feature",
"properties":{
"Name":"砥部小学校",
"Jusho":"愛媛県伊予郡砥部町大南1039",
"Capacity":"18932",
"la":"33.73596400000",
"ln":"132.79059900000"
},
"geometry":{
"type":"Point",
"coordinates":[
132.790599,
33.735964
]
}
},
{
"type":"Feature",
"properties":{
"Name":"麻生小学校",
"Jusho":"愛媛県伊予郡砥部町高尾田760",
"Capacity":"21170",
"la":"33.77937500000",
"ln":"132.79176700000"
},
"geometry":{
"type":"Point",
"coordinates":[
132.791767,
33.779375
]
}
},
{
"type":"Feature",
"properties":{
"Name":"旧程内小学校",
"Jusho":"愛媛県喜多郡内子町大瀬北990番地",
"Capacity":"750",
"la":"33.61008900000",
"ln":"132.74316200000"
},
"geometry":{
"type":"Point",
"coordinates":[
132.743162,
33.610089
]
}
},
{
"type":"Feature",
"properties":{
"Name":"五十崎小学校",
"Jusho":"愛媛県喜多郡内子町五十崎甲1485",
"Capacity":"2500",
"la":"33.54080100000",
"ln":"132.65592600000"
},
"geometry":{
"type":"Point",
"coordinates":[
132.655926,
33.540801
]
}
},
{
"type":"Feature",
"properties":{
"Name":"御祓小学校",
"Jusho":"愛媛県喜多郡内子町只海甲456",
"Capacity":"1200",
"la":"33.52532000000",
"ln":"132.69969600000"
},
"geometry":{
"type":"Point",
"coordinates":[
132.699696,
33.52532
]
}
},
{
"type":"Feature",
"properties":{
"Name":"参川小学校グランド",
"Jusho":"愛媛県喜多郡内子町本川3984番地",
"Capacity":"1900",
"la":"33.57462299910",
"ln":"132.82829300000"
},
"geometry":{
"type":"Point",
"coordinates":[
132.828293,
33.5746229991
]
}
},
{
"type":"Feature",
"properties":{
"Name":"小田小学校グランド",
"Jusho":"愛媛県喜多郡内子町寺村557番地",
"Capacity":"1200",
"la":"33.56906699910",
"ln":"132.79515800000"
},
"geometry":{
"type":"Point",
"coordinates":[
132.795158,
33.5690669991
]
}
},
{
"type":"Feature",
"properties":{
"Name":"石畳小学校",
"Jusho":"愛媛県喜多郡内子町石畳4631",
"Capacity":"700",
"la":"33.62180700000",
"ln":"132.63622800000"
},
"geometry":{
"type":"Point",
"coordinates":[
132.636228,
33.621807
]
}
},
{
"type":"Feature",
"properties":{
"Name":"大瀬小学校",
"Jusho":"愛媛県喜多郡内子町大瀬中央4567",
"Capacity":"2100",
"la":"33.57430600000",
"ln":"132.71773500000"
},
"geometry":{
"type":"Point",
"coordinates":[
132.717735,
33.574306
]
}
},
{
"type":"Feature",
"properties":{
"Name":"天神小学校",
"Jusho":"愛媛県喜多郡内子町平岡甲455",
"Capacity":"1700",
"la":"33.53481800000",
"ln":"132.66403300000"
},
"geometry":{
"type":"Point",
"coordinates":[
132.664033,
33.534818
]
}
},
{
"type":"Feature",
"properties":{
"Name":"田渡小学校グランド",
"Jusho":"愛媛県喜多郡内子町上田渡294番地",
"Capacity":"1300",
"la":"33.61344999910",
"ln":"132.78826900000"
},
"geometry":{
"type":"Point",
"coordinates":[
132.788269,
33.6134499991
]
}
},
{
"type":"Feature",
"properties":{
"Name":"内子小学校",
"Jusho":"愛媛県喜多郡内子町内子3147",
"Capacity":"1800",
"la":"33.55376000000",
"ln":"132.64981200000"
},
"geometry":{
"type":"Point",
"coordinates":[
132.649812,
33.55376
]
}
},
{
"type":"Feature",
"properties":{
"Name":"立川小学校",
"Jusho":"愛媛県喜多郡内子町立山1272",
"Capacity":"1200",
"la":"33.59628300000",
"ln":"132.67458600000"
},
"geometry":{
"type":"Point",
"coordinates":[
132.674586,
33.596283
]
}
},
{
"type":"Feature",
"properties":{
"Name":"伊方小学校",
"Jusho":"愛媛県西宇和郡伊方町湊浦993-1",
"Capacity":"－",
"la":"33.48995400000",
"ln":"132.35461500000"
},
"geometry":{
"type":"Point",
"coordinates":[
132.354615,
33.489954
]
}
},
{
"type":"Feature",
"properties":{
"Name":"塩成小学校",
"Jusho":"愛媛県西宇和郡伊方町塩成278",
"Capacity":"－",
"la":"33.44403900000",
"ln":"132.25704500000"
},
"geometry":{
"type":"Point",
"coordinates":[
132.257045,
33.444039
]
}
},
{
"type":"Feature",
"properties":{
"Name":"旧生野小学校",
"Jusho":"愛媛県西宇和郡伊方町",
"Capacity":"－",
"la":"33.36113128670",
"ln":"132.04811484600"
},
"geometry":{
"type":"Point",
"coordinates":[
132.048114846,
33.3611312867
]
}
},
{
"type":"Feature",
"properties":{
"Name":"旧川之浜小学校",
"Jusho":"愛媛県西宇和郡伊方町",
"Capacity":"－",
"la":"33.42642952220",
"ln":"132.22897687300"
},
"geometry":{
"type":"Point",
"coordinates":[
132.228976873,
33.4264295222
]
}
},
{
"type":"Feature",
"properties":{
"Name":"九町小学校",
"Jusho":"愛媛県西宇和郡伊方町九町1-1712-1",
"Capacity":"－",
"la":"33.47495400000",
"ln":"132.30720300000"
},
"geometry":{
"type":"Point",
"coordinates":[
132.307203,
33.474954
]
}
},
{
"type":"Feature",
"properties":{
"Name":"三机小学校",
"Jusho":"愛媛県西宇和郡伊方町三机乙2515",
"Capacity":"－",
"la":"33.45367700000",
"ln":"132.24693400000"
},
"geometry":{
"type":"Point",
"coordinates":[
132.246934,
33.453677
]
}
},
{
"type":"Feature",
"properties":{
"Name":"三崎小学校",
"Jusho":"愛媛県西宇和郡伊方町三崎907",
"Capacity":"－",
"la":"33.38876500000",
"ln":"132.12330800000"
},
"geometry":{
"type":"Point",
"coordinates":[
132.123308,
33.388765
]
}
},
{
"type":"Feature",
"properties":{
"Name":"小島小学校グラウンド",
"Jusho":"愛媛県西宇和郡伊方町",
"Capacity":"－",
"la":"33.44620118030",
"ln":"132.19864305900"
},
"geometry":{
"type":"Point",
"coordinates":[
132.198643059,
33.4462011803
]
}
},
{
"type":"Feature",
"properties":{
"Name":"水ヶ浦小学校",
"Jusho":"愛媛県西宇和郡伊方町中之浜10-1",
"Capacity":"－",
"la":"33.47756600000",
"ln":"132.36803100000"
},
"geometry":{
"type":"Point",
"coordinates":[
132.368031,
33.477566
]
}
},
{
"type":"Feature",
"properties":{
"Name":"足成小学校グラウンド",
"Jusho":"愛媛県西宇和郡伊方町",
"Capacity":"－",
"la":"33.47020689210",
"ln":"132.26707685800"
},
"geometry":{
"type":"Point",
"coordinates":[
132.267076858,
33.4702068921
]
}
},
{
"type":"Feature",
"properties":{
"Name":"大久小学校",
"Jusho":"愛媛県西宇和郡伊方町大久1638",
"Capacity":"－",
"la":"33.41526300000",
"ln":"132.19821700000"
},
"geometry":{
"type":"Point",
"coordinates":[
132.198217,
33.415263
]
}
},
{
"type":"Feature",
"properties":{
"Name":"田部小学校グラウンド",
"Jusho":"愛媛県西宇和郡伊方町",
"Capacity":"－",
"la":"33.42804678860",
"ln":"132.17825909200"
},
"geometry":{
"type":"Point",
"coordinates":[
132.178259092,
33.4280467886
]
}
},
{
"type":"Feature",
"properties":{
"Name":"二見小学校",
"Jusho":"愛媛県西宇和郡伊方町二見甲1239",
"Capacity":"－",
"la":"33.46476000000",
"ln":"132.28767900000"
},
"geometry":{
"type":"Point",
"coordinates":[
132.287679,
33.46476
]
}
},
{
"type":"Feature",
"properties":{
"Name":"二名津小学校",
"Jusho":"愛媛県西宇和郡伊方町二名津365",
"Capacity":"－",
"la":"33.40201300000",
"ln":"132.14177800000"
},
"geometry":{
"type":"Point",
"coordinates":[
132.141778,
33.402013
]
}
},
{
"type":"Feature",
"properties":{
"Name":"豊之浦小学校",
"Jusho":"愛媛県西宇和郡伊方町豊之浦860",
"Capacity":"－",
"la":"33.46942700000",
"ln":"132.32036900000"
},
"geometry":{
"type":"Point",
"coordinates":[
132.320369,
33.469427
]
}
},
{
"type":"Feature",
"properties":{
"Name":"有寿来小学校跡地",
"Jusho":"愛媛県西宇和郡伊方町伊方越346番地",
"Capacity":"－",
"la":"33.50076400000",
"ln":"132.34059900000"
},
"geometry":{
"type":"Point",
"coordinates":[
132.340599,
33.500764
]
}
},
{
"type":"Feature",
"properties":{
"Name":"松野西小学校体育館",
"Jusho":"愛媛県北宇和郡松野町松丸165外",
"Capacity":"300",
"la":"33.22618899910",
"ln":"132.70600700000"
},
"geometry":{
"type":"Point",
"coordinates":[
132.706007,
33.2261889991
]
}
},
{
"type":"Feature",
"properties":{
"Name":"愛治小学校",
"Jusho":"愛媛県北宇和郡鬼北町清水351番地",
"Capacity":"574",
"la":"33.30220800000",
"ln":"132.68598000000"
},
"geometry":{
"type":"Point",
"coordinates":[
132.68598,
33.302208
]
}
},
{
"type":"Feature",
"properties":{
"Name":"近永小学校",
"Jusho":"愛媛県北宇和郡鬼北町奈良3774番地",
"Capacity":"952",
"la":"33.25076900000",
"ln":"132.67231500000"
},
"geometry":{
"type":"Point",
"coordinates":[
132.672315,
33.250769
]
}
},
{
"type":"Feature",
"properties":{
"Name":"好藤小学校",
"Jusho":"愛媛県北宇和郡鬼北町内深田805番地1",
"Capacity":"475",
"la":"33.26873800000",
"ln":"132.65901100000"
},
"geometry":{
"type":"Point",
"coordinates":[
132.659011,
33.268738
]
}
},
{
"type":"Feature",
"properties":{
"Name":"三島小学校",
"Jusho":"愛媛県北宇和郡鬼北町延川41番地",
"Capacity":"553",
"la":"33.30528500000",
"ln":"132.74439800000"
},
"geometry":{
"type":"Point",
"coordinates":[
132.744398,
33.305285
]
}
},
{
"type":"Feature",
"properties":{
"Name":"泉小学校",
"Jusho":"愛媛県北宇和郡鬼北町岩谷233番地6",
"Capacity":"563",
"la":"33.26332900000",
"ln":"132.71133400000"
},
"geometry":{
"type":"Point",
"coordinates":[
132.711334,
33.263329
]
}
},
{
"type":"Feature",
"properties":{
"Name":"旧魚神山小学校",
"Jusho":"愛媛県南宇和郡愛南町魚神山202番地",
"Capacity":"－",
"la":"33.04876763200",
"ln":"132.40703025900"
},
"geometry":{
"type":"Point",
"coordinates":[
132.407030259,
33.048767632
]
}
},
{
"type":"Feature",
"properties":{
"Name":"家串小学校",
"Jusho":"愛媛県南宇和郡愛南町家串1232番地",
"Capacity":"－",
"la":"33.04587000000",
"ln":"132.47100500000"
},
"geometry":{
"type":"Point",
"coordinates":[
132.471005,
33.04587
]
}
},
{
"type":"Feature",
"properties":{
"Name":"柏小学校",
"Jusho":"愛媛県南宇和郡愛南町柏617番地",
"Capacity":"－",
"la":"33.01934500000",
"ln":"132.50019800000"
},
"geometry":{
"type":"Point",
"coordinates":[
132.500198,
33.019345
]
}
},
{
"type":"Feature",
"properties":{
"Name":"菊川小学校",
"Jusho":"愛媛県南宇和郡愛南町御荘菊川1157番地",
"Capacity":"－",
"la":"32.99107700000",
"ln":"132.51762000000"
},
"geometry":{
"type":"Point",
"coordinates":[
132.51762,
32.991077
]
}
},
{
"type":"Feature",
"properties":{
"Name":"平城小学校",
"Jusho":"愛媛県南宇和郡愛南町御荘平城2332番地",
"Capacity":"－",
"la":"32.96417000000",
"ln":"132.56268300000"
},
"geometry":{
"type":"Point",
"coordinates":[
132.562683,
32.96417
]
}
},
{
"type":"Feature",
"properties":{
"Name":"長月小学校",
"Jusho":"愛媛県南宇和郡愛南町御荘長月853番地",
"Capacity":"－",
"la":"32.97823400000",
"ln":"132.58353000000"
},
"geometry":{
"type":"Point",
"coordinates":[
132.58353,
32.978234
]
}
},
{
"type":"Feature",
"properties":{
"Name":"中浦小学校",
"Jusho":"愛媛県南宇和郡愛南町中浦501番地",
"Capacity":"－",
"la":"32.96321199910",
"ln":"132.50247700000"
},
"geometry":{
"type":"Point",
"coordinates":[
132.502477,
32.9632119991
]
}
},
{
"type":"Feature",
"properties":{
"Name":"旧中浦小学校",
"Jusho":"愛媛県南宇和郡愛南町中浦1576番地",
"Capacity":"－",
"la":"32.96671100000",
"ln":"132.49500600000"
},
"geometry":{
"type":"Point",
"coordinates":[
132.495006,
32.966711
]
}
},
{
"type":"Feature",
"properties":{
"Name":"緑小学校",
"Jusho":"愛媛県南宇和郡愛南町緑乙3231番地",
"Capacity":"－",
"la":"32.97552000000",
"ln":"132.60313300000"
},
"geometry":{
"type":"Point",
"coordinates":[
132.603133,
32.97552
]
}
},
{
"type":"Feature",
"properties":{
"Name":"城辺小学校",
"Jusho":"愛媛県南宇和郡愛南町城辺甲2707番地",
"Capacity":"－",
"la":"32.96013600000",
"ln":"132.58470200000"
},
"geometry":{
"type":"Point",
"coordinates":[
132.584702,
32.960136
]
}
},
{
"type":"Feature",
"properties":{
"Name":"東海小学校",
"Jusho":"愛媛県南宇和郡愛南町岩水7番地1",
"Capacity":"－",
"la":"32.94668900000",
"ln":"132.60405000000"
},
"geometry":{
"type":"Point",
"coordinates":[
132.60405,
32.946689
]
}
},
{
"type":"Feature",
"properties":{
"Name":"久良小学校",
"Jusho":"愛媛県南宇和郡愛南町久良2035番地",
"Capacity":"－",
"la":"32.94396500000",
"ln":"132.54666800000"
},
"geometry":{
"type":"Point",
"coordinates":[
132.546668,
32.943965
]
}
},
{
"type":"Feature",
"properties":{
"Name":"一本松小学校",
"Jusho":"愛媛県南宇和郡愛南町一本松5121番地1",
"Capacity":"－",
"la":"32.96148400000",
"ln":"132.65046900000"
},
"geometry":{
"type":"Point",
"coordinates":[
132.650469,
32.961484
]
}
},
{
"type":"Feature",
"properties":{
"Name":"旧満倉小学校",
"Jusho":"愛媛県南宇和郡愛南町上大道683番地",
"Capacity":"－",
"la":"32.96799300000",
"ln":"132.61380200000"
},
"geometry":{
"type":"Point",
"coordinates":[
132.613802,
32.967993
]
}
},
{
"type":"Feature",
"properties":{
"Name":"船越小学校",
"Jusho":"愛媛県南宇和郡愛南町船越1268番地1",
"Capacity":"－",
"la":"32.94618600000",
"ln":"132.50297700000"
},
"geometry":{
"type":"Point",
"coordinates":[
132.502977,
32.946186
]
}
},
{
"type":"Feature",
"properties":{
"Name":"福浦小学校",
"Jusho":"愛媛県南宇和郡愛南町福浦470番地",
"Capacity":"－",
"la":"32.92068900000",
"ln":"132.49703400000"
},
"geometry":{
"type":"Point",
"coordinates":[
132.497034,
32.920689
]
}
},
{
"type":"Feature",
"properties":{
"Name":"旧西浦小学校",
"Jusho":"愛媛県南宇和郡愛南町内泊25番地1",
"Capacity":"－",
"la":"32.94201900000",
"ln":"132.48714600000"
},
"geometry":{
"type":"Point",
"coordinates":[
132.487146,
32.942019
]
}
},
{
"type":"Feature",
"properties":{
"Name":"旧赤水小学校",
"Jusho":"愛媛県南宇和郡愛南町赤水581番地",
"Capacity":"－",
"la":"32.95990700000",
"ln":"132.52430800000"
},
"geometry":{
"type":"Point",
"coordinates":[
132.524308,
32.959907
]
}
},
{
"type":"Feature",
"properties":{
"Name":"魚神山小学校上－県道",
"Jusho":"愛媛県南宇和郡愛南町魚神山179番地付近",
"Capacity":"－",
"la":"33.04912669310",
"ln":"132.40691501700"
},
"geometry":{
"type":"Point",
"coordinates":[
132.406915017,
33.0491266931
]
}
},
{
"type":"Feature",
"properties":{
"Name":"長月小学校体育館（長月公民館）",
"Jusho":"愛媛県南宇和郡愛南町御荘長月913番地1",
"Capacity":"－",
"la":"32.97858566200",
"ln":"132.58313253700"
},
"geometry":{
"type":"Point",
"coordinates":[
132.583132537,
32.978585662
]
}
},
{
"type":"Feature",
"properties":{
"Name":"愛媛大学教育学部附属中学校（体育館）",
"Jusho":"愛媛県松山市持田町1-5-22",
"Capacity":"14000",
"la":"33.84270100000",
"ln":"132.78265600000"
},
"geometry":{
"type":"Point",
"coordinates":[
132.782656,
33.842701
]
}
},
{
"type":"Feature",
"properties":{
"Name":"旭中学校",
"Jusho":"愛媛県松山市下伊台町1105-1",
"Capacity":"17900",
"la":"33.87344900000",
"ln":"132.80215500000"
},
"geometry":{
"type":"Point",
"coordinates":[
132.802155,
33.873449
]
}
},
{
"type":"Feature",
"properties":{
"Name":"垣生中学校",
"Jusho":"愛媛県松山市西垣生町418",
"Capacity":"22200",
"la":"33.80959300000",
"ln":"132.70599700000"
},
"geometry":{
"type":"Point",
"coordinates":[
132.705997,
33.809593
]
}
},
{
"type":"Feature",
"properties":{
"Name":"鴨川中学校",
"Jusho":"愛媛県松山市鴨川2-7-19",
"Capacity":"13400",
"la":"33.87314100000",
"ln":"132.75049300000"
},
"geometry":{
"type":"Point",
"coordinates":[
132.750493,
33.873141
]
}
},
{
"type":"Feature",
"properties":{
"Name":"久谷中学校",
"Jusho":"愛媛県松山市浄瑠璃町940",
"Capacity":"18800",
"la":"33.75904500000",
"ln":"132.81826500000"
},
"geometry":{
"type":"Point",
"coordinates":[
132.818265,
33.759045
]
}
},
{
"type":"Feature",
"properties":{
"Name":"久米中学校",
"Jusho":"愛媛県松山市来住町689",
"Capacity":"28600",
"la":"33.80254000000",
"ln":"132.80151600000"
},
"geometry":{
"type":"Point",
"coordinates":[
132.801516,
33.80254
]
}
},
{
"type":"Feature",
"properties":{
"Name":"興居島中学校",
"Jusho":"愛媛県松山市泊町甲425-3",
"Capacity":"5600",
"la":"33.89419200000",
"ln":"132.67061400000"
},
"geometry":{
"type":"Point",
"coordinates":[
132.670614,
33.894192
]
}
},
{
"type":"Feature",
"properties":{
"Name":"桑原中学校",
"Jusho":"愛媛県松山市畑寺町丙238-28",
"Capacity":"26800",
"la":"33.83675900000",
"ln":"132.80582000000"
},
"geometry":{
"type":"Point",
"coordinates":[
132.80582,
33.836759
]
}
},
{
"type":"Feature",
"properties":{
"Name":"高浜中学校",
"Jusho":"愛媛県松山市梅津寺町乙52",
"Capacity":"15300",
"la":"33.87511200000",
"ln":"132.71069200000"
},
"geometry":{
"type":"Point",
"coordinates":[
132.710692,
33.875112
]
}
},
{
"type":"Feature",
"properties":{
"Name":"三津浜中学校",
"Jusho":"愛媛県松山市若葉町8-48",
"Capacity":"14300",
"la":"33.85655900000",
"ln":"132.71838500000"
},
"geometry":{
"type":"Point",
"coordinates":[
132.718385,
33.856559
]
}
},
{
"type":"Feature",
"properties":{
"Name":"勝山中学校",
"Jusho":"愛媛県松山市清水町3-148-2",
"Capacity":"19500",
"la":"33.85192200000",
"ln":"132.76404700000"
},
"geometry":{
"type":"Point",
"coordinates":[
132.764047,
33.851922
]
}
},
{
"type":"Feature",
"properties":{
"Name":"小野中学校",
"Jusho":"愛媛県松山市平井町3690",
"Capacity":"22600",
"la":"33.80709500000",
"ln":"132.83690200000"
},
"geometry":{
"type":"Point",
"coordinates":[
132.836902,
33.807095
]
}
},
{
"type":"Feature",
"properties":{
"Name":"城西中学校",
"Jusho":"愛媛県松山市竹原3-19-35",
"Capacity":"30500",
"la":"33.83408500000",
"ln":"132.74761200000"
},
"geometry":{
"type":"Point",
"coordinates":[
132.747612,
33.834085
]
}
},
{
"type":"Feature",
"properties":{
"Name":"西中学校",
"Jusho":"愛媛県松山市高岡町409",
"Capacity":"23100",
"la":"33.82670200000",
"ln":"132.71738500000"
},
"geometry":{
"type":"Point",
"coordinates":[
132.717385,
33.826702
]
}
},
{
"type":"Feature",
"properties":{
"Name":"拓南中学校",
"Jusho":"愛媛県松山市枝松5-4-39",
"Capacity":"20900",
"la":"33.82920300000",
"ln":"132.78382300000"
},
"geometry":{
"type":"Point",
"coordinates":[
132.783823,
33.829203
]
}
},
{
"type":"Feature",
"properties":{
"Name":"中島中学校",
"Jusho":"愛媛県松山市長師817",
"Capacity":"15600",
"la":"33.96395800000",
"ln":"132.62545000000"
},
"geometry":{
"type":"Point",
"coordinates":[
132.62545,
33.963958
]
}
},
{
"type":"Feature",
"properties":{
"Name":"津田中学校",
"Jusho":"愛媛県松山市北斎院町1106",
"Capacity":"24400",
"la":"33.83650600000",
"ln":"132.72232900000"
},
"geometry":{
"type":"Point",
"coordinates":[
132.722329,
33.836506
]
}
},
{
"type":"Feature",
"properties":{
"Name":"椿中学校",
"Jusho":"愛媛県松山市市坪南1-1-20",
"Capacity":"20000",
"la":"33.80809400000",
"ln":"132.75446500000"
},
"geometry":{
"type":"Point",
"coordinates":[
132.754465,
33.808094
]
}
},
{
"type":"Feature",
"properties":{
"Name":"東中学校",
"Jusho":"愛媛県松山市文京町2-2",
"Capacity":"15500",
"la":"33.85020000000",
"ln":"132.77388000000"
},
"geometry":{
"type":"Point",
"coordinates":[
132.77388,
33.8502
]
}
},
{
"type":"Feature",
"properties":{
"Name":"湯山中学校",
"Jusho":"愛媛県松山市溝辺町甲508-1",
"Capacity":"17800",
"la":"33.85370100000",
"ln":"132.80704300000"
},
"geometry":{
"type":"Point",
"coordinates":[
132.807043,
33.853701
]
}
},
{
"type":"Feature",
"properties":{
"Name":"道後中学校",
"Jusho":"愛媛県松山市上市1-3-57",
"Capacity":"22500",
"la":"33.84561800000",
"ln":"132.78943400000"
},
"geometry":{
"type":"Point",
"coordinates":[
132.789434,
33.845618
]
}
},
{
"type":"Feature",
"properties":{
"Name":"内宮中学校",
"Jusho":"愛媛県松山市内宮町569-1",
"Capacity":"7200",
"la":"33.89322300000",
"ln":"132.75007600000"
},
"geometry":{
"type":"Point",
"coordinates":[
132.750076,
33.893223
]
}
},
{
"type":"Feature",
"properties":{
"Name":"南第二中学校",
"Jusho":"愛媛県松山市森松町943",
"Capacity":"25300",
"la":"33.79554000000",
"ln":"132.79329400000"
},
"geometry":{
"type":"Point",
"coordinates":[
132.793294,
33.79554
]
}
},
{
"type":"Feature",
"properties":{
"Name":"南中学校",
"Jusho":"愛媛県松山市東石井7-2-52",
"Capacity":"23700",
"la":"33.80735300000",
"ln":"132.77553900000"
},
"geometry":{
"type":"Point",
"coordinates":[
132.775539,
33.807353
]
}
},
{
"type":"Feature",
"properties":{
"Name":"日浦中学校",
"Jusho":"愛媛県松山市河中町188-1",
"Capacity":"7700",
"la":"33.90153000000",
"ln":"132.87117500000"
},
"geometry":{
"type":"Point",
"coordinates":[
132.871175,
33.90153
]
}
},
{
"type":"Feature",
"properties":{
"Name":"北条南中学校",
"Jusho":"愛媛県松山市河野別府12",
"Capacity":"45700",
"la":"33.94613900000",
"ln":"132.78066500000"
},
"geometry":{
"type":"Point",
"coordinates":[
132.780665,
33.946139
]
}
},
{
"type":"Feature",
"properties":{
"Name":"北条北中学校",
"Jusho":"愛媛県松山市北条辻365",
"Capacity":"50000",
"la":"33.97048500000",
"ln":"132.78198200000"
},
"geometry":{
"type":"Point",
"coordinates":[
132.781982,
33.970485
]
}
},
{
"type":"Feature",
"properties":{
"Name":"北中学校",
"Jusho":"愛媛県松山市太山寺町491-1",
"Capacity":"26700",
"la":"33.88311200000",
"ln":"132.73491100000"
},
"geometry":{
"type":"Point",
"coordinates":[
132.734911,
33.883112
]
}
},
{
"type":"Feature",
"properties":{
"Name":"雄新中学校",
"Jusho":"愛媛県松山市土居田町1",
"Capacity":"22800",
"la":"33.82470300000",
"ln":"132.75402000000"
},
"geometry":{
"type":"Point",
"coordinates":[
132.75402,
33.824703
]
}
},
{
"type":"Feature",
"properties":{
"Name":"余土中学校",
"Jusho":"愛媛県松山市余戸東4-1-9",
"Capacity":"72500",
"la":"33.81614800000",
"ln":"132.73632800000"
},
"geometry":{
"type":"Point",
"coordinates":[
132.736328,
33.816148
]
}
},
{
"type":"Feature",
"properties":{
"Name":"関前中学校",
"Jusho":"愛媛県今治市関前岡村甲415番地",
"Capacity":"1470",
"la":"34.18782700000",
"ln":"132.88313800000"
},
"geometry":{
"type":"Point",
"coordinates":[
132.883138,
34.187827
]
}
},
{
"type":"Feature",
"properties":{
"Name":"菊間中学校",
"Jusho":"愛媛県今治市菊間町浜2628番地1",
"Capacity":"640",
"la":"34.03202600000",
"ln":"132.85243100000"
},
"geometry":{
"type":"Point",
"coordinates":[
132.852431,
34.032026
]
}
},
{
"type":"Feature",
"properties":{
"Name":"吉海中学校",
"Jusho":"愛媛県今治市吉海町幸新田250番地",
"Capacity":"490",
"la":"34.14343600000",
"ln":"133.04044900000"
},
"geometry":{
"type":"Point",
"coordinates":[
133.040449,
34.143436
]
}
},
{
"type":"Feature",
"properties":{
"Name":"宮窪中学校",
"Jusho":"愛媛県今治市宮窪町宮窪2886番地",
"Capacity":"810",
"la":"34.17242600000",
"ln":"133.07501400000"
},
"geometry":{
"type":"Point",
"coordinates":[
133.075014,
34.172426
]
}
},
{
"type":"Feature",
"properties":{
"Name":"玉川中学校",
"Jusho":"愛媛県今治市玉川町高野甲21番地",
"Capacity":"690",
"la":"34.01853100000",
"ln":"132.94358600000"
},
"geometry":{
"type":"Point",
"coordinates":[
132.943586,
34.018531
]
}
},
{
"type":"Feature",
"properties":{
"Name":"近見中学校",
"Jusho":"愛媛県今治市近見町4丁目2番57号",
"Capacity":"2460",
"la":"34.08617900000",
"ln":"132.98158000000"
},
"geometry":{
"type":"Point",
"coordinates":[
132.98158,
34.086179
]
}
},
{
"type":"Feature",
"properties":{
"Name":"桜井中学校",
"Jusho":"愛媛県今治市郷桜井1丁目8番8号",
"Capacity":"2990",
"la":"34.01630219950",
"ln":"133.03364315700"
},
"geometry":{
"type":"Point",
"coordinates":[
133.033643157,
34.0163021995
]
}
},
{
"type":"Feature",
"properties":{
"Name":"上浦中学校",
"Jusho":"愛媛県今治市上浦町井口5610番地",
"Capacity":"860",
"la":"34.26459900000",
"ln":"133.03653800000"
},
"geometry":{
"type":"Point",
"coordinates":[
133.036538,
34.264599
]
}
},
{
"type":"Feature",
"properties":{
"Name":"西中学校",
"Jusho":"愛媛県今治市山路554番地3",
"Capacity":"3360",
"la":"34.05801400000",
"ln":"132.97644300000"
},
"geometry":{
"type":"Point",
"coordinates":[
132.976443,
34.058014
]
}
},
{
"type":"Feature",
"properties":{
"Name":"西伯方中学校",
"Jusho":"愛媛県今治市伯方町北浦甲2767番地",
"Capacity":"800",
"la":"34.22936200000",
"ln":"133.08941400000"
},
"geometry":{
"type":"Point",
"coordinates":[
133.089414,
34.229362
]
}
},
{
"type":"Feature",
"properties":{
"Name":"大三島中学校",
"Jusho":"愛媛県今治市大三島町宮浦5040番地1",
"Capacity":"1270",
"la":"34.24424600000",
"ln":"132.99845700000"
},
"geometry":{
"type":"Point",
"coordinates":[
132.998457,
34.244246
]
}
},
{
"type":"Feature",
"properties":{
"Name":"大西中学校",
"Jusho":"愛媛県今治市大西町九王甲2280番地の",
"Capacity":"820",
"la":"34.06574800000",
"ln":"132.92664400000"
},
"geometry":{
"type":"Point",
"coordinates":[
132.926644,
34.065748
]
}
},
{
"type":"Feature",
"properties":{
"Name":"朝倉中学校",
"Jusho":"愛媛県今治市朝倉北甲273番地",
"Capacity":"640",
"la":"33.99763500000",
"ln":"133.01716000000"
},
"geometry":{
"type":"Point",
"coordinates":[
133.01716,
33.997635
]
}
},
{
"type":"Feature",
"properties":{
"Name":"南中学校",
"Jusho":"愛媛県今治市松木349番地1",
"Capacity":"2990",
"la":"34.03076900000",
"ln":"133.00085600000"
},
"geometry":{
"type":"Point",
"coordinates":[
133.000856,
34.030769
]
}
},
{
"type":"Feature",
"properties":{
"Name":"日吉中学校",
"Jusho":"愛媛県今治市中日吉町1丁目3番70号",
"Capacity":"2980",
"la":"34.06134700000",
"ln":"132.99244200000"
},
"geometry":{
"type":"Point",
"coordinates":[
132.992442,
34.061347
]
}
},
{
"type":"Feature",
"properties":{
"Name":"伯方中学校",
"Jusho":"愛媛県今治市伯方町木浦甲1200番地",
"Capacity":"1100",
"la":"34.20579800000",
"ln":"133.11241000000"
},
"geometry":{
"type":"Point",
"coordinates":[
133.11241,
34.205798
]
}
},
{
"type":"Feature",
"properties":{
"Name":"美須賀中学校",
"Jusho":"愛媛県今治市黄金町3丁目3番地",
"Capacity":"2360",
"la":"34.06182000000",
"ln":"133.00446800000"
},
"geometry":{
"type":"Point",
"coordinates":[
133.004468,
34.06182
]
}
},
{
"type":"Feature",
"properties":{
"Name":"北郷中学校",
"Jusho":"愛媛県今治市中堀4丁目1番1号",
"Capacity":"4170",
"la":"34.10117800000",
"ln":"132.95852600000"
},
"geometry":{
"type":"Point",
"coordinates":[
132.958526,
34.101178
]
}
},
{
"type":"Feature",
"properties":{
"Name":"立花中学校",
"Jusho":"愛媛県今治市立花町2丁目8番7号",
"Capacity":"3230",
"la":"34.05021000000",
"ln":"132.99724600000"
},
"geometry":{
"type":"Point",
"coordinates":[
132.997246,
34.05021
]
}
},
{
"type":"Feature",
"properties":{
"Name":"宇和海中学校",
"Jusho":"愛媛県宇和島市下波2952番地1",
"Capacity":"13298",
"la":"33.17027100000",
"ln":"132.46500400000"
},
"geometry":{
"type":"Point",
"coordinates":[
132.465004,
33.170271
]
}
},
{
"type":"Feature",
"properties":{
"Name":"吉田中学校（校舎）",
"Jusho":"愛媛県宇和島市吉田町鶴間新200",
"Capacity":"－",
"la":"33.28700800000",
"ln":"132.53431200000"
},
"geometry":{
"type":"Point",
"coordinates":[
132.534312,
33.287008
]
}
},
{
"type":"Feature",
"properties":{
"Name":"吉田中学校前国道３７８号沿い高台",
"Jusho":"愛媛県宇和島市",
"Capacity":"－",
"la":"33.28686892410",
"ln":"132.53704531100"
},
"geometry":{
"type":"Point",
"coordinates":[
132.537045311,
33.2868689241
]
}
},
{
"type":"Feature",
"properties":{
"Name":"城東中学校",
"Jusho":"愛媛県宇和島市新田町3丁目3番1号",
"Capacity":"9030",
"la":"33.21215800000",
"ln":"132.55785400000"
},
"geometry":{
"type":"Point",
"coordinates":[
132.557854,
33.212158
]
}
},
{
"type":"Feature",
"properties":{
"Name":"城南中学校",
"Jusho":"愛媛県宇和島市文京町3番2号",
"Capacity":"14130",
"la":"33.21587900000",
"ln":"132.55904800000"
},
"geometry":{
"type":"Point",
"coordinates":[
132.559048,
33.215879
]
}
},
{
"type":"Feature",
"properties":{
"Name":"城北中学校",
"Jusho":"愛媛県宇和島市和霊町1344番地1",
"Capacity":"10310",
"la":"33.23029500000",
"ln":"132.56624200000"
},
"geometry":{
"type":"Point",
"coordinates":[
132.566242,
33.230295
]
}
},
{
"type":"Feature",
"properties":{
"Name":"町立三間中学校",
"Jusho":"愛媛県宇和島市三間町戸雁1046番地",
"Capacity":"－",
"la":"33.28978700000",
"ln":"132.60300600000"
},
"geometry":{
"type":"Point",
"coordinates":[
132.603006,
33.289787
]
}
},
{
"type":"Feature",
"properties":{
"Name":"津島中学校",
"Jusho":"愛媛県宇和島市津島町高田丙355",
"Capacity":"22490",
"la":"33.12049000000",
"ln":"132.51664100000"
},
"geometry":{
"type":"Point",
"coordinates":[
132.516641,
33.12049
]
}
},
{
"type":"Feature",
"properties":{
"Name":"愛宕中学校",
"Jusho":"愛媛県八幡浜市大門",
"Capacity":"2660",
"la":"33.46076400000",
"ln":"132.42830500000"
},
"geometry":{
"type":"Point",
"coordinates":[
132.428305,
33.460764
]
}
},
{
"type":"Feature",
"properties":{
"Name":"松柏中学校",
"Jusho":"愛媛県八幡浜市松柏734-1",
"Capacity":"1550",
"la":"33.46465300000",
"ln":"132.44580300000"
},
"geometry":{
"type":"Point",
"coordinates":[
132.445803,
33.464653
]
}
},
{
"type":"Feature",
"properties":{
"Name":"真穴中学校",
"Jusho":"愛媛県八幡浜市真網代戊162",
"Capacity":"1100",
"la":"33.40383372830",
"ln":"132.39146157000"
},
"geometry":{
"type":"Point",
"coordinates":[
132.39146157,
33.4038337283
]
}
},
{
"type":"Feature",
"properties":{
"Name":"青石中学校",
"Jusho":"愛媛県八幡浜市出奥",
"Capacity":"1900",
"la":"33.49203900000",
"ln":"132.41405500000"
},
"geometry":{
"type":"Point",
"coordinates":[
132.414055,
33.492039
]
}
},
{
"type":"Feature",
"properties":{
"Name":"双岩中学校",
"Jusho":"愛媛県八幡浜市若山1-330-1",
"Capacity":"1300",
"la":"33.42371300000",
"ln":"132.46066400000"
},
"geometry":{
"type":"Point",
"coordinates":[
132.460664,
33.423713
]
}
},
{
"type":"Feature",
"properties":{
"Name":"大島中学校",
"Jusho":"愛媛県八幡浜市大島3-298-5",
"Capacity":"800",
"la":"33.39402000000",
"ln":"132.34425700000"
},
"geometry":{
"type":"Point",
"coordinates":[
132.344257,
33.39402
]
}
},
{
"type":"Feature",
"properties":{
"Name":"八代中学校",
"Jusho":"愛媛県八幡浜市八代1-2-1",
"Capacity":"3260",
"la":"33.45026600000",
"ln":"132.43077700000"
},
"geometry":{
"type":"Point",
"coordinates":[
132.430777,
33.450266
]
}
},
{
"type":"Feature",
"properties":{
"Name":"保内中学校",
"Jusho":"愛媛県八幡浜市保内町川之石1-243-1",
"Capacity":"1659",
"la":"33.47943000000",
"ln":"132.39672000000"
},
"geometry":{
"type":"Point",
"coordinates":[
132.39672,
33.47943
]
}
},
{
"type":"Feature",
"properties":{
"Name":"角野中学校",
"Jusho":"愛媛県新居浜市宮原町11-51",
"Capacity":"24807",
"la":"33.92937100000",
"ln":"133.30227300000"
},
"geometry":{
"type":"Point",
"coordinates":[
133.302273,
33.929371
]
}
},
{
"type":"Feature",
"properties":{
"Name":"西中学校",
"Jusho":"愛媛県新居浜市江口町7-1",
"Capacity":"29846",
"la":"33.95670000000",
"ln":"133.27052700000"
},
"geometry":{
"type":"Point",
"coordinates":[
133.270527,
33.9567
]
}
},
{
"type":"Feature",
"properties":{
"Name":"川東中学校",
"Jusho":"愛媛県新居浜市神郷2-4-1",
"Capacity":"59788",
"la":"33.96445000000",
"ln":"133.31891100000"
},
"geometry":{
"type":"Point",
"coordinates":[
133.318911,
33.96445
]
}
},
{
"type":"Feature",
"properties":{
"Name":"泉川中学校",
"Jusho":"愛媛県新居浜市星原町7-8",
"Capacity":"31607",
"la":"33.93884200000",
"ln":"133.30285700000"
},
"geometry":{
"type":"Point",
"coordinates":[
133.302857,
33.938842
]
}
},
{
"type":"Feature",
"properties":{
"Name":"船木中学校",
"Jusho":"愛媛県新居浜市船木3754-1",
"Capacity":"23664",
"la":"33.93428700000",
"ln":"133.33015900000"
},
"geometry":{
"type":"Point",
"coordinates":[
133.330159,
33.934287
]
}
},
{
"type":"Feature",
"properties":{
"Name":"大生院中学校",
"Jusho":"愛媛県新居浜市大生院1070-2",
"Capacity":"22009",
"la":"33.91820400000",
"ln":"133.25480500000"
},
"geometry":{
"type":"Point",
"coordinates":[
133.254805,
33.918204
]
}
},
{
"type":"Feature",
"properties":{
"Name":"中萩中学校",
"Jusho":"愛媛県新居浜市中萩町13-31",
"Capacity":"36624",
"la":"33.92712100000",
"ln":"133.28333000000"
},
"geometry":{
"type":"Point",
"coordinates":[
133.28333,
33.927121
]
}
},
{
"type":"Feature",
"properties":{
"Name":"東中学校",
"Jusho":"愛媛県新居浜市東雲町1-4-23",
"Capacity":"27157",
"la":"33.96850500000",
"ln":"133.29466400000"
},
"geometry":{
"type":"Point",
"coordinates":[
133.294664,
33.968505
]
}
},
{
"type":"Feature",
"properties":{
"Name":"南中学校",
"Jusho":"愛媛県新居浜市庄内町2-4-47",
"Capacity":"28328",
"la":"33.95786700000",
"ln":"133.29755200000"
},
"geometry":{
"type":"Point",
"coordinates":[
133.297552,
33.957867
]
}
},
{
"type":"Feature",
"properties":{
"Name":"別子小・中学校",
"Jusho":"愛媛県新居浜市別子山甲358",
"Capacity":"8850",
"la":"33.86287100000",
"ln":"133.40990100000"
},
"geometry":{
"type":"Point",
"coordinates":[
133.409901,
33.862871
]
}
},
{
"type":"Feature",
"properties":{
"Name":"北中学校",
"Jusho":"愛媛県新居浜市宮西町5-81",
"Capacity":"34317",
"la":"33.96083900000",
"ln":"133.27597100000"
},
"geometry":{
"type":"Point",
"coordinates":[
133.275971,
33.960839
]
}
},
{
"type":"Feature",
"properties":{
"Name":"河北中学校",
"Jusho":"愛媛県西条市宮之内284",
"Capacity":"－",
"la":"33.95152800000",
"ln":"133.05435200000"
},
"geometry":{
"type":"Point",
"coordinates":[
133.054352,
33.951528
]
}
},
{
"type":"Feature",
"properties":{
"Name":"小松中学校",
"Jusho":"愛媛県西条市小松町南川甲208",
"Capacity":"－",
"la":"33.89376500000",
"ln":"133.09625800000"
},
"geometry":{
"type":"Point",
"coordinates":[
133.096258,
33.893765
]
}
},
{
"type":"Feature",
"properties":{
"Name":"西条西中学校",
"Jusho":"愛媛県西条市氷見乙558",
"Capacity":"－",
"la":"33.89759200000",
"ln":"133.13692600000"
},
"geometry":{
"type":"Point",
"coordinates":[
133.136926,
33.897592
]
}
},