var o={
"type":"FeatureCollection",
"features":[
{
"type":"Feature",
"properties":{
"Name":"（財）長崎県体育協会スポーツ合宿所",
"Jusho":"長崎県長崎市鳴滝2丁目16番7号",
"la":"32.75810104230",
"ln":"129.89364872400"
},
"geometry":{
"type":"Point",
"coordinates":[
129.893648724,
32.7581010423
]
}
},
{
"type":"Feature",
"properties":{
"Name":"かき道公民館",
"Jusho":"長崎県長崎市かき道1丁目8番2号",
"la":"32.76802004640",
"ln":"129.95570540600"
},
"geometry":{
"type":"Point",
"coordinates":[
129.955705406,
32.7680200464
]
}
},
{
"type":"Feature",
"properties":{
"Name":"さざなみ会館",
"Jusho":"長崎県長崎市琴海町形上町1849番4",
"la":"32.94858099910",
"ln":"129.78581800000"
},
"geometry":{
"type":"Point",
"coordinates":[
129.785818,
32.9485809991
]
}
},
{
"type":"Feature",
"properties":{
"Name":"さんとぴあ２１集会室",
"Jusho":"長崎県長崎市為石町2524番地",
"la":"32.63926100000",
"ln":"129.83784500000"
},
"geometry":{
"type":"Point",
"coordinates":[
129.837845,
32.639261
]
}
},
{
"type":"Feature",
"properties":{
"Name":"しまの宿五平太",
"Jusho":"長崎県長崎市高島町",
"la":"32.66055351570",
"ln":"129.75512138600"
},
"geometry":{
"type":"Point",
"coordinates":[
129.755121386,
32.6605535157
]
}
},
{
"type":"Feature",
"properties":{
"Name":"しらさぎ会館",
"Jusho":"長崎県長崎市西海町1560番地9",
"la":"32.85946000000",
"ln":"129.78496800000"
},
"geometry":{
"type":"Point",
"coordinates":[
129.784968,
32.85946
]
}
},
{
"type":"Feature",
"properties":{
"Name":"ダイヤランド・小ヶ倉ふれあいセンター",
"Jusho":"長崎県長崎市ダイヤランド4丁目1番1号",
"la":"32.70170300000",
"ln":"129.85872200000"
},
"geometry":{
"type":"Point",
"coordinates":[
129.858722,
32.701703
]
}
},
{
"type":"Feature",
"properties":{
"Name":"つつじが丘公民館",
"Jusho":"長崎県長崎市つつじが丘3丁目6番26号",
"la":"32.80788411050",
"ln":"129.95924189800"
},
"geometry":{
"type":"Point",
"coordinates":[
129.959241898,
32.8078841105
]
}
},
{
"type":"Feature",
"properties":{
"Name":"みのりが丘幼稚園",
"Jusho":"長崎県長崎市大手3丁目11番1号",
"la":"32.79280300000",
"ln":"129.87729000000"
},
"geometry":{
"type":"Point",
"coordinates":[
129.87729,
32.792803
]
}
},
{
"type":"Feature",
"properties":{
"Name":"以下宿広場",
"Jusho":"長崎県長崎市以下宿町",
"la":"32.61699526010",
"ln":"129.79462931700"
},
"geometry":{
"type":"Point",
"coordinates":[
129.794629317,
32.6169952601
]
}
},
{
"type":"Feature",
"properties":{
"Name":"磯道町公民館",
"Jusho":"長崎県長崎市磯道町80番地82",
"la":"32.70070699480",
"ln":"129.84977813000"
},
"geometry":{
"type":"Point",
"coordinates":[
129.84977813,
32.7007069948
]
}
},
{
"type":"Feature",
"properties":{
"Name":"稲佐地域コミュニティー消防センター",
"Jusho":"長崎県長崎市曙町5番7号",
"la":"32.75299000000",
"ln":"129.86183036200"
},
"geometry":{
"type":"Point",
"coordinates":[
129.861830362,
32.75299
]
}
},
{
"type":"Feature",
"properties":{
"Name":"塩町集会所",
"Jusho":"長崎県長崎市伊王島町2丁目800番地",
"la":"32.70024051550",
"ln":"129.77686977100"
},
"geometry":{
"type":"Point",
"coordinates":[
129.776869771,
32.7002405155
]
}
},
{
"type":"Feature",
"properties":{
"Name":"横尾地区ふれあいセンター",
"Jusho":"長崎県長崎市横尾2丁目15番10号",
"la":"32.81277800000",
"ln":"129.83352300000"
},
"geometry":{
"type":"Point",
"coordinates":[
129.833523,
32.812778
]
}
},
{
"type":"Feature",
"properties":{
"Name":"沖平公民館",
"Jusho":"長崎県長崎市多以良町1883番地2",
"la":"32.81603000000",
"ln":"129.77901100000"
},
"geometry":{
"type":"Point",
"coordinates":[
129.779011,
32.81603
]
}
},
{
"type":"Feature",
"properties":{
"Name":"蚊焼地区公民館",
"Jusho":"長崎県長崎市蚊焼町3020番地1",
"la":"32.65194000000",
"ln":"129.81720400000"
},
"geometry":{
"type":"Point",
"coordinates":[
129.817204,
32.65194
]
}
},
{
"type":"Feature",
"properties":{
"Name":"開発総合センター",
"Jusho":"長崎県長崎市伊王島町1丁目甲3272番地",
"la":"32.70453900000",
"ln":"129.77834968300"
},
"geometry":{
"type":"Point",
"coordinates":[
129.778349683,
32.704539
]
}
},
{
"type":"Feature",
"properties":{
"Name":"外海公民館",
"Jusho":"長崎県長崎市神浦江川町2番地",
"la":"32.88034500000",
"ln":"129.68136100000"
},
"geometry":{
"type":"Point",
"coordinates":[
129.681361,
32.880345
]
}
},
{
"type":"Feature",
"properties":{
"Name":"外海行政センター",
"Jusho":"長崎県長崎市神浦夏井町391番地",
"la":"32.88036976150",
"ln":"129.67968658800"
},
"geometry":{
"type":"Point",
"coordinates":[
129.679686588,
32.8803697615
]
}
},
{
"type":"Feature",
"properties":{
"Name":"外海行政センター黒崎事務所",
"Jusho":"長崎県長崎市下黒崎町1914番地",
"la":"32.83701500000",
"ln":"129.70866000000"
},
"geometry":{
"type":"Point",
"coordinates":[
129.70866,
32.837015
]
}
},
{
"type":"Feature",
"properties":{
"Name":"外海地区老人デイサービスセンター",
"Jusho":"長崎県長崎市西出津町3127番地",
"la":"32.84392300000",
"ln":"129.69808000000"
},
"geometry":{
"type":"Point",
"coordinates":[
129.69808,
32.843923
]
}
},
{
"type":"Feature",
"properties":{
"Name":"柿泊町立公民館",
"Jusho":"長崎県長崎市柿泊町772番地1",
"la":"32.77421796480",
"ln":"129.80165178200"
},
"geometry":{
"type":"Point",
"coordinates":[
129.801651782,
32.7742179648
]
}
},
{
"type":"Feature",
"properties":{
"Name":"学校法人海星高等学校",
"Jusho":"長崎県長崎市東山手町5番3号",
"la":"32.73647500000",
"ln":"129.87493100000"
},
"geometry":{
"type":"Point",
"coordinates":[
129.874931,
32.736475
]
}
},
{
"type":"Feature",
"properties":{
"Name":"学校法人鳴滝学園長崎女子高等学校",
"Jusho":"長崎県長崎市上小島1丁目11番8号",
"la":"32.73711500000",
"ln":"129.88359700000"
},
"geometry":{
"type":"Point",
"coordinates":[
129.883597,
32.737115
]
}
},
{
"type":"Feature",
"properties":{
"Name":"岳路自治公民館",
"Jusho":"長崎県長崎市蚊焼町4982番地3",
"la":"32.63946195610",
"ln":"129.80345851300"
},
"geometry":{
"type":"Point",
"coordinates":[
129.803458513,
32.6394619561
]
}
},
{
"type":"Feature",
"properties":{
"Name":"滑石４丁目西部自治会公民館",
"Jusho":"長崎県長崎市滑石4丁目24番5号",
"la":"32.80546070730",
"ln":"129.82580714700"
},
"geometry":{
"type":"Point",
"coordinates":[
129.825807147,
32.8054607073
]
}
},
{
"type":"Feature",
"properties":{
"Name":"滑石公民館",
"Jusho":"長崎県長崎市滑石2丁目1番47号",
"la":"32.80771500000",
"ln":"129.84585300000"
},
"geometry":{
"type":"Point",
"coordinates":[
129.845853,
32.807715
]
}
},
{
"type":"Feature",
"properties":{
"Name":"滑石地区ふれあいセンター",
"Jusho":"長崎県長崎市滑石5丁目5番77号",
"la":"32.80647900000",
"ln":"129.83400900000"
},
"geometry":{
"type":"Point",
"coordinates":[
129.834009,
32.806479
]
}
},
{
"type":"Feature",
"properties":{
"Name":"樺島保育所",
"Jusho":"長崎県長崎市野母崎樺島町459番地2",
"la":"32.56296100000",
"ln":"129.78644100000"
},
"geometry":{
"type":"Point",
"coordinates":[
129.786441,
32.562961
]
}
},
{
"type":"Feature",
"properties":{
"Name":"間ノ瀬公民館",
"Jusho":"長崎県長崎市平間町2295番地",
"la":"32.80514494350",
"ln":"129.93343252200"
},
"geometry":{
"type":"Point",
"coordinates":[
129.933432522,
32.8051449435
]
}
},
{
"type":"Feature",
"properties":{
"Name":"岩瀬道町公民館",
"Jusho":"長崎県長崎市岩瀬道町12番41号",
"la":"32.73885368910",
"ln":"129.85428217000"
},
"geometry":{
"type":"Point",
"coordinates":[
129.85428217,
32.7388536891
]
}
},
{
"type":"Feature",
"properties":{
"Name":"橘地区ふれあいセンター",
"Jusho":"長崎県長崎市かき道2丁目45番20号",
"la":"32.77120941850",
"ln":"129.95769400000"
},
"geometry":{
"type":"Point",
"coordinates":[
129.957694,
32.7712094185
]
}
},
{
"type":"Feature",
"properties":{
"Name":"宮摺公民館",
"Jusho":"長崎県長崎市宮摺町963番地",
"la":"32.68215098390",
"ln":"129.90318839100"
},
"geometry":{
"type":"Point",
"coordinates":[
129.903188391,
32.6821509839
]
}
},
{
"type":"Feature",
"properties":{
"Name":"旧扇山分校",
"Jusho":"長崎県長崎市神浦扇山町445番地1",
"la":"32.89331986200",
"ln":"129.72867272700"
},
"geometry":{
"type":"Point",
"coordinates":[
129.728672727,
32.893319862
]
}
},
{
"type":"Feature",
"properties":{
"Name":"京泊公民館",
"Jusho":"長崎県長崎市京泊町1543番地4",
"la":"32.82591789770",
"ln":"129.77119171000"
},
"geometry":{
"type":"Point",
"coordinates":[
129.77119171,
32.8259178977
]
}
},
{
"type":"Feature",
"properties":{
"Name":"教宗寺",
"Jusho":"長崎県長崎市矢上町469番地",
"la":"32.77847371080",
"ln":"129.95066748800"
},
"geometry":{
"type":"Point",
"coordinates":[
129.950667488,
32.7784737108
]
}
},
{
"type":"Feature",
"properties":{
"Name":"極楽寺",
"Jusho":"長崎県長崎市小ヶ倉町1丁目170番地",
"la":"32.71048198910",
"ln":"129.85146495600"
},
"geometry":{
"type":"Point",
"coordinates":[
129.851464956,
32.7104819891
]
}
},
{
"type":"Feature",
"properties":{
"Name":"玉台寺",
"Jusho":"長崎県長崎市茂木町1241番地",
"la":"32.70324999380",
"ln":"129.90890036700"
},
"geometry":{
"type":"Point",
"coordinates":[
129.908900367,
32.7032499938
]
}
},
{
"type":"Feature",
"properties":{
"Name":"玉木女子短期大学ますみ記念館２Ｆアリーナ",
"Jusho":"長崎県長崎市愛宕1丁目37番1号",
"la":"32.74122500000",
"ln":"129.88923600000"
},
"geometry":{
"type":"Point",
"coordinates":[
129.889236,
32.741225
]
}
},
{
"type":"Feature",
"properties":{
"Name":"琴海ニュータウン公民館",
"Jusho":"長崎県長崎市西海町1765番地162",
"la":"32.86894481510",
"ln":"129.79193489800"
},
"geometry":{
"type":"Point",
"coordinates":[
129.791934898,
32.8689448151
]
}
},
{
"type":"Feature",
"properties":{
"Name":"琴海活性化センター（四季彩館）",
"Jusho":"長崎県長崎市長浦町50番地5",
"la":"32.92794066970",
"ln":"129.78485965200"
},
"geometry":{
"type":"Point",
"coordinates":[
129.784859652,
32.9279406697
]
}
},
{
"type":"Feature",
"properties":{
"Name":"琴海北部研修センター",
"Jusho":"長崎県長崎市琴海大平町638番地12",
"la":"32.95462743670",
"ln":"129.80184149500"
},
"geometry":{
"type":"Point",
"coordinates":[
129.801841495,
32.9546274367
]
}
},
{
"type":"Feature",
"properties":{
"Name":"畦別当町立公民館",
"Jusho":"長崎県長崎市畦別当町300番地",
"la":"32.81201596980",
"ln":"129.92265942000"
},
"geometry":{
"type":"Point",
"coordinates":[
129.92265942,
32.8120159698
]
}
},
{
"type":"Feature",
"properties":{
"Name":"犬継公民館",
"Jusho":"長崎県長崎市三ツ山町782番地1",
"la":"32.80744822580",
"ln":"129.90261767900"
},
"geometry":{
"type":"Point",
"coordinates":[
129.902617679,
32.8074482258
]
}
},
{
"type":"Feature",
"properties":{
"Name":"県警機動隊",
"Jusho":"長崎県長崎市田中町385番地3",
"la":"32.76620003820",
"ln":"129.94768846400"
},
"geometry":{
"type":"Point",
"coordinates":[
129.947688464,
32.7662000382
]
}
},
{
"type":"Feature",
"properties":{
"Name":"県立長崎東高等学校",
"Jusho":"長崎県長崎市立山5丁目13番1号",
"la":"32.76027900000",
"ln":"129.87737500000"
},
"geometry":{
"type":"Point",
"coordinates":[
129.877375,
32.760279
]
}
},
{
"type":"Feature",
"properties":{
"Name":"古賀地区事務所",
"Jusho":"長崎県長崎市古賀町860番地",
"la":"32.79977655860",
"ln":"129.96141531100"
},
"geometry":{
"type":"Point",
"coordinates":[
129.961415311,
32.7997765586
]
}
},
{
"type":"Feature",
"properties":{
"Name":"戸石地区公民館",
"Jusho":"長崎県長崎市戸石町1740番地1",
"la":"32.76624800350",
"ln":"129.98013563800"
},
"geometry":{
"type":"Point",
"coordinates":[
129.980135638,
32.7662480035
]
}
},
{
"type":"Feature",
"properties":{
"Name":"戸町地区ふれあいセンター",
"Jusho":"長崎県長崎市戸町2丁目4番39号",
"la":"32.72221323890",
"ln":"129.86287176000"
},
"geometry":{
"type":"Point",
"coordinates":[
129.86287176,
32.7222132389
]
}
},
{
"type":"Feature",
"properties":{
"Name":"御船蔵町上自治会公民館",
"Jusho":"長崎県長崎市御船蔵町13番45号",
"la":"32.75740595240",
"ln":"129.87257347800"
},
"geometry":{
"type":"Point",
"coordinates":[
129.872573478,
32.7574059524
]
}
},
{
"type":"Feature",
"properties":{
"Name":"江川地区自治会公民館",
"Jusho":"長崎県長崎市末石町430番地",
"la":"32.68682050540",
"ln":"129.83680472500"
},
"geometry":{
"type":"Point",
"coordinates":[
129.836804725,
32.6868205054
]
}
},
{
"type":"Feature",
"properties":{
"Name":"江平公民館",
"Jusho":"長崎県長崎市江平1丁目8番4号",
"la":"32.77298652120",
"ln":"129.87166102900"
},
"geometry":{
"type":"Point",
"coordinates":[
129.871661029,
32.7729865212
]
}
},
{
"type":"Feature",
"properties":{
"Name":"香焼ひまわり",
"Jusho":"長崎県長崎市香焼町1070番地4",
"la":"32.68756099910",
"ln":"129.80947800000"
},
"geometry":{
"type":"Point",
"coordinates":[
129.809478,
32.6875609991
]
}
},
{
"type":"Feature",
"properties":{
"Name":"香焼公民館",
"Jusho":"長崎県長崎市香焼町501番地2",
"la":"32.68937600000",
"ln":"129.81380900000"
},
"geometry":{
"type":"Point",
"coordinates":[
129.813809,
32.689376
]
}
},
{
"type":"Feature",
"properties":{
"Name":"高浜海水浴場駐車場",
"Jusho":"長崎県長崎市高浜町",
"la":"32.60339649680",
"ln":"129.78318590900"
},
"geometry":{
"type":"Point",
"coordinates":[
129.783185909,
32.6033964968
]
}
},
{
"type":"Feature",
"properties":{
"Name":"高浜地区公民館",
"Jusho":"長崎県長崎市高浜町3203番地73",
"la":"32.60561500000",
"ln":"129.78524100000"
},
"geometry":{
"type":"Point",
"coordinates":[
129.785241,
32.605615
]
}
},
{
"type":"Feature",
"properties":{
"Name":"黒崎公民館前広場",
"Jusho":"長崎県長崎市下黒崎町",
"la":"32.83859988930",
"ln":"129.71488906800"
},
"geometry":{
"type":"Point",
"coordinates":[
129.714889068,
32.8385998893
]
}
},
{
"type":"Feature",
"properties":{
"Name":"黒崎地区公民館",
"Jusho":"長崎県長崎市下黒崎町5169番地",
"la":"32.83885700000",
"ln":"129.71481400000"
},
"geometry":{
"type":"Point",
"coordinates":[
129.714814,
32.838857
]
}
},
{
"type":"Feature",
"properties":{
"Name":"黒浜広場",
"Jusho":"長崎県長崎市黒浜町",
"la":"32.63080290950",
"ln":"129.79632888400"
},
"geometry":{
"type":"Point",
"coordinates":[
129.796328884,
32.6308029095
]
}
},
{
"type":"Feature",
"properties":{
"Name":"坂下公民館",
"Jusho":"長崎県長崎市芒塚町263番地1",
"la":"32.75420979940",
"ln":"129.92969647800"
},
"geometry":{
"type":"Point",
"coordinates":[
129.929696478,
32.7542097994
]
}
},
{
"type":"Feature",
"properties":{
"Name":"桜馬場地区ふれあいセンター",
"Jusho":"長崎県長崎市桜馬場1丁目1番5号",
"la":"32.75205000000",
"ln":"129.88757500000"
},
"geometry":{
"type":"Point",
"coordinates":[
129.887575,
32.75205
]
}
},
{
"type":"Feature",
"properties":{
"Name":"三原町自治会公民館",
"Jusho":"長崎県長崎市三原1丁目42番45号",
"la":"32.78107196130",
"ln":"129.88402223200"
},
"geometry":{
"type":"Point",
"coordinates":[
129.884022232,
32.7810719613
]
}
},
{
"type":"Feature",
"properties":{
"Name":"三重支所",
"Jusho":"長崎県長崎市三重町1098番地1",
"la":"32.82513757800",
"ln":"129.74764155000"
},
"geometry":{
"type":"Point",
"coordinates":[
129.74764155,
32.825137578
]
}
},
{
"type":"Feature",
"properties":{
"Name":"三重地区公民館",
"Jusho":"長崎県長崎市三重町1142番地1",
"la":"32.82579908180",
"ln":"129.74690150700"
},
"geometry":{
"type":"Point",
"coordinates":[
129.746901507,
32.8257990818
]
}
},
{
"type":"Feature",
"properties":{
"Name":"三重地区市民センター",
"Jusho":"長崎県長崎市畝刈町28番地7",
"la":"32.82799000000",
"ln":"129.78341600000"
},
"geometry":{
"type":"Point",
"coordinates":[
129.783416,
32.82799
]
}
},
{
"type":"Feature",
"properties":{
"Name":"三重田公民館",
"Jusho":"長崎県長崎市三重田町1218番地",
"la":"32.82413600000",
"ln":"129.73397700000"
},
"geometry":{
"type":"Point",
"coordinates":[
129.733977,
32.824136
]
}
},
{
"type":"Feature",
"properties":{
"Name":"三川地区ふれあいセンター",
"Jusho":"長崎県長崎市三川町1221番地70",
"la":"32.78805700000",
"ln":"129.88433500000"
},
"geometry":{
"type":"Point",
"coordinates":[
129.884335,
32.788057
]
}
},
{
"type":"Feature",
"properties":{
"Name":"三川町公民館",
"Jusho":"長崎県長崎市三川町674番地1",
"la":"32.78644954840",
"ln":"129.89327363700"
},
"geometry":{
"type":"Point",
"coordinates":[
129.893273637,
32.7864495484
]
}
},
{
"type":"Feature",
"properties":{
"Name":"三和行政センター",
"Jusho":"長崎県長崎市布巻町111番地1",
"la":"32.65153200000",
"ln":"129.82825900000"
},
"geometry":{
"type":"Point",
"coordinates":[
129.828259,
32.651532
]
}
},
{
"type":"Feature",
"properties":{
"Name":"山里地区ふれあいセンター",
"Jusho":"長崎県長崎市高尾町4番10号",
"la":"32.77924900000",
"ln":"129.86990600000"
},
"geometry":{
"type":"Point",
"coordinates":[
129.869906,
32.779249
]
}
},
{
"type":"Feature",
"properties":{
"Name":"式見地区公民館",
"Jusho":"長崎県長崎市式見町357番地",
"la":"32.78692500000",
"ln":"129.79199200000"
},
"geometry":{
"type":"Point",
"coordinates":[
129.791992,
32.786925
]
}
},
{
"type":"Feature",
"properties":{
"Name":"社会福祉センター",
"Jusho":"長崎県長崎市長浦町3777番地10",
"la":"32.90606100000",
"ln":"129.78427700000"
},
"geometry":{
"type":"Point",
"coordinates":[
129.784277,
32.906061
]
}
},
{
"type":"Feature",
"properties":{
"Name":"手熊地区公民館",
"Jusho":"長崎県長崎市手熊町1291番地1",
"la":"32.77873100000",
"ln":"129.80307400000"
},
"geometry":{
"type":"Point",
"coordinates":[
129.803074,
32.778731
]
}
},
{
"type":"Feature",
"properties":{
"Name":"手熊町公民館",
"Jusho":"長崎県長崎市手熊町360番地",
"la":"32.77837916640",
"ln":"129.80158111300"
},
"geometry":{
"type":"Point",
"coordinates":[
129.801581113,
32.7783791664
]
}
},
{
"type":"Feature",
"properties":{
"Name":"出津ゲートボール場",
"Jusho":"長崎県長崎市西出津町",
"la":"32.84309120220",
"ln":"129.70227189900"
},
"geometry":{
"type":"Point",
"coordinates":[
129.702271899,
32.8430912022
]
}
},
{
"type":"Feature",
"properties":{
"Name":"出津地区公民館",
"Jusho":"長崎県長崎市西出津町133番地",
"la":"32.84894200000",
"ln":"129.70532900000"
},
"geometry":{
"type":"Point",
"coordinates":[
129.705329,
32.848942
]
}
},
{
"type":"Feature",
"properties":{
"Name":"春日町公民館",
"Jusho":"長崎県長崎市春日町343番地",
"la":"32.74153045310",
"ln":"129.95007214500"
},
"geometry":{
"type":"Point",
"coordinates":[
129.950072145,
32.7415304531
]
}
},
{
"type":"Feature",
"properties":{
"Name":"小ヶ倉地区公民館",
"Jusho":"長崎県長崎市小ヶ倉町2丁目21番2号",
"la":"32.70561400000",
"ln":"129.84956100000"
},
"geometry":{
"type":"Point",
"coordinates":[
129.849561,
32.705614
]
}
},
{
"type":"Feature",
"properties":{
"Name":"小江原地区ふれあいセンター",
"Jusho":"長崎県長崎市小江原3丁目20番10号",
"la":"32.77881200000",
"ln":"129.83148800000"
},
"geometry":{
"type":"Point",
"coordinates":[
129.831488,
32.778812
]
}
},
{
"type":"Feature",
"properties":{
"Name":"小江小浦公民館",
"Jusho":"長崎県長崎市小江町108番地1",
"la":"32.76385141490",
"ln":"129.80722817400"
},
"geometry":{
"type":"Point",
"coordinates":[
129.807228174,
32.7638514149
]
}
},
{
"type":"Feature",
"properties":{
"Name":"小江町公民館",
"Jusho":"長崎県長崎市小江町2443番地",
"la":"32.75987586620",
"ln":"129.81624489800"
},
"geometry":{
"type":"Point",
"coordinates":[
129.816244898,
32.7598758662
]
}
},
{
"type":"Feature",
"properties":{
"Name":"小榊会館",
"Jusho":"長崎県長崎市小瀬戸町1015番地7",
"la":"32.72704030880",
"ln":"129.83849920100"
},
"geometry":{
"type":"Point",
"coordinates":[
129.838499201,
32.7270403088
]
}
},
{
"type":"Feature",
"properties":{
"Name":"小菅町公民館",
"Jusho":"長崎県長崎市小菅町5番27号",
"la":"32.72677198490",
"ln":"129.86213984000"
},
"geometry":{
"type":"Point",
"coordinates":[
129.86213984,
32.7267719849
]
}
},
{
"type":"Feature",
"properties":{
"Name":"小島地区ふれあいセンター",
"Jusho":"長崎県長崎市愛宕3丁目10番2号",
"la":"32.73452100000",
"ln":"129.89069500000"
},
"geometry":{
"type":"Point",
"coordinates":[
129.890695,
32.734521
]
}
},
{
"type":"Feature",
"properties":{
"Name":"消防団第２６分団３部",
"Jusho":"長崎県長崎市園田町458番地",
"la":"32.80101200000",
"ln":"129.80999500000"
},
"geometry":{
"type":"Point",
"coordinates":[
129.809995,
32.801012
]
}
},
{
"type":"Feature",
"properties":{
"Name":"上戸石町自治会集会所",
"Jusho":"長崎県長崎市上戸石町1592番地",
"la":"32.77417070300",
"ln":"129.97592254500"
},
"geometry":{
"type":"Point",
"coordinates":[
129.975922545,
32.774170703
]
}
},
{
"type":"Feature",
"properties":{
"Name":"上黒崎公民館前広場",
"Jusho":"長崎県長崎市上黒崎町680番地1",
"la":"32.84249950490",
"ln":"129.71813553900"
},
"geometry":{
"type":"Point",
"coordinates":[
129.718135539,
32.8424995049
]
}
},
{
"type":"Feature",
"properties":{
"Name":"上川自治公民館",
"Jusho":"長崎県長崎市川原町464番地3",
"la":"32.63673395840",
"ln":"129.83093579900"
},
"geometry":{
"type":"Point",
"coordinates":[
129.830935799,
32.6367339584
]
}
},
{
"type":"Feature",
"properties":{
"Name":"上大野公民館前広場",
"Jusho":"長崎県長崎市上大野町",
"la":"32.86809291750",
"ln":"129.68390458000"
},
"geometry":{
"type":"Point",
"coordinates":[
129.68390458,
32.8680929175
]
}
},
{
"type":"Feature",
"properties":{
"Name":"城山台集会所",
"Jusho":"長崎県長崎市城山台1丁目34番6号",
"la":"32.77184092430",
"ln":"129.84031918800"
},
"geometry":{
"type":"Point",
"coordinates":[
129.840319188,
32.7718409243
]
}
},
{
"type":"Feature",
"properties":{
"Name":"新戸町公民館",
"Jusho":"長崎県長崎市新戸町2丁目7番30号",
"la":"32.71258593200",
"ln":"129.86528695600"
},
"geometry":{
"type":"Point",
"coordinates":[
129.865286956,
32.712585932
]
}
},
{
"type":"Feature",
"properties":{
"Name":"深堀地区公民館",
"Jusho":"長崎県長崎市深堀町5丁目182番地",
"la":"32.68537900000",
"ln":"129.82401600000"
},
"geometry":{
"type":"Point",
"coordinates":[
129.824016,
32.685379
]
}
},
{
"type":"Feature",
"properties":{
"Name":"神ノ島３丁目公民館",
"Jusho":"長崎県長崎市神ノ島町3丁目24番44号",
"la":"32.72022156000",
"ln":"129.82201166000"
},
"geometry":{
"type":"Point",
"coordinates":[
129.82201166,
32.72022156
]
}
},
{
"type":"Feature",
"properties":{
"Name":"神ノ島愛児園",
"Jusho":"長崎県長崎市神ノ島町2丁目131番地",
"la":"32.71789300000",
"ln":"129.82668500000"
},
"geometry":{
"type":"Point",
"coordinates":[
129.826685,
32.717893
]
}
},
{
"type":"Feature",
"properties":{
"Name":"神ノ島公民館",
"Jusho":"長崎県長崎市神ノ島町1丁目351番地",
"la":"32.72068557570",
"ln":"129.82931537700"
},
"geometry":{
"type":"Point",
"coordinates":[
129.829315377,
32.7206855757
]
}
},
{
"type":"Feature",
"properties":{
"Name":"仁田・佐古地区ふれあいセンター",
"Jusho":"長崎県長崎市稲田町12番14号",
"la":"32.73745100000",
"ln":"129.87853700000"
},
"geometry":{
"type":"Point",
"coordinates":[
129.878537,
32.737451
]
}
},
{
"type":"Feature",
"properties":{
"Name":"仁田木場集会所",
"Jusho":"長崎県長崎市西山4丁目702番1号",
"la":"32.77732048570",
"ln":"129.89548756500"
},
"geometry":{
"type":"Point",
"coordinates":[
129.895487565,
32.7773204857
]
}
},
{
"type":"Feature",
"properties":{
"Name":"星取町公民館",
"Jusho":"長崎県長崎市星取1丁目9番4号",
"la":"32.72209149650",
"ln":"129.88016346300"
},
"geometry":{
"type":"Point",
"coordinates":[
129.880163463,
32.7220914965
]
}
},
{
"type":"Feature",
"properties":{
"Name":"晴海台地区公民館",
"Jusho":"長崎県長崎市晴海台町41番地2",
"la":"32.65953400000",
"ln":"129.82109000000"
},
"geometry":{
"type":"Point",
"coordinates":[
129.82109,
32.659534
]
}
},
{
"type":"Feature",
"properties":{
"Name":"正念公民館",
"Jusho":"長崎県長崎市古賀町1689番地",
"la":"32.81177760350",
"ln":"129.95672554800"
},
"geometry":{
"type":"Point",
"coordinates":[
129.956725548,
32.8117776035
]
}
},
{
"type":"Feature",
"properties":{
"Name":"聖母の騎士教会",
"Jusho":"長崎県長崎市本河内2丁目2番1号",
"la":"32.75091394780",
"ln":"129.89910005000"
},
"geometry":{
"type":"Point",
"coordinates":[
129.89910005,
32.7509139478
]
}
},
{
"type":"Feature",
"properties":{
"Name":"西海コミュニティセンター",
"Jusho":"長崎県長崎市西海町1506番地2",
"la":"32.85734582820",
"ln":"129.78594313000"
},
"geometry":{
"type":"Point",
"coordinates":[
129.78594313,
32.8573458282
]
}
},
{
"type":"Feature",
"properties":{
"Name":"西樫山公民館",
"Jusho":"長崎県長崎市樫山町1856番地",
"la":"32.81496998770",
"ln":"129.73632172400"
},
"geometry":{
"type":"Point",
"coordinates":[
129.736321724,
32.8149699877
]
}
},
{
"type":"Feature",
"properties":{
"Name":"西公民館",
"Jusho":"長崎県長崎市丸尾町5番5号",
"la":"32.74877100000",
"ln":"129.86144600000"
},
"geometry":{
"type":"Point",
"coordinates":[
129.861446,
32.748771
]
}
},
{
"type":"Feature",
"properties":{
"Name":"西山３丁目公民館",
"Jusho":"長崎県長崎市西山3丁目9番18号",
"la":"32.76713347360",
"ln":"129.89047118900"
},
"geometry":{
"type":"Point",
"coordinates":[
129.890471189,
32.7671334736
]
}
},
{
"type":"Feature",
"properties":{
"Name":"西城山校区西部自治会公民館",
"Jusho":"長崎県長崎市花園町4番3号",
"la":"32.77268883540",
"ln":"129.85234388400"
},
"geometry":{
"type":"Point",
"coordinates":[
129.852343884,
32.7726888354
]
}
},
{
"type":"Feature",
"properties":{
"Name":"西町校区集会所",
"Jusho":"長崎県長崎市白鳥町8番1号",
"la":"32.78743223240",
"ln":"129.85335544000"
},
"geometry":{
"type":"Point",
"coordinates":[
129.85335544,
32.7874322324
]
}
},
{
"type":"Feature",
"properties":{
"Name":"西泊町公民館",
"Jusho":"長崎県長崎市西泊町8番24号",
"la":"32.73189850390",
"ln":"129.84916726100"
},
"geometry":{
"type":"Point",
"coordinates":[
129.849167261,
32.7318985039
]
}
},
{
"type":"Feature",
"properties":{
"Name":"西北・岩屋ふれあいセンター",
"Jusho":"長崎県長崎市西北町13番13号",
"la":"32.79783800000",
"ln":"129.85208900000"
},
"geometry":{
"type":"Point",
"coordinates":[
129.852089,
32.797838
]
}
},
{
"type":"Feature",
"properties":{
"Name":"千々公民館",
"Jusho":"長崎県長崎市千々町754番地",
"la":"32.65395465810",
"ln":"129.87772475100"
},
"geometry":{
"type":"Point",
"coordinates":[
129.877724751,
32.6539546581
]
}
},
{
"type":"Feature",
"properties":{
"Name":"川原保育園グランド",
"Jusho":"長崎県長崎市川原町",
"la":"32.63292700090",
"ln":"129.83038100000"
},
"geometry":{
"type":"Point",
"coordinates":[
129.830381,
32.6329270009
]
}
},
{
"type":"Feature",
"properties":{
"Name":"川原老人憩いの家",
"Jusho":"長崎県長崎市川原町2374番地1",
"la":"32.63246652210",
"ln":"129.83418592700"
},
"geometry":{
"type":"Point",
"coordinates":[
129.834185927,
32.6324665221
]
}
},
{
"type":"Feature",
"properties":{
"Name":"船石公民館",
"Jusho":"長崎県長崎市船石町761番地",
"la":"32.79858656080",
"ln":"129.97271855100"
},
"geometry":{
"type":"Point",
"coordinates":[
129.972718551,
32.7985865608
]
}
},
{
"type":"Feature",
"properties":{
"Name":"総合地域施設",
"Jusho":"長崎県長崎市宮崎町139番地1",
"la":"32.62793311120",
"ln":"129.83337881200"
},
"geometry":{
"type":"Point",
"coordinates":[
129.833378812,
32.6279331112
]
}
},
{
"type":"Feature",
"properties":{
"Name":"村松事務所（琴海南部総合センター）",
"Jusho":"長崎県長崎市琴海村松町703番地14",
"la":"32.86475266670",
"ln":"129.78741479500"
},
"geometry":{
"type":"Point",
"coordinates":[
129.787414795,
32.8647526667
]
}
},
{
"type":"Feature",
"properties":{
"Name":"多以良町公民館",
"Jusho":"長崎県長崎市多以良町389番地",
"la":"32.82416053700",
"ln":"129.78946124400"
},
"geometry":{
"type":"Point",
"coordinates":[
129.789461244,
32.824160537
]
}
},
{
"type":"Feature",
"properties":{
"Name":"大浦地区公民館",
"Jusho":"長崎県長崎市下町1番13号",
"la":"32.73488950770",
"ln":"129.87314724600"
},
"geometry":{
"type":"Point",
"coordinates":[
129.873147246,
32.7348895077
]
}
},
{
"type":"Feature",
"properties":{
"Name":"大橋地域コミュニュティー消防センター",
"Jusho":"長崎県長崎市大橋町16番1号",
"la":"32.78304700000",
"ln":"129.86287300000"
},
"geometry":{
"type":"Point",
"coordinates":[
129.862873,
32.783047
]
}
},
{
"type":"Feature",
"properties":{
"Name":"大崎びわ集出荷所",
"Jusho":"長崎県長崎市大崎町733番地1",
"la":"32.66644593230",
"ln":"129.89347308500"
},
"geometry":{
"type":"Point",
"coordinates":[
129.893473085,
32.6664459323
]
}
},
{
"type":"Feature",
"properties":{
"Name":"大山公民館",
"Jusho":"長崎県長崎市大山町566番地1",
"la":"32.69820524670",
"ln":"129.87256644900"
},
"geometry":{
"type":"Point",
"coordinates":[
129.872566449,
32.6982052467
]
}
},
{
"type":"Feature",
"properties":{
"Name":"大中尾２公民館グラウンド",
"Jusho":"長崎県長崎市神浦上大中尾町",
"la":"32.88839947900",
"ln":"129.70949616300"
},
"geometry":{
"type":"Point",
"coordinates":[
129.709496163,
32.888399479
]
}
},
{
"type":"Feature",
"properties":{
"Name":"大浜町公民館",
"Jusho":"長崎県長崎市大浜町316番地9",
"la":"32.74465494810",
"ln":"129.83180716000"
},
"geometry":{
"type":"Point",
"coordinates":[
129.83180716,
32.7446549481
]
}
},
{
"type":"Feature",
"properties":{
"Name":"池島鉱業所グラウンド",
"Jusho":"長崎県長崎市池島町",
"la":"32.88342920430",
"ln":"129.59610270200"
},
"geometry":{
"type":"Point",
"coordinates":[
129.596102702,
32.8834292043
]
}
},
{
"type":"Feature",
"properties":{
"Name":"池島荘",
"Jusho":"長崎県長崎市池島町21番地2",
"la":"32.88597499910",
"ln":"129.59739800000"
},
"geometry":{
"type":"Point",
"coordinates":[
129.597398,
32.8859749991
]
}
},
{
"type":"Feature",
"properties":{
"Name":"池島中央会館",
"Jusho":"長崎県長崎市池島町1009番地1",
"la":"32.88410400000",
"ln":"129.59851600000"
},
"geometry":{
"type":"Point",
"coordinates":[
129.598516,
32.884104
]
}
},
{
"type":"Feature",
"properties":{
"Name":"中央公民館",
"Jusho":"長崎県長崎市魚の町5番1号",
"la":"32.74860800000",
"ln":"129.88122500000"
},
"geometry":{
"type":"Point",
"coordinates":[
129.881225,
32.748608
]
}
},
{
"type":"Feature",
"properties":{
"Name":"中尾中央公民館",
"Jusho":"長崎県長崎市田中町3722番地",
"la":"32.77632000000",
"ln":"129.93093700000"
},
"geometry":{
"type":"Point",
"coordinates":[
129.930937,
32.77632
]
}
},
{
"type":"Feature",
"properties":{
"Name":"潮見町公民館",
"Jusho":"長崎県長崎市潮見町882番地2",
"la":"32.74047548480",
"ln":"129.94290902900"
},
"geometry":{
"type":"Point",
"coordinates":[
129.942909029,
32.7404754848
]
}
},
{
"type":"Feature",
"properties":{
"Name":"長崎県立総合体育館（指定管理者予定）",
"Jusho":"長崎県長崎市油木町7番1号",
"la":"32.77881600000",
"ln":"129.85501000000"
},
"geometry":{
"type":"Point",
"coordinates":[
129.85501,
32.778816
]
}
},
{
"type":"Feature",
"properties":{
"Name":"長崎県立長崎西高等学校",
"Jusho":"長崎県長崎市竹の久保町12番9号",
"la":"32.76638900000",
"ln":"129.85923700000"
},
"geometry":{
"type":"Point",
"coordinates":[
129.859237,
32.766389
]
}
},
{
"type":"Feature",
"properties":{
"Name":"長崎県立長崎南高等学校",
"Jusho":"長崎県長崎市上小島4丁目13番1号",
"la":"32.73050400000",
"ln":"129.88537500000"
},
"geometry":{
"type":"Point",
"coordinates":[
129.885375,
32.730504
]
}
},
{
"type":"Feature",
"properties":{
"Name":"長崎県立長崎北高等学校",
"Jusho":"長崎県長崎市小江原1丁目1番1号",
"la":"32.78256900000",
"ln":"129.83958400000"
},
"geometry":{
"type":"Point",
"coordinates":[
129.839584,
32.782569
]
}
},
{
"type":"Feature",
"properties":{
"Name":"長崎県立鳴滝高等学校",
"Jusho":"長崎県長崎市鳴滝1丁目4番1号",
"la":"32.75423100000",
"ln":"129.89343800000"
},
"geometry":{
"type":"Point",
"coordinates":[
129.893438,
32.754231
]
}
},
{
"type":"Feature",
"properties":{
"Name":"長崎市たちばな漁業協同組合",
"Jusho":"長崎県長崎市戸石町1519番地27",
"la":"32.76302401870",
"ln":"129.97831909200"
},
"geometry":{
"type":"Point",
"coordinates":[
129.978319092,
32.7630240187
]
}
},
{
"type":"Feature",
"properties":{
"Name":"長崎市立聖マリア学院",
"Jusho":"長崎県長崎市若草町6番5号",
"la":"32.77527700000",
"ln":"129.85284800000"
},
"geometry":{
"type":"Point",
"coordinates":[
129.852848,
32.775277
]
}
},
{
"type":"Feature",
"properties":{
"Name":"長崎市立長崎商業高等学校",
"Jusho":"長崎県長崎市泉町1125番地",
"la":"32.80771800000",
"ln":"129.86937400000"
},
"geometry":{
"type":"Point",
"coordinates":[
129.869374,
32.807718
]
}
},
{
"type":"Feature",
"properties":{
"Name":"長崎総合科学大学",
"Jusho":"長崎県長崎市網場町536番地",
"la":"32.75405800000",
"ln":"129.94309200000"
},
"geometry":{
"type":"Point",
"coordinates":[
129.943092,
32.754058
]
}
},
{
"type":"Feature",
"properties":{
"Name":"椿が丘自治公民館",
"Jusho":"長崎県長崎市椿が丘町2番1号",
"la":"32.64607045600",
"ln":"129.82981721800"
},
"geometry":{
"type":"Point",
"coordinates":[
129.829817218,
32.646070456
]
}
},
{
"type":"Feature",
"properties":{
"Name":"田手原公民館",
"Jusho":"長崎県長崎市田手原町468番地イ",
"la":"32.74442902420",
"ln":"129.90763216000"
},
"geometry":{
"type":"Point",
"coordinates":[
129.90763216,
32.7444290242
]
}
},
{
"type":"Feature",
"properties":{
"Name":"田上町公民館",
"Jusho":"長崎県長崎市田上3丁目4番12号",
"la":"32.72561896560",
"ln":"129.88694223900"
},
"geometry":{
"type":"Point",
"coordinates":[
129.886942239,
32.7256189656
]
}
},
{
"type":"Feature",
"properties":{
"Name":"土井首地区公民館",
"Jusho":"長崎県長崎市柳田町45番地3",
"la":"32.68502400000",
"ln":"129.84318500000"
},
"geometry":{
"type":"Point",
"coordinates":[
129.843185,
32.685024
]
}
},
{
"type":"Feature",
"properties":{
"Name":"東樫山公民館",
"Jusho":"長崎県長崎市樫山町886番地2",
"la":"32.81254076330",
"ln":"129.73710759400"
},
"geometry":{
"type":"Point",
"coordinates":[
129.737107594,
32.8125407633
]
}
},
{
"type":"Feature",
"properties":{
"Name":"東公民館",
"Jusho":"長崎県長崎市矢上町247番地2",
"la":"32.77564300000",
"ln":"129.95147700000"
},
"geometry":{
"type":"Point",
"coordinates":[
129.951477,
32.775643
]
}
},
{
"type":"Feature",
"properties":{
"Name":"東上公民館",
"Jusho":"長崎県長崎市三重町166番地1",
"la":"32.82533685740",
"ln":"129.74989312400"
},
"geometry":{
"type":"Point",
"coordinates":[
129.749893124,
32.8253368574
]
}
},
{
"type":"Feature",
"properties":{
"Name":"藤田尾自治公民館",
"Jusho":"長崎県長崎市藤田尾町386番地",
"la":"32.64549494060",
"ln":"129.86044946700"
},
"geometry":{
"type":"Point",
"coordinates":[
129.860449467,
32.6454949406
]
}
},
{
"type":"Feature",
"properties":{
"Name":"南公民館",
"Jusho":"長崎県長崎市浪の平町7番19号",
"la":"32.73058399910",
"ln":"129.86511000000"
},
"geometry":{
"type":"Point",
"coordinates":[
129.86511,
32.7305839991
]
}
},
{
"type":"Feature",
"properties":{
"Name":"二本松住宅集会室",
"Jusho":"長崎県長崎市戸町2丁目173番9号",
"la":"32.72545211500",
"ln":"129.87037870300"
},
"geometry":{
"type":"Point",
"coordinates":[
129.870378703,
32.725452115
]
}
},
{
"type":"Feature",
"properties":{
"Name":"虹ヶ丘町立公民館",
"Jusho":"長崎県長崎市虹が丘町11番26号",
"la":"32.79830203160",
"ln":"129.84277771000"
},
"geometry":{
"type":"Point",
"coordinates":[
129.84277771,
32.7983020316
]
}
},
{
"type":"Feature",
"properties":{
"Name":"日見やすらぎ荘",
"Jusho":"長崎県長崎市宿町616番地",
"la":"32.76033499910",
"ln":"129.93737000000"
},
"geometry":{
"type":"Point",
"coordinates":[
129.93737,
32.7603349991
]
}
},
{
"type":"Feature",
"properties":{
"Name":"日見地区公民館",
"Jusho":"長崎県長崎市界2丁目1番19号",
"la":"32.75818900000",
"ln":"129.94343400000"
},
"geometry":{
"type":"Point",
"coordinates":[
129.943434,
32.758189
]
}
},
{
"type":"Feature",
"properties":{
"Name":"馬込生活館",
"Jusho":"長崎県長崎市伊王島町2丁目2047番地",
"la":"32.69820881880",
"ln":"129.78055141300"
},
"geometry":{
"type":"Point",
"coordinates":[
129.780551413,
32.6982088188
]
}
},
{
"type":"Feature",
"properties":{
"Name":"浜平町第１自治会公民館",
"Jusho":"長崎県長崎市浜平2丁目12番7号",
"la":"32.75966510510",
"ln":"129.87380420100"
},
"geometry":{
"type":"Point",
"coordinates":[
129.873804201,
32.7596651051
]
}
},
{
"type":"Feature",
"properties":{
"Name":"布巻自治公民館",
"Jusho":"長崎県長崎市布巻町1038番地",
"la":"32.65808998450",
"ln":"129.83489146400"
},
"geometry":{
"type":"Point",
"coordinates":[
129.834891464,
32.6580899845
]
}
},
{
"type":"Feature",
"properties":{
"Name":"風頭公民館",
"Jusho":"長崎県長崎市風頭町18番1号",
"la":"32.74288100000",
"ln":"129.88810500000"
},
"geometry":{
"type":"Point",
"coordinates":[
129.888105,
32.742881
]
}
},
{
"type":"Feature",
"properties":{
"Name":"福田保育所",
"Jusho":"長崎県長崎市福田本町1694番地2",
"la":"32.74414000000",
"ln":"129.81837900000"
},
"geometry":{
"type":"Point",
"coordinates":[
129.818379,
32.74414
]
}
},
{
"type":"Feature",
"properties":{
"Name":"淵地区ふれあいセンター",
"Jusho":"長崎県長崎市富士見町6番6号",
"la":"32.77194700000",
"ln":"129.85363300000"
},
"geometry":{
"type":"Point",
"coordinates":[
129.853633,
32.771947
]
}
},
{
"type":"Feature",
"properties":{
"Name":"淵町公民館",
"Jusho":"長崎県長崎市淵町20番5号",
"la":"32.76043913560",
"ln":"129.85698432000"
},
"geometry":{
"type":"Point",
"coordinates":[
129.85698432,
32.7604391356
]
}
},
{
"type":"Feature",
"properties":{
"Name":"平間公民館",
"Jusho":"長崎県長崎市平間町580番地",
"la":"32.78214520680",
"ln":"129.94669875100"
},
"geometry":{
"type":"Point",
"coordinates":[
129.946698751,
32.7821452068
]
}
},
{
"type":"Feature",
"properties":{
"Name":"平山台集会所",
"Jusho":"長崎県長崎市平山台1丁目20番14号",
"la":"32.66390491200",
"ln":"129.83035736200"
},
"geometry":{
"type":"Point",
"coordinates":[
129.830357362,
32.663904912
]
}
},
{
"type":"Feature",
"properties":{
"Name":"平山町公民館",
"Jusho":"長崎県長崎市平山町1119番地2",
"la":"32.66597395070",
"ln":"129.83657098600"
},
"geometry":{
"type":"Point",
"coordinates":[
129.836570986,
32.6659739507
]
}
},
{
"type":"Feature",
"properties":{
"Name":"平木場公民館",
"Jusho":"長崎県長崎市中里町2377番地",
"la":"32.81527312460",
"ln":"129.97536075400"
},
"geometry":{
"type":"Point",
"coordinates":[
129.975360754,
32.8152731246
]
}
},
{
"type":"Feature",
"properties":{
"Name":"片淵３丁目公民館",
"Jusho":"長崎県長崎市片淵3丁目10番5号",
"la":"32.75832798790",
"ln":"129.89000759400"
},
"geometry":{
"type":"Point",
"coordinates":[
129.890007594,
32.7583279879
]
}
},
{
"type":"Feature",
"properties":{
"Name":"片淵４・５丁目公民館",
"Jusho":"長崎県長崎市片淵4丁目20番2号",
"la":"32.76212756980",
"ln":"129.89061771000"
},
"geometry":{
"type":"Point",
"coordinates":[
129.89061771,
32.7621275698
]
}
},
{
"type":"Feature",
"properties":{
"Name":"北浦公民館",
"Jusho":"長崎県長崎市北浦町2128番地6",
"la":"32.71449999710",
"ln":"129.91243705800"
},
"geometry":{
"type":"Point",
"coordinates":[
129.912437058,
32.7144999971
]
}
},
{
"type":"Feature",
"properties":{
"Name":"北公民館",
"Jusho":"長崎県長崎市千歳町5番1号（チトセピア内）",
"la":"32.78983700000",
"ln":"129.86194800000"
},
"geometry":{
"type":"Point",
"coordinates":[
129.861948,
32.789837
]
}
},
{
"type":"Feature",
"properties":{
"Name":"北陽自治会公民館",
"Jusho":"長崎県長崎市北陽町17番6号",
"la":"32.81015147330",
"ln":"129.82694758000"
},
"geometry":{
"type":"Point",
"coordinates":[
129.82694758,
32.8101514733
]
}
},
{
"type":"Feature",
"properties":{
"Name":"牧島町公民館",
"Jusho":"長崎県長崎市牧島町757番地",
"la":"32.75312455640",
"ln":"129.97690531900"
},
"geometry":{
"type":"Point",
"coordinates":[
129.976905319,
32.7531245564
]
}
},
{
"type":"Feature",
"properties":{
"Name":"牧野公民館前広場",
"Jusho":"長崎県長崎市新牧野町559番地",
"la":"32.85857732940",
"ln":"129.71114649200"
},
"geometry":{
"type":"Point",
"coordinates":[
129.711146492,
32.8585773294
]
}
},
{
"type":"Feature",
"properties":{
"Name":"本河内１丁目公民館",
"Jusho":"長崎県長崎市本河内1丁目13番17号",
"la":"32.75131648550",
"ln":"129.89658443500"
},
"geometry":{
"type":"Point",
"coordinates":[
129.896584435,
32.7513164855
]
}
},
{
"type":"Feature",
"properties":{
"Name":"本河内２丁目公民館",
"Jusho":"長崎県長崎市本河内2丁目15番24号",
"la":"32.75189807210",
"ln":"129.90285514500"
},
"geometry":{
"type":"Point",
"coordinates":[
129.902855145,
32.7518980721
]
}
},
{
"type":"Feature",
"properties":{
"Name":"本河内３丁目公民館",
"Jusho":"長崎県長崎市本河内3丁目4番8号",
"la":"32.75358352900",
"ln":"129.90902669800"
},
"geometry":{
"type":"Point",
"coordinates":[
129.909026698,
32.753583529
]
}
},
{
"type":"Feature",
"properties":{
"Name":"本尾町公民館",
"Jusho":"長崎県長崎市本尾町2番15号",
"la":"32.77530203580",
"ln":"129.86905011600"
},
"geometry":{
"type":"Point",
"coordinates":[
129.869050116,
32.7753020358
]
}
},
{
"type":"Feature",
"properties":{
"Name":"妙行寺",
"Jusho":"長崎県長崎市相生町9番8号",
"la":"32.73494801710",
"ln":"129.87070094200"
},
"geometry":{
"type":"Point",
"coordinates":[
129.870700942,
32.7349480171
]
}
},
{
"type":"Feature",
"properties":{
"Name":"茂木地区公民館",
"Jusho":"長崎県長崎市茂木町75番地10",
"la":"32.70782900000",
"ln":"129.91225200000"
},
"geometry":{
"type":"Point",
"coordinates":[
129.912252,
32.707829
]
}
},
{
"type":"Feature",
"properties":{
"Name":"毛井首町公民館",
"Jusho":"長崎県長崎市毛井首町360番地1",
"la":"32.69226393120",
"ln":"129.83949449800"
},
"geometry":{
"type":"Point",
"coordinates":[
129.839494498,
32.6922639312
]
}
},
{
"type":"Feature",
"properties":{
"Name":"木場グラウンド",
"Jusho":"長崎県長崎市脇岬町323番地3",
"la":"32.58374662110",
"ln":"129.77950650900"
},
"geometry":{
"type":"Point",
"coordinates":[
129.779506509,
32.5837466211
]
}
},
{
"type":"Feature",
"properties":{
"Name":"木場自治公民館",
"Jusho":"長崎県長崎市宮崎町1920番地1",
"la":"32.60829300000",
"ln":"129.81871600000"
},
"geometry":{
"type":"Point",
"coordinates":[
129.818716,
32.608293
]
}
},
{
"type":"Feature",
"properties":{
"Name":"木鉢１丁目公民館",
"Jusho":"長崎県長崎市木鉢町1丁目109番地8",
"la":"32.72619247000",
"ln":"129.84141421700"
},
"geometry":{
"type":"Point",
"coordinates":[
129.841414217,
32.72619247
]
}
},
{
"type":"Feature",
"properties":{
"Name":"木鉢地区公民館",
"Jusho":"長崎県長崎市木鉢町2丁目228番地6",
"la":"32.73124200000",
"ln":"129.84054200000"
},
"geometry":{
"type":"Point",
"coordinates":[
129.840542,
32.731242
]
}
},
{
"type":"Feature",
"properties":{
"Name":"野母崎樺島地区公民館",
"Jusho":"長崎県長崎市野母崎樺島町307番地",
"la":"32.56632800000",
"ln":"129.78648500000"
},
"geometry":{
"type":"Point",
"coordinates":[
129.786485,
32.566328
]
}
},
{
"type":"Feature",
"properties":{
"Name":"野母崎行政センター",
"Jusho":"長崎県長崎市野母町1665番地",
"la":"32.58157500000",
"ln":"129.75940700000"
},
"geometry":{
"type":"Point",
"coordinates":[
129.759407,
32.581575
]
}
},
{
"type":"Feature",
"properties":{
"Name":"野母崎高校グラウンド",
"Jusho":"長崎県長崎市高浜町",
"la":"32.60632400000",
"ln":"129.78939600000"
},
"geometry":{
"type":"Point",
"coordinates":[
129.789396,
32.606324
]
}
},
{
"type":"Feature",
"properties":{
"Name":"野母崎文化センター",
"Jusho":"長崎県長崎市野母町555番地",
"la":"32.59286600000",
"ln":"129.76217600000"
},
"geometry":{
"type":"Point",
"coordinates":[
129.762176,
32.592866
]
}
},
{
"type":"Feature",
"properties":{
"Name":"野母児童遊園",
"Jusho":"長崎県長崎市野母町2107番地",
"la":"32.58106866450",
"ln":"129.75349951000"
},
"geometry":{
"type":"Point",
"coordinates":[
129.75349951,
32.5810686645
]
}
},
{
"type":"Feature",
"properties":{
"Name":"野母地区公民館",
"Jusho":"長崎県長崎市野母町3513番地",
"la":"32.58141500000",
"ln":"129.75152100000"
},
"geometry":{
"type":"Point",
"coordinates":[
129.751521,
32.581415
]
}
},
{
"type":"Feature",
"properties":{
"Name":"矢の平大良公民館",
"Jusho":"長崎県長崎市矢の平4丁目6番7号",
"la":"32.74281694610",
"ln":"129.89523355000"
},
"geometry":{
"type":"Point",
"coordinates":[
129.89523355,
32.7428169461
]
}
},
{
"type":"Feature",
"properties":{
"Name":"唯念寺",
"Jusho":"長崎県長崎市磯道町568番地",
"la":"32.69568449250",
"ln":"129.84715305800"
},
"geometry":{
"type":"Point",
"coordinates":[
129.847153058,
32.6956844925
]
}
},
{
"type":"Feature",
"properties":{
"Name":"葉山公民館",
"Jusho":"長崎県長崎市葉山2丁目5番11号",
"la":"32.80269150850",
"ln":"129.84692682800"
},
"geometry":{
"type":"Point",
"coordinates":[
129.846926828,
32.8026915085
]
}
},
{
"type":"Feature",
"properties":{
"Name":"養国寺",
"Jusho":"長崎県長崎市網場町451番地",
"la":"32.75333402750",
"ln":"129.94686895700"
},
"geometry":{
"type":"Point",
"coordinates":[
129.946868957,
32.7533340275
]
}
},
{
"type":"Feature",
"properties":{
"Name":"立神町立立神公会堂",
"Jusho":"長崎県長崎市東立神町8番16号",
"la":"32.73641496770",
"ln":"129.85132169500"
},
"geometry":{
"type":"Point",
"coordinates":[
129.851321695,
32.7364149677
]
}
},
{
"type":"Feature",
"properties":{
"Name":"緑ヶ丘地区ふれあいセンター",
"Jusho":"長崎県長崎市白鳥町3番9号",
"la":"32.78486200000",
"ln":"129.85709500000"
},
"geometry":{
"type":"Point",
"coordinates":[
129.857095,
32.784862
]
}
},
{
"type":"Feature",
"properties":{
"Name":"脇岬児童遊園",
"Jusho":"長崎県長崎市脇岬町3560番地15",
"la":"32.57640400000",
"ln":"129.78069100000"
},
"geometry":{
"type":"Point",
"coordinates":[
129.780691,
32.576404
]
}
},
{
"type":"Feature",
"properties":{
"Name":"脇岬地区公民館",
"Jusho":"長崎県長崎市脇岬町3309番地",
"la":"32.58040100000",
"ln":"129.77770600000"
},
"geometry":{
"type":"Point",
"coordinates":[
129.777706,
32.580401
]
}
},
{
"type":"Feature",
"properties":{
"Name":"脇岬北児童遊園",
"Jusho":"長崎県長崎市脇岬町3307番地1",
"la":"32.58059200000",
"ln":"129.77780600000"
},
"geometry":{
"type":"Point",
"coordinates":[
129.777806,
32.580592
]
}
},
{
"type":"Feature",
"properties":{
"Name":"芒塚公民館",
"Jusho":"長崎県長崎市芒塚町15番地1",
"la":"32.75780102100",
"ln":"129.93264953600"
},
"geometry":{
"type":"Point",
"coordinates":[
129.932649536,
32.757801021
]
}
},
{
"type":"Feature",
"properties":{
"Name":"しとね保育所",
"Jusho":"長崎県佐世保市鹿町町長串免1089番地7",
"la":"33.24653200000",
"ln":"129.56508100000"
},
"geometry":{
"type":"Point",
"coordinates":[
129.565081,
33.246532
]
}
},
{
"type":"Feature",
"properties":{
"Name":"宇久地区生涯学習センター（佐世保市宇久地区公民館）",
"Jusho":"長崎県佐世保市宇久町平2691番地",
"la":"33.26641400000",
"ln":"129.13036500000"
},
"geometry":{
"type":"Point",
"coordinates":[
129.130365,
33.266414
]
}
},
{
"type":"Feature",
"properties":{
"Name":"烏帽子岳高原リゾートスポーツの里",
"Jusho":"長崎県佐世保市烏帽子町128番地",
"la":"33.18468346000",
"ln":"129.76362025000"
},
"geometry":{
"type":"Point",
"coordinates":[
129.76362025,
33.18468346
]
}
},
{
"type":"Feature",
"properties":{
"Name":"加勢公民館",
"Jusho":"長崎県佐世保市鹿町町下歌ヶ浦984番地9",
"la":"33.26931184610",
"ln":"129.58736404300"
},
"geometry":{
"type":"Point",
"coordinates":[
129.587364043,
33.2693118461
]
}
},
{
"type":"Feature",
"properties":{
"Name":"加勢保育所",
"Jusho":"長崎県佐世保市下歌ケ浦免984-1",
"la":"33.26991800000",
"ln":"129.58727400000"
},
"geometry":{
"type":"Point",
"coordinates":[
129.587274,
33.269918
]
}
},
{
"type":"Feature",
"properties":{
"Name":"歌ヶ浦公民館",
"Jusho":"長崎県佐世保市鹿町町下歌ヶ浦107番地",
"la":"33.27429500000",
"ln":"129.59147900000"
},
"geometry":{
"type":"Point",
"coordinates":[
129.591479,
33.274295
]
}
},
{
"type":"Feature",
"properties":{
"Name":"開田団地集会所",
"Jusho":"長崎県佐世保市江迎町田ノ元免963番9",
"la":"33.28434840130",
"ln":"129.68318429700"
},
"geometry":{
"type":"Point",
"coordinates":[
129.683184297,
33.2843484013
]
}
},
{
"type":"Feature",
"properties":{
"Name":"学校法人久田学園佐世保女子高等学校",
"Jusho":"長崎県佐世保市比良町21番1号",
"la":"33.18017900000",
"ln":"129.71098800000"
},
"geometry":{
"type":"Point",
"coordinates":[
129.710988,
33.180179
]
}
},
{
"type":"Feature",
"properties":{
"Name":"学校法人聖和女子学院高等学校",
"Jusho":"長崎県佐世保市松山町495番地",
"la":"33.19137300000",
"ln":"129.72265300000"
},
"geometry":{
"type":"Point",
"coordinates":[
129.722653,
33.191373
]
}
},
{
"type":"Feature",
"properties":{
"Name":"学校法人西海学園高等学校",
"Jusho":"長崎県佐世保市春日町29番22号",
"la":"33.20170500000",
"ln":"129.72243100000"
},
"geometry":{
"type":"Point",
"coordinates":[
129.722431,
33.201705
]
}
},
{
"type":"Feature",
"properties":{
"Name":"梶ノ村公民館",
"Jusho":"長崎県佐世保市江迎町梶ノ村免453番1",
"la":"33.33296851780",
"ln":"129.62753442100"
},
"geometry":{
"type":"Point",
"coordinates":[
129.627534421,
33.3329685178
]
}
},
{
"type":"Feature",
"properties":{
"Name":"岩下地区公民館",
"Jusho":"長崎県佐世保市江迎町田ノ元免503番21",
"la":"33.28302121550",
"ln":"129.68144864600"
},
"geometry":{
"type":"Point",
"coordinates":[
129.681448646,
33.2830212155
]
}
},
{
"type":"Feature",
"properties":{
"Name":"亀ノ子団地集会所",
"Jusho":"長崎県佐世保市江迎町末橘免410番2",
"la":"33.31627248270",
"ln":"129.61218362300"
},
"geometry":{
"type":"Point",
"coordinates":[
129.612183623,
33.3162724827
]
}
},
{
"type":"Feature",
"properties":{
"Name":"栗越公民館",
"Jusho":"長崎県佐世保市江迎町栗越免826番5",
"la":"33.31585700000",
"ln":"129.65047556500"
},
"geometry":{
"type":"Point",
"coordinates":[
129.650475565,
33.315857
]
}
},
{
"type":"Feature",
"properties":{
"Name":"御堂公民館",
"Jusho":"長崎県佐世保市鹿町町深江免553番地8",
"la":"33.30355600000",
"ln":"129.61930600000"
},
"geometry":{
"type":"Point",
"coordinates":[
129.619306,
33.303556
]
}
},
{
"type":"Feature",
"properties":{
"Name":"口ノ里公民館",
"Jusho":"長崎県佐世保市鹿町町口ノ里免344番地",
"la":"33.30095370740",
"ln":"129.59954039200"
},
"geometry":{
"type":"Point",
"coordinates":[
129.599540392,
33.3009537074
]
}
},
{
"type":"Feature",
"properties":{
"Name":"江迎町住民センター",
"Jusho":"長崎県佐世保市江迎町猪調免1698番1",
"la":"33.28326600000",
"ln":"129.67965600000"
},
"geometry":{
"type":"Point",
"coordinates":[
129.679656,
33.283266
]
}
},
{
"type":"Feature",
"properties":{
"Name":"江迎町消防団研修センター",
"Jusho":"長崎県佐世保市江迎町長坂免182番7",
"la":"33.30743364740",
"ln":"129.62875108500"
},
"geometry":{
"type":"Point",
"coordinates":[
129.628751085,
33.3074336474
]
}
},
{
"type":"Feature",
"properties":{
"Name":"江迎町中央公民館",
"Jusho":"長崎県佐世保市江迎町長坂免117番",
"la":"33.30724631900",
"ln":"129.63152532100"
},
"geometry":{
"type":"Point",
"coordinates":[
129.631525321,
33.307246319
]
}
},
{
"type":"Feature",
"properties":{
"Name":"江迎町中央体育館",
"Jusho":"長崎県佐世保市江迎町長坂免117番",
"la":"33.30714203400",
"ln":"129.63174517400"
},
"geometry":{
"type":"Point",
"coordinates":[
129.631745174,
33.307142034
]
}
},
{
"type":"Feature",
"properties":{
"Name":"江迎町武道館",
"Jusho":"長崎県佐世保市江迎町乱橋免584番",
"la":"33.29638699910",
"ln":"129.63701900000"
},
"geometry":{
"type":"Point",
"coordinates":[
129.637019,
33.2963869991
]
}
},
{
"type":"Feature",
"properties":{
"Name":"江迎町文化会館",
"Jusho":"長崎県佐世保市江迎町田ノ元免265番1",
"la":"33.28136999910",
"ln":"129.68460300000"
},
"geometry":{
"type":"Point",
"coordinates":[
129.684603,
33.2813699991
]
}
},
{
"type":"Feature",
"properties":{
"Name":"江迎町役場",
"Jusho":"長崎県佐世保市江迎町長坂免263番",
"la":"33.30941400000",
"ln":"129.62899200000"
},
"geometry":{
"type":"Point",
"coordinates":[
129.628992,
33.309414
]
}
},
{
"type":"Feature",
"properties":{
"Name":"江迎保育所",
"Jusho":"長崎県佐世保市江迎町長坂免25番3",
"la":"33.30496600000",
"ln":"129.63184300000"
},
"geometry":{
"type":"Point",
"coordinates":[
129.631843,
33.304966
]
}
},
{
"type":"Feature",
"properties":{
"Name":"江迎幼稚園",
"Jusho":"長崎県佐世保市江迎町長坂免51番",
"la":"33.30521999910",
"ln":"129.63301900000"
},
"geometry":{
"type":"Point",
"coordinates":[
129.633019,
33.3052199991
]
}
},
{
"type":"Feature",
"properties":{
"Name":"国立佐世保工業高等専門学校",
"Jusho":"長崎県佐世保市沖新町1番1号",
"la":"33.15018300000",
"ln":"129.74823500000"
},
"geometry":{
"type":"Point",
"coordinates":[
129.748235,
33.150183
]
}
},
{
"type":"Feature",
"properties":{
"Name":"根引公民館",
"Jusho":"長崎県佐世保市江迎町飯良坂免437番1号",
"la":"33.32507257870",
"ln":"129.63937458600"
},
"geometry":{
"type":"Point",
"coordinates":[
129.639374586,
33.3250725787
]
}
},
{
"type":"Feature",
"properties":{
"Name":"佐世保競輪場",
"Jusho":"長崎県佐世保市干尽町2番地5",
"la":"33.15550193050",
"ln":"129.73063368900"
},
"geometry":{
"type":"Point",
"coordinates":[
129.730633689,
33.1555019305
]
}
},
{
"type":"Feature",
"properties":{
"Name":"佐世保市亜熱帯動植物園駐車場",
"Jusho":"長崎県佐世保市船越町2172番地",
"la":"33.15167778170",
"ln":"129.69010425600"
},
"geometry":{
"type":"Point",
"coordinates":[
129.690104256,
33.1516777817
]
}
},
{
"type":"Feature",
"properties":{
"Name":"佐世保市吉井地区公民館（吉井地区生涯学習センター）",
"Jusho":"長崎県佐世保市吉井町立石474番地",
"la":"33.27003400000",
"ln":"129.68863700000"
},
"geometry":{
"type":"Point",
"coordinates":[
129.688637,
33.270034
]
}
},
{
"type":"Feature",
"properties":{
"Name":"佐世保市宮地区公民館",
"Jusho":"長崎県佐世保市城間町345番地",
"la":"33.08687700000",
"ln":"129.81477300000"
},
"geometry":{
"type":"Point",
"coordinates":[
129.814773,
33.086877
]
}
},
{
"type":"Feature",
"properties":{
"Name":"佐世保市九十九地区公民館",
"Jusho":"長崎県佐世保市下船越町306番地7",
"la":"33.13683100000",
"ln":"129.69801800000"
},
"geometry":{
"type":"Point",
"coordinates":[
129.698018,
33.136831
]
}
},
{
"type":"Feature",
"properties":{
"Name":"佐世保市広田地区公民館",
"Jusho":"長崎県佐世保市重尾町63番地",
"la":"33.12452300000",
"ln":"129.80733100000"
},
"geometry":{
"type":"Point",
"coordinates":[
129.807331,
33.124523
]
}
},
{
"type":"Feature",
"properties":{
"Name":"佐世保市江上地区公民館",
"Jusho":"長崎県佐世保市指方町1759番地",
"la":"33.10856000000",
"ln":"129.78342200000"
},
"geometry":{
"type":"Point",
"coordinates":[
129.783422,
33.10856
]
}
},
{
"type":"Feature",
"properties":{
"Name":"佐世保市黒島地区公民館",
"Jusho":"長崎県佐世保市黒島町3175番地",
"la":"33.14174000000",
"ln":"129.53461100000"
},
"geometry":{
"type":"Point",
"coordinates":[
129.534611,
33.14174
]
}
},
{
"type":"Feature",
"properties":{
"Name":"佐世保市三川内地区公民館",
"Jusho":"長崎県佐世保市三川内本町289番地1",
"la":"33.15244000000",
"ln":"129.82925600000"
},
"geometry":{
"type":"Point",
"coordinates":[
129.829256,
33.15244
]
}
},
{
"type":"Feature",
"properties":{
"Name":"佐世保市山澄地区公民館",
"Jusho":"長崎県佐世保市潮見町14番14号",
"la":"33.16425900000",
"ln":"129.72895900000"
},
"geometry":{
"type":"Point",
"coordinates":[
129.728959,
33.164259
]
}
},
{
"type":"Feature",
"properties":{
"Name":"佐世保市針尾地区公民館",
"Jusho":"長崎県佐世保市針尾中町1538番地5",
"la":"33.07775600000",
"ln":"129.75614700000"
},
"geometry":{
"type":"Point",
"coordinates":[
129.756147,
33.077756
]
}
},
{
"type":"Feature",
"properties":{
"Name":"佐世保市世知原地区公民館（世知原地区生涯学習センター）",
"Jusho":"長崎県佐世保市世知原町栗迎194番地8",
"la":"33.25664800000",
"ln":"129.75418900000"
},
"geometry":{
"type":"Point",
"coordinates":[
129.754189,
33.256648
]
}
},
{
"type":"Feature",
"properties":{
"Name":"佐世保市西地区公民館",
"Jusho":"長崎県佐世保市金比良町1番7号",
"la":"33.16938600000",
"ln":"129.70694700000"
},
"geometry":{
"type":"Point",
"coordinates":[
129.706947,
33.169386
]
}
},
{
"type":"Feature",
"properties":{
"Name":"佐世保市早岐地区公民館（東部住民センター）",
"Jusho":"長崎県佐世保市早岐一丁目6番38号",
"la":"33.13662100000",
"ln":"129.79741500000"
},
"geometry":{
"type":"Point",
"coordinates":[
129.797415,
33.136621
]
}
},
{
"type":"Feature",
"properties":{
"Name":"佐世保市相浦地区公民館（相浦文化センター）",
"Jusho":"長崎県佐世保市新田町74番地2",
"la":"33.19553600000",
"ln":"129.67031400000"
},
"geometry":{
"type":"Point",
"coordinates":[
129.670314,
33.195536
]
}
},
{
"type":"Feature",
"properties":{
"Name":"佐世保市総合グラウンド",
"Jusho":"長崎県佐世保市椎木町無番地",
"la":"33.18115228910",
"ln":"129.66673695000"
},
"geometry":{
"type":"Point",
"coordinates":[
129.66673695,
33.1811522891
]
}
},
{
"type":"Feature",
"properties":{
"Name":"佐世保市体育文化館",
"Jusho":"長崎県佐世保市光月町6番17号",
"la":"33.17251310910",
"ln":"129.72411759400"
},
"geometry":{
"type":"Point",
"coordinates":[
129.724117594,
33.1725131091
]
}
},
{
"type":"Feature",
"properties":{
"Name":"佐世保市大野地区公民館",
"Jusho":"長崎県佐世保市田原町13番29号",
"la":"33.20851300000",
"ln":"129.72116500000"
},
"geometry":{
"type":"Point",
"coordinates":[
129.721165,
33.208513
]
}
},
{
"type":"Feature",
"properties":{
"Name":"佐世保市中央公民館",
"Jusho":"長崎県佐世保市高砂町5番21号",
"la":"33.17408800000",
"ln":"129.71733200000"
},
"geometry":{
"type":"Point",
"coordinates":[
129.717332,
33.174088
]
}
},
{
"type":"Feature",
"properties":{
"Name":"佐世保市中部地区公民館",
"Jusho":"長崎県佐世保市光月町6番17号",
"la":"33.17294083750",
"ln":"129.72453056200"
},
"geometry":{
"type":"Point",
"coordinates":[
129.724530562,
33.1729408375
]
}
},
{
"type":"Feature",
"properties":{
"Name":"佐世保市中里皆瀬地区公民館",
"Jusho":"長崎県佐世保市上本山町1228番地1",
"la":"33.21069300000",
"ln":"129.69561400000"
},
"geometry":{
"type":"Point",
"coordinates":[
129.695614,
33.210693
]
}
},
{
"type":"Feature",
"properties":{
"Name":"佐世保市東部スポーツ広場",
"Jusho":"長崎県佐世保市浦川内町無番地",
"la":"33.11932229860",
"ln":"129.80530101400"
},
"geometry":{
"type":"Point",
"coordinates":[
129.805301014,
33.1193222986
]
}
},
{
"type":"Feature",
"properties":{
"Name":"佐世保市南地区公民館",
"Jusho":"長崎県佐世保市稲荷町2番5号",
"la":"33.15702400000",
"ln":"129.73473900000"
},
"geometry":{
"type":"Point",
"coordinates":[
129.734739,
33.157024
]
}
},
{
"type":"Feature",
"properties":{
"Name":"佐世保市日宇地区公民館",
"Jusho":"長崎県佐世保市日宇町675番地2",
"la":"33.15780700000",
"ln":"129.75852100000"
},
"geometry":{
"type":"Point",
"coordinates":[
129.758521,
33.157807
]
}
},
{
"type":"Feature",
"properties":{
"Name":"佐世保市北地区公民館",
"Jusho":"長崎県佐世保市春日町18番9号",
"la":"33.19822500000",
"ln":"129.72307900000"
},
"geometry":{
"type":"Point",
"coordinates":[
129.723079,
33.198225
]
}
},
{
"type":"Feature",
"properties":{
"Name":"佐世保市北部ふれあいスポーツ広場",
"Jusho":"長崎県佐世保市原分町1578番地",
"la":"33.22054382690",
"ln":"129.72656157700"
},
"geometry":{
"type":"Point",
"coordinates":[
129.726561577,
33.2205438269
]
}
},
{
"type":"Feature",
"properties":{
"Name":"佐世保市民会館",
"Jusho":"長崎県佐世保市花園町10番19号",
"la":"33.18121200000",
"ln":"129.72386700000"
},
"geometry":{
"type":"Point",
"coordinates":[
129.723867,
33.181212
]
}
},
{
"type":"Feature",
"properties":{
"Name":"佐世保市柚木地区公民館",
"Jusho":"長崎県佐世保市柚木町2088番地2",
"la":"33.21040300000",
"ln":"129.76416400000"
},
"geometry":{
"type":"Point",
"coordinates":[
129.764164,
33.210403
]
}
},
{
"type":"Feature",
"properties":{
"Name":"三浦地区集会所",
"Jusho":"長崎県佐世保市江迎町三浦免1番",
"la":"33.30229605430",
"ln":"129.63581065200"
},
"geometry":{
"type":"Point",
"coordinates":[
129.635810652,
33.3022960543
]
}
},
{
"type":"Feature",
"properties":{
"Name":"三川内運動広場",
"Jusho":"長崎県佐世保市三川内町987番地",
"la":"33.13040780790",
"ln":"129.83282687400"
},
"geometry":{
"type":"Point",
"coordinates":[
129.832826874,
33.1304078079
]
}
},
{
"type":"Feature",
"properties":{
"Name":"三川内焼伝統産業会館",
"Jusho":"長崎県佐世保市三川内本町343番地",
"la":"33.15373200000",
"ln":"129.82937300000"
},
"geometry":{
"type":"Point",
"coordinates":[
129.829373,
33.153732
]
}
},
{
"type":"Feature",
"properties":{
"Name":"山手浦集会所",
"Jusho":"長崎県佐世保市鹿町町土肥ノ浦166番地2",
"la":"33.30850655120",
"ln":"129.61885924600"
},
"geometry":{
"type":"Point",
"coordinates":[
129.618859246,
33.3085065512
]
}
},
{
"type":"Feature",
"properties":{
"Name":"志戸氏公民館",
"Jusho":"長崎県佐世保市鹿町町土肥ノ浦166番地2",
"la":"33.28438747330",
"ln":"129.65948754300"
},
"geometry":{
"type":"Point",
"coordinates":[
129.659487543,
33.2843874733
]
}
},
{
"type":"Feature",
"properties":{
"Name":"私立九州文化学園高校",
"Jusho":"長崎県佐世保市矢岳町1-8",
"la":"33.17981902000",
"ln":"129.67282897100"
},
"geometry":{
"type":"Point",
"coordinates":[
129.672828971,
33.17981902
]
}
},
{
"type":"Feature",
"properties":{
"Name":"私立佐世保実業高等学校",
"Jusho":"長崎県佐世保市母ヶ浦町888番地1",
"la":"33.17923400000",
"ln":"129.68093500000"
},
"geometry":{
"type":"Point",
"coordinates":[
129.680935,
33.179234
]
}
},
{
"type":"Feature",
"properties":{
"Name":"鹿子前園地",
"Jusho":"長崎県佐世保市鹿子前町918番地1",
"la":"33.16195281550",
"ln":"129.68219753100"
},
"geometry":{
"type":"Point",
"coordinates":[
129.682197531,
33.1619528155
]
}
},
{
"type":"Feature",
"properties":{
"Name":"鹿町町町民運動場",
"Jusho":"長崎県佐世保市鹿町町下歌ヶ浦免8番地37",
"la":"33.27779645340",
"ln":"129.59259605800"
},
"geometry":{
"type":"Point",
"coordinates":[
129.592596058,
33.2777964534
]
}
},
{
"type":"Feature",
"properties":{
"Name":"鹿町町町民体育館",
"Jusho":"長崎県佐世保市鹿町町下歌ヶ浦免8番地38",
"la":"33.27900800000",
"ln":"129.59342200000"
},
"geometry":{
"type":"Point",
"coordinates":[
129.593422,
33.279008
]
}
},
{
"type":"Feature",
"properties":{
"Name":"小佐々地区生涯学習センター（佐世保市小佐々地区公民館）",
"Jusho":"長崎県佐世保市小佐々町西川内143番地1",
"la":"33.21450200000",
"ln":"129.59845700000"
},
"geometry":{
"type":"Point",
"coordinates":[
129.598457,
33.214502
]
}
},
{
"type":"Feature",
"properties":{
"Name":"小川内公民館",
"Jusho":"長崎県佐世保市江迎町小川内免609番",
"la":"33.29891748320",
"ln":"129.64742334800"
},
"geometry":{
"type":"Point",
"coordinates":[
129.647423348,
33.2989174832
]
}
},
{
"type":"Feature",
"properties":{
"Name":"小川内団地集会所",
"Jusho":"長崎県佐世保市江迎町小川内免770番",
"la":"33.29902259660",
"ln":"129.64721820400"
},
"geometry":{
"type":"Point",
"coordinates":[
129.647218204,
33.2990225966
]
}
},
{
"type":"Feature",
"properties":{
"Name":"新丸尾団地集会所",
"Jusho":"長崎県佐世保市江迎町猪調免563番1",
"la":"33.28358900000",
"ln":"129.66971000000"
},
"geometry":{
"type":"Point",
"coordinates":[
129.66971,
33.283589
]
}
},
{
"type":"Feature",
"properties":{
"Name":"深江公民館",
"Jusho":"長崎県佐世保市鹿町町深江免313番地1",
"la":"33.30338342020",
"ln":"129.61645465000"
},
"geometry":{
"type":"Point",
"coordinates":[
129.61645465,
33.3033834202
]
}
},
{
"type":"Feature",
"properties":{
"Name":"深江保育所",
"Jusho":"長崎県佐世保市鹿町町土肥ノ浦免87番地1",
"la":"33.30360800000",
"ln":"129.61632700000"
},
"geometry":{
"type":"Point",
"coordinates":[
129.616327,
33.303608
]
}
},
{
"type":"Feature",
"properties":{
"Name":"深川公民館",
"Jusho":"長崎県佐世保市江迎町奥川内免877番",
"la":"33.30956117100",
"ln":"129.64399921500"
},
"geometry":{
"type":"Point",
"coordinates":[
129.643999215,
33.309561171
]
}
},
{
"type":"Feature",
"properties":{
"Name":"神林集会所",
"Jusho":"長崎県佐世保市鹿町町長串免331番地1",
"la":"33.25380492890",
"ln":"129.57302311300"
},
"geometry":{
"type":"Point",
"coordinates":[
129.573023113,
33.2538049289
]
}
},
{
"type":"Feature",
"properties":{
"Name":"西岩崎公民館",
"Jusho":"長崎県佐世保市江迎町長坂免117番",
"la":"33.30592185290",
"ln":"129.63173719900"
},
"geometry":{
"type":"Point",
"coordinates":[
129.631737199,
33.3059218529
]
}
},
{
"type":"Feature",
"properties":{
"Name":"西江迎公民館",
"Jusho":"長崎県佐世保市江迎町長坂免219番",
"la":"33.31080965730",
"ln":"129.62459426300"
},
"geometry":{
"type":"Point",
"coordinates":[
129.624594263,
33.3108096573
]
}
},
{
"type":"Feature",
"properties":{
"Name":"赤坂地区公民館",
"Jusho":"長崎県佐世保市江迎町赤坂免214番",
"la":"33.29388350270",
"ln":"129.64428919100"
},
"geometry":{
"type":"Point",
"coordinates":[
129.644289191,
33.2938835027
]
}
},
{
"type":"Feature",
"properties":{
"Name":"潜竜団地公民館",
"Jusho":"長崎県佐世保市江迎町田ノ元免1182番",
"la":"33.28097199990",
"ln":"129.68746720300"
},
"geometry":{
"type":"Point",
"coordinates":[
129.687467203,
33.2809719999
]
}
},
{
"type":"Feature",
"properties":{
"Name":"船ノ村公民館",
"Jusho":"長崎県佐世保市鹿町町船ノ村免788番地",
"la":"33.27365440840",
"ln":"129.60895615300"
},
"geometry":{
"type":"Point",
"coordinates":[
129.608956153,
33.2736544084
]
}
},
{
"type":"Feature",
"properties":{
"Name":"曽辺ヶ崎公民館",
"Jusho":"長崎県佐世保市鹿町町下歌ヶ浦免937番地17",
"la":"33.27096400000",
"ln":"129.57606400000"
},
"geometry":{
"type":"Point",
"coordinates":[
129.576064,
33.270964
]
}
},
{
"type":"Feature",
"properties":{
"Name":"大屋公民館",
"Jusho":"長崎県佐世保市鹿町町大屋免667番地4",
"la":"33.27962603090",
"ln":"129.58849986600"
},
"geometry":{
"type":"Point",
"coordinates":[
129.588499866,
33.2796260309
]
}
},
{
"type":"Feature",
"properties":{
"Name":"大加勢公民館",
"Jusho":"長崎県佐世保市鹿町町下歌ヶ浦免963番地1",
"la":"33.26330541030",
"ln":"129.58464372400"
},
"geometry":{
"type":"Point",
"coordinates":[
129.584643724,
33.2633054103
]
}
},
{
"type":"Feature",
"properties":{
"Name":"地方独立行政法人北松中央病院",
"Jusho":"長崎県佐世保市江迎町赤坂免299番",
"la":"33.29751560910",
"ln":"129.63928610000"
},
"geometry":{
"type":"Point",
"coordinates":[
129.6392861,
33.2975156091
]
}
},
{
"type":"Feature",
"properties":{
"Name":"中尾公民館",
"Jusho":"長崎県佐世保市江迎町中尾免385番",
"la":"33.31124896050",
"ln":"129.63710649400"
},
"geometry":{
"type":"Point",
"coordinates":[
129.637106494,
33.3112489605
]
}
},
{
"type":"Feature",
"properties":{
"Name":"猪調公民館",
"Jusho":"長崎県佐世保市江迎町猪調免1056番",
"la":"33.28468483610",
"ln":"129.67152796900"
},
"geometry":{
"type":"Point",
"coordinates":[
129.671527969,
33.2846848361
]
}
},
{
"type":"Feature",
"properties":{
"Name":"猪調保育所",
"Jusho":"長崎県佐世保市江迎町猪調免915番",
"la":"33.28394822920",
"ln":"129.66737471000"
},
"geometry":{
"type":"Point",
"coordinates":[
129.66737471,
33.2839482292
]
}
},
{
"type":"Feature",
"properties":{
"Name":"町民広場",
"Jusho":"長崎県佐世保市鹿町町下歌ヶ浦免287番地16",
"la":"33.27474436740",
"ln":"129.58961824200"
},
"geometry":{
"type":"Point",
"coordinates":[
129.589618242,
33.2747443674
]
}
},
{
"type":"Feature",
"properties":{
"Name":"長串公民館",
"Jusho":"長崎県佐世保市鹿町町長串免134番地2",
"la":"33.25962618810",
"ln":"129.57788982600"
},
"geometry":{
"type":"Point",
"coordinates":[
129.577889826,
33.2596261881
]
}
},
{
"type":"Feature",
"properties":{
"Name":"長坂地区公民館",
"Jusho":"長崎県佐世保市江迎町上川内免544番",
"la":"33.31234141220",
"ln":"129.62813750800"
},
"geometry":{
"type":"Point",
"coordinates":[
129.628137508,
33.3123414122
]
}
},
{
"type":"Feature",
"properties":{
"Name":"長崎県立ろう学校佐世保分校",
"Jusho":"長崎県佐世保市小舟町60番地",
"la":"33.20781600000",
"ln":"129.75881600000"
},
"geometry":{
"type":"Point",
"coordinates":[
129.758816,
33.207816
]
}
},
{
"type":"Feature",
"properties":{
"Name":"長崎県立宇久高等学校",
"Jusho":"長崎県佐世保市宇久町平1042番地",
"la":"33.26435749410",
"ln":"129.12569158200"
},
"geometry":{
"type":"Point",
"coordinates":[
129.125691582,
33.2643574941
]
}
},
{
"type":"Feature",
"properties":{
"Name":"長崎県立佐世保工業高等学校",
"Jusho":"長崎県佐世保市瀬戸越三丁目3番30号",
"la":"33.20773200000",
"ln":"129.72918000000"
},
"geometry":{
"type":"Point",
"coordinates":[
129.72918,
33.207732
]
}
},
{
"type":"Feature",
"properties":{
"Name":"長崎県立佐世保商業高等学校",
"Jusho":"長崎県佐世保市吉岡町863番地3",
"la":"33.20545400000",
"ln":"129.69912800000"
},
"geometry":{
"type":"Point",
"coordinates":[
129.699128,
33.205454
]
}
},
{
"type":"Feature",
"properties":{
"Name":"長崎県立佐世保西高等学校",
"Jusho":"長崎県佐世保市田原町130番地1",
"la":"33.20884300000",
"ln":"129.71934800000"
},
"geometry":{
"type":"Point",
"coordinates":[
129.719348,
33.208843
]
}
},
{
"type":"Feature",
"properties":{
"Name":"長崎県立佐世保青少年の天地",
"Jusho":"長崎県佐世保市烏帽子町376番地",
"la":"33.17503900000",
"ln":"129.75239600000"
},
"geometry":{
"type":"Point",
"coordinates":[
129.752396,
33.175039
]
}
},
{
"type":"Feature",
"properties":{
"Name":"長崎県立佐世保中央高等学校",
"Jusho":"長崎県佐世保市梅田町10番14号",
"la":"33.18864700000",
"ln":"129.71692700000"
},
"geometry":{
"type":"Point",
"coordinates":[
129.716927,
33.188647
]
}
},
{
"type":"Feature",
"properties":{
"Name":"長崎県立佐世保東翔高等学校",
"Jusho":"長崎県佐世保市重尾町425番地3",
"la":"33.12629800000",
"ln":"129.81545200000"
},
"geometry":{
"type":"Point",
"coordinates":[
129.815452,
33.126298
]
}
},
{
"type":"Feature",
"properties":{
"Name":"長崎県立佐世保南高等学校",
"Jusho":"長崎県佐世保市日宇町2526番地",
"la":"33.16223800000",
"ln":"129.76670600000"
},
"geometry":{
"type":"Point",
"coordinates":[
129.766706,
33.162238
]
}
},
{
"type":"Feature",
"properties":{
"Name":"長崎県立佐世保北高等学校",
"Jusho":"長崎県佐世保市八幡町6番31号",
"la":"33.18048500000",
"ln":"129.71937600000"
},
"geometry":{
"type":"Point",
"coordinates":[
129.719376,
33.180485
]
}
},
{
"type":"Feature",
"properties":{
"Name":"長崎県立鹿町工業高等学校体育館",
"Jusho":"長崎県佐世保市鹿町町土肥ノ浦免110番地",
"la":"33.30513600000",
"ln":"129.61757700000"
},
"geometry":{
"type":"Point",
"coordinates":[
129.617577,
33.305136
]
}
},
{
"type":"Feature",
"properties":{
"Name":"長崎県立大学",
"Jusho":"長崎県佐世保市川下町123番地",
"la":"33.18578900000",
"ln":"129.66721400000"
},
"geometry":{
"type":"Point",
"coordinates":[
129.667214,
33.185789
]
}
},
{
"type":"Feature",
"properties":{
"Name":"長崎県立武道館",
"Jusho":"長崎県佐世保市熊野町90番地",
"la":"33.17896430420",
"ln":"129.72247798600"
},
"geometry":{
"type":"Point",
"coordinates":[
129.722477986,
33.1789643042
]
}
},
{
"type":"Feature",
"properties":{
"Name":"長崎国際大学",
"Jusho":"長崎県佐世保市ハウステンボス町2825番地7",
"la":"33.10206800000",
"ln":"129.79084800000"
},
"geometry":{
"type":"Point",
"coordinates":[
129.790848,
33.102068
]
}
},
{
"type":"Feature",
"properties":{
"Name":"長崎短期大学",
"Jusho":"長崎県佐世保市椎木町600番地",
"la":"33.17904000000",
"ln":"129.67382500000"
},
"geometry":{
"type":"Point",
"coordinates":[
129.673825,
33.17904
]
}
},
{
"type":"Feature",
"properties":{
"Name":"堤原公民館",
"Jusho":"長崎県佐世保市江迎町七腕免335番12",
"la":"33.29917777290",
"ln":"129.66801078200"
},
"geometry":{
"type":"Point",
"coordinates":[
129.668010782,
33.2991777729
]
}
},
{
"type":"Feature",
"properties":{
"Name":"田ノ元公民館",
"Jusho":"長崎県佐世保市江迎町田ノ元免1182番4",
"la":"33.28125173940",
"ln":"129.68566531700"
},
"geometry":{
"type":"Point",
"coordinates":[
129.685665317,
33.2812517394
]
}
},
{
"type":"Feature",
"properties":{
"Name":"東ノ木公民館",
"Jusho":"長崎県佐世保市江迎町志戸氏免903番68",
"la":"33.28494483600",
"ln":"129.66311836200"
},
"geometry":{
"type":"Point",
"coordinates":[
129.663118362,
33.284944836
]
}
},
{
"type":"Feature",
"properties":{
"Name":"東岩崎公民館",
"Jusho":"長崎県佐世保市江迎町乱橋免268番8",
"la":"33.29416200000",
"ln":"129.63653700000"
},
"geometry":{
"type":"Point",
"coordinates":[
129.636537,
33.294162
]
}
},
{
"type":"Feature",
"properties":{
"Name":"南鹿町公民館",
"Jusho":"長崎県佐世保市鹿町町鹿町免254番地7",
"la":"33.28591740420",
"ln":"129.61508382500"
},
"geometry":{
"type":"Point",
"coordinates":[
129.615083825,
33.2859174042
]
}
},
{
"type":"Feature",
"properties":{
"Name":"日宇スポーツセンター",
"Jusho":"長崎県佐世保市日宇町522番地1",
"la":"33.15653751570",
"ln":"129.75468969800"
},
"geometry":{
"type":"Point",
"coordinates":[
129.754689698,
33.1565375157
]
}
},
{
"type":"Feature",
"properties":{
"Name":"平原公民館",
"Jusho":"長崎県佐世保市鹿町町長串免754番地",
"la":"33.24632465140",
"ln":"129.57331859700"
},
"geometry":{
"type":"Point",
"coordinates":[
129.573318597,
33.2463246514
]
}
},
{
"type":"Feature",
"properties":{
"Name":"平野地区集会所",
"Jusho":"長崎県佐世保市江迎町猪調免897番",
"la":"33.28307822870",
"ln":"129.66521004400"
},
"geometry":{
"type":"Point",
"coordinates":[
129.665210044,
33.2830782287
]
}
},
{
"type":"Feature",
"properties":{
"Name":"北鹿町公民館",
"Jusho":"長崎県佐世保市鹿町町深江免803番地2",
"la":"33.29581260120",
"ln":"129.61411400000"
},
"geometry":{
"type":"Point",
"coordinates":[
129.614114,
33.2958126012
]
}
},
{
"type":"Feature",
"properties":{
"Name":"末橘公民館",
"Jusho":"長崎県佐世保市江迎町末橘免524番2号",
"la":"33.31999947820",
"ln":"129.61463282600"
},
"geometry":{
"type":"Point",
"coordinates":[
129.614632826,
33.3199994782
]
}
},
{
"type":"Feature",
"properties":{
"Name":"木場公民館",
"Jusho":"長崎県佐世保市鹿町町上歌ヶ浦免883番地4",
"la":"33.25667800000",
"ln":"129.58790300000"
},
"geometry":{
"type":"Point",
"coordinates":[
129.587903,
33.256678
]
}
},
{
"type":"Feature",
"properties":{
"Name":"褥崎公民館",
"Jusho":"長崎県佐世保市鹿町町長串免1087番地1",
"la":"33.24669992850",
"ln":"129.56625158000"
},
"geometry":{
"type":"Point",
"coordinates":[
129.56625158,
33.2466999285
]
}
},
{
"type":"Feature",
"properties":{
"Name":"ひかわ第一幼稚園",
"Jusho":"長崎県島原市上新丁二丁目2576番地",
"la":"32.79048454510",
"ln":"130.36037181100"
},
"geometry":{
"type":"Point",
"coordinates":[
130.360371811,
32.7904845451
]
}
},
{
"type":"Feature",
"properties":{
"Name":"みやま保育園",
"Jusho":"長崎県島原市有明町湯江乙1741番地",
"la":"32.83636100000",
"ln":"130.31503100000"
},
"geometry":{
"type":"Point",
"coordinates":[
130.315031,
32.836361
]
}
},
{
"type":"Feature",
"properties":{
"Name":"安中公民館",
"Jusho":"長崎県島原市大下町丙1114番地第1",
"la":"32.75414903360",
"ln":"130.36284758000"
},
"geometry":{
"type":"Point",
"coordinates":[
130.36284758,
32.7541490336
]
}
},
{
"type":"Feature",
"properties":{
"Name":"安養寺",
"Jusho":"長崎県島原市桜町980番地",
"la":"32.78541757510",
"ln":"130.36814785500"
},
"geometry":{
"type":"Point",
"coordinates":[
130.368147855,
32.7854175751
]
}
},
{
"type":"Feature",
"properties":{
"Name":"一本松自治会公民館",
"Jusho":"長崎県島原市有明町大三東甲1175番地1",
"la":"32.81401959550",
"ln":"130.31920171000"
},
"geometry":{
"type":"Point",
"coordinates":[
130.31920171,
32.8140195955
]
}
},
{
"type":"Feature",
"properties":{
"Name":"一野自治会公民館",
"Jusho":"長崎県島原市有明町大三東甲581番地3",
"la":"32.82833564970",
"ln":"130.34605000000"
},
"geometry":{
"type":"Point",
"coordinates":[
130.34605,
32.8283356497
]
}
},
{
"type":"Feature",
"properties":{
"Name":"沖之尾自治会公民館",
"Jusho":"長崎県島原市有明町湯江丁1270番地2",
"la":"32.85874379200",
"ln":"130.31778107200"
},
"geometry":{
"type":"Point",
"coordinates":[
130.317781072,
32.858743792
]
}
},
{
"type":"Feature",
"properties":{
"Name":"温泉屋敷自治会公民館",
"Jusho":"長崎県島原市有明町湯江丁1541番地2",
"la":"32.85541237370",
"ln":"130.31607436300"
},
"geometry":{
"type":"Point",
"coordinates":[
130.316074363,
32.8554123737
]
}
},
{
"type":"Feature",
"properties":{
"Name":"下折橋町集合避難施設",
"Jusho":"長崎県島原市下折橋町3691番地1",
"la":"32.78797733380",
"ln":"130.34626010100"
},
"geometry":{
"type":"Point",
"coordinates":[
130.346260101,
32.7879773338
]
}
},
{
"type":"Feature",
"properties":{
"Name":"学校法人有明学園島原中央高校",
"Jusho":"長崎県島原市船泊町丁3415番地",
"la":"32.75634100000",
"ln":"130.37030600000"
},
"geometry":{
"type":"Point",
"coordinates":[
130.370306,
32.756341
]
}
},
{
"type":"Feature",
"properties":{
"Name":"久原構造改善センター",
"Jusho":"長崎県島原市有明町湯江乙606番地1",
"la":"32.84769650070",
"ln":"130.32834785000"
},
"geometry":{
"type":"Point",
"coordinates":[
130.32834785,
32.8476965007
]
}
},
{
"type":"Feature",
"properties":{
"Name":"境之松自治会公民館",
"Jusho":"長崎県島原市有明町大三東丙333番地3",
"la":"32.84654906390",
"ln":"130.34163317400"
},
"geometry":{
"type":"Point",
"coordinates":[
130.341633174,
32.8465490639
]
}
},
{
"type":"Feature",
"properties":{
"Name":"原口町公民館",
"Jusho":"長崎県島原市原口町丙1043番地",
"la":"32.81995098050",
"ln":"130.33637375400"
},
"geometry":{
"type":"Point",
"coordinates":[
130.336373754,
32.8199509805
]
}
},
{
"type":"Feature",
"properties":{
"Name":"源在高野自治会公民館",
"Jusho":"長崎県島原市有明町大三東戊2595番地2",
"la":"32.82934118240",
"ln":"130.32278723200"
},
"geometry":{
"type":"Point",
"coordinates":[
130.322787232,
32.8293411824
]
}
},
{
"type":"Feature",
"properties":{
"Name":"戸切自治会公民館",
"Jusho":"長崎県島原市有明町湯江乙1738番地1",
"la":"32.83663728840",
"ln":"130.31460053600"
},
"geometry":{
"type":"Point",
"coordinates":[
130.314600536,
32.8366372884
]
}
},
{
"type":"Feature",
"properties":{
"Name":"護国寺",
"Jusho":"長崎県島原市寺町6239番地",
"la":"32.78270845390",
"ln":"130.36637920300"
},
"geometry":{
"type":"Point",
"coordinates":[
130.366379203,
32.7827084539
]
}
},
{
"type":"Feature",
"properties":{
"Name":"向之原構造改善センター",
"Jusho":"長崎県島原市有明町湯江丁1057番地6",
"la":"32.85873593930",
"ln":"130.31268353600"
},
"geometry":{
"type":"Point",
"coordinates":[
130.312683536,
32.8587359393
]
}
},
{
"type":"Feature",
"properties":{
"Name":"向陵保育園",
"Jusho":"長崎県島原市有明町湯江丙728番地",
"la":"32.85488060830",
"ln":"130.31957671200"
},
"geometry":{
"type":"Point",
"coordinates":[
130.319576712,
32.8548806083
]
}
},
{
"type":"Feature",
"properties":{
"Name":"広高野町公民館",
"Jusho":"長崎県島原市広高野町甲1061番地2",
"la":"32.80112337370",
"ln":"130.32035120300"
},
"geometry":{
"type":"Point",
"coordinates":[
130.320351203,
32.8011233737
]
}
},
{
"type":"Feature",
"properties":{
"Name":"江里公民館",
"Jusho":"長崎県島原市江里町乙2309番地1",
"la":"32.80128763870",
"ln":"130.33414101400"
},
"geometry":{
"type":"Point",
"coordinates":[
130.334141014,
32.8012876387
]
}
},
{
"type":"Feature",
"properties":{
"Name":"才木集落センター",
"Jusho":"長崎県島原市有明町大三東丁89番地3",
"la":"32.84285209340",
"ln":"130.33767678300"
},
"geometry":{
"type":"Point",
"coordinates":[
130.337676783,
32.8428520934
]
}
},
{
"type":"Feature",
"properties":{
"Name":"桜井寺",
"Jusho":"長崎県島原市崩山町6837番地",
"la":"32.77672854270",
"ln":"130.36652316000"
},
"geometry":{
"type":"Point",
"coordinates":[
130.36652316,
32.7767285427
]
}
},
{
"type":"Feature",
"properties":{
"Name":"三会温泉神社",
"Jusho":"長崎県島原市亀の甲町乙1700番地",
"la":"32.81945689750",
"ln":"130.35442392800"
},
"geometry":{
"type":"Point",
"coordinates":[
130.354423928,
32.8194568975
]
}
},
{
"type":"Feature",
"properties":{
"Name":"山之内自治会公民館",
"Jusho":"長崎県島原市有明町大三東甲2578番地1",
"la":"32.83156210000",
"ln":"130.33883481200"
},
"geometry":{
"type":"Point",
"coordinates":[
130.338834812,
32.8315621
]
}
},
{
"type":"Feature",
"properties":{
"Name":"山之内上集落センター",
"Jusho":"長崎県島原市有明町大三東甲1348番地5",
"la":"32.82051760770",
"ln":"130.32502623200"
},
"geometry":{
"type":"Point",
"coordinates":[
130.325026232,
32.8205176077
]
}
},
{
"type":"Feature",
"properties":{
"Name":"寺中町公民館",
"Jusho":"長崎県島原市寺中町丙1655番地7",
"la":"32.82063330710",
"ln":"130.34386585500"
},
"geometry":{
"type":"Point",
"coordinates":[
130.343865855,
32.8206333071
]
}
},
{
"type":"Feature",
"properties":{
"Name":"社会福祉法人美祢会美祢保育園",
"Jusho":"長崎県島原市南下川尻町8119番地",
"la":"32.76502806130",
"ln":"130.36654987000"
},
"geometry":{
"type":"Point",
"coordinates":[
130.36654987,
32.7650280613
]
}
},
{
"type":"Feature",
"properties":{
"Name":"出口自治会公民館",
"Jusho":"長崎県島原市有明町大三東丁816番地2",
"la":"32.84021737420",
"ln":"130.33590188400"
},
"geometry":{
"type":"Point",
"coordinates":[
130.335901884,
32.8402173742
]
}
},
{
"type":"Feature",
"properties":{
"Name":"出平町公民館",
"Jusho":"長崎県島原市出平町甲609番地",
"la":"32.80726907510",
"ln":"130.34054433400"
},
"geometry":{
"type":"Point",
"coordinates":[
130.340544334,
32.8072690751
]
}
},
{
"type":"Feature",
"properties":{
"Name":"勝光寺",
"Jusho":"長崎県島原市有明町大三東戊1500番地",
"la":"32.84932032940",
"ln":"130.33356211600"
},
"geometry":{
"type":"Point",
"coordinates":[
130.333562116,
32.8493203294
]
}
},
{
"type":"Feature",
"properties":{
"Name":"小原下自治会公民館",
"Jusho":"長崎県島原市有明町大三東乙725番地1",
"la":"32.83553804420",
"ln":"130.34100442000"
},
"geometry":{
"type":"Point",
"coordinates":[
130.34100442,
32.8355380442
]
}
},
{
"type":"Feature",
"properties":{
"Name":"小原上自治会公民館",
"Jusho":"長崎県島原市有明町大三東乙615番地",
"la":"32.83441243060",
"ln":"130.33823905600"
},
"geometry":{
"type":"Point",
"coordinates":[
130.338239056,
32.8344124306
]
}
},
{
"type":"Feature",
"properties":{
"Name":"小路集落センター",
"Jusho":"長崎県島原市有明町大三東戊414番地1",
"la":"32.85321767980",
"ln":"130.33720330400"
},
"geometry":{
"type":"Point",
"coordinates":[
130.337203304,
32.8532176798
]
}
},
{
"type":"Feature",
"properties":{
"Name":"庄司屋敷自治会公民館",
"Jusho":"長崎県島原市有明町湯江丙1574番地",
"la":"32.84938600000",
"ln":"130.31789700000"
},
"geometry":{
"type":"Point",
"coordinates":[
130.317897,
32.849386
]
}
},
{
"type":"Feature",
"properties":{
"Name":"松音寺・清華保育園",
"Jusho":"長崎県島原市有明町大三東甲2150番地",
"la":"32.83364000000",
"ln":"130.34333400000"
},
"geometry":{
"type":"Point",
"coordinates":[
130.343334,
32.83364
]
}
},
{
"type":"Feature",
"properties":{
"Name":"松崎自治会公民館",
"Jusho":"長崎県島原市有明町大三東甲2162番地1",
"la":"32.83258829520",
"ln":"130.34381039200"
},
"geometry":{
"type":"Point",
"coordinates":[
130.343810392,
32.8325882952
]
}
},
{
"type":"Feature",
"properties":{
"Name":"城ノ尾自治会公民館",
"Jusho":"長崎県島原市有明町湯江丙411番地1",
"la":"32.85403414290",
"ln":"130.32186581200"
},
"geometry":{
"type":"Point",
"coordinates":[
130.321865812,
32.8540341429
]
}
},
{
"type":"Feature",
"properties":{
"Name":"新湊町集合避難施設",
"Jusho":"長崎県島原市新湊二丁目丁2573番地2",
"la":"32.76094891190",
"ln":"130.36466947300"
},
"geometry":{
"type":"Point",
"coordinates":[
130.364669473,
32.7609489119
]
}
},
{
"type":"Feature",
"properties":{
"Name":"森岡構造改善センター",
"Jusho":"長崎県島原市有明町湯江乙2196番地1",
"la":"32.82906752450",
"ln":"130.30847843500"
},
"geometry":{
"type":"Point",
"coordinates":[
130.308478435,
32.8290675245
]
}
},
{
"type":"Feature",
"properties":{
"Name":"森岳公民館",
"Jusho":"長崎県島原市城内一丁目1177番地イ第3",
"la":"32.79119700000",
"ln":"130.36575800000"
},
"geometry":{
"type":"Point",
"coordinates":[
130.365758,
32.791197
]
}
},
{
"type":"Feature",
"properties":{
"Name":"神木自治会公民館",
"Jusho":"長崎県島原市有明町湯江甲681番地1",
"la":"32.85491811840",
"ln":"130.32829439100"
},
"geometry":{
"type":"Point",
"coordinates":[
130.328294391,
32.8549181184
]
}
},
{
"type":"Feature",
"properties":{
"Name":"杉山公民館",
"Jusho":"長崎県島原市杉山町甲502番地",
"la":"32.79776738360",
"ln":"130.35386445900"
},
"geometry":{
"type":"Point",
"coordinates":[
130.353864459,
32.7977673836
]
}
},
{
"type":"Feature",
"properties":{
"Name":"杉谷公民館",
"Jusho":"長崎県島原市宇土町乙687番地1",
"la":"32.79880200000",
"ln":"130.34639500000"
},
"geometry":{
"type":"Point",
"coordinates":[
130.346395,
32.798802
]
}
},
{
"type":"Feature",
"properties":{
"Name":"晴雲寺",
"Jusho":"長崎県島原市南柏野町2934番地",
"la":"32.79386259300",
"ln":"130.35980758000"
},
"geometry":{
"type":"Point",
"coordinates":[
130.35980758,
32.793862593
]
}
},
{
"type":"Feature",
"properties":{
"Name":"西方寺",
"Jusho":"長崎県島原市山寺町丙848番地",
"la":"32.80659958750",
"ln":"130.34813848100"
},
"geometry":{
"type":"Point",
"coordinates":[
130.348138481,
32.8065995875
]
}
},
{
"type":"Feature",
"properties":{
"Name":"誓願幼児園",
"Jusho":"長崎県島原市有明町大三東乙955番地",
"la":"32.83752700000",
"ln":"130.34156000000"
},
"geometry":{
"type":"Point",
"coordinates":[
130.34156,
32.837527
]
}
},
{
"type":"Feature",
"properties":{
"Name":"専光寺",
"Jusho":"長崎県島原市中野町丙1256番地",
"la":"32.82525756450",
"ln":"130.34761547900"
},
"geometry":{
"type":"Point",
"coordinates":[
130.347615479,
32.8252575645
]
}
},
{
"type":"Feature",
"properties":{
"Name":"川原自治会公民館",
"Jusho":"長崎県島原市有明町湯江甲1132番地1",
"la":"32.85204340340",
"ln":"130.32628988500"
},
"geometry":{
"type":"Point",
"coordinates":[
130.326289885,
32.8520434034
]
}
},
{
"type":"Feature",
"properties":{
"Name":"川内コミュニティセンター",
"Jusho":"長崎県島原市有明町大三東戊2849番地",
"la":"32.81781103160",
"ln":"130.31693988400"
},
"geometry":{
"type":"Point",
"coordinates":[
130.316939884,
32.8178110316
]
}
},
{
"type":"Feature",
"properties":{
"Name":"善法寺",
"Jusho":"長崎県島原市寺町5954番地",
"la":"32.78361490260",
"ln":"130.36648217400"
},
"geometry":{
"type":"Point",
"coordinates":[
130.366482174,
32.7836149026
]
}
},
{
"type":"Feature",
"properties":{
"Name":"大手原町公民館",
"Jusho":"長崎県島原市大手原町甲2232番地2",
"la":"32.81560112000",
"ln":"130.35731813200"
},
"geometry":{
"type":"Point",
"coordinates":[
130.357318132,
32.81560112
]
}
},
{
"type":"Feature",
"properties":{
"Name":"池田自治会公民館",
"Jusho":"長崎県島原市有明町湯江甲881番地2",
"la":"32.85093034940",
"ln":"130.32968247900"
},
"geometry":{
"type":"Point",
"coordinates":[
130.329682479,
32.8509303494
]
}
},
{
"type":"Feature",
"properties":{
"Name":"長崎県立島原工業高等学校",
"Jusho":"長崎県島原市本光寺町4353番地",
"la":"32.79022700000",
"ln":"130.35425000000"
},
"geometry":{
"type":"Point",
"coordinates":[
130.35425,
32.790227
]
}
},
{
"type":"Feature",
"properties":{
"Name":"長崎県立島原高等学校",
"Jusho":"長崎県島原市城内二丁目1130番地",
"la":"32.79358800000",
"ln":"130.36491600000"
},
"geometry":{
"type":"Point",
"coordinates":[
130.364916,
32.793588
]
}
},
{
"type":"Feature",
"properties":{
"Name":"長崎県立島原商業高等学校",
"Jusho":"長崎県島原市城内一丁目1213番地",
"la":"32.79103200000",
"ln":"130.36497200000"
},
"geometry":{
"type":"Point",
"coordinates":[
130.364972,
32.791032
]
}
},
{
"type":"Feature",
"properties":{
"Name":"長崎県立島原農業高等学校",
"Jusho":"長崎県島原市下折橋町4520番地",
"la":"32.78726300000",
"ln":"130.35204100000"
},
"geometry":{
"type":"Point",
"coordinates":[
130.352041,
32.787263
]
}
},
{
"type":"Feature",
"properties":{
"Name":"坪浦公民館",
"Jusho":"長崎県島原市西町丙1284番地1",
"la":"32.80346200000",
"ln":"130.33477400000"
},
"geometry":{
"type":"Point",
"coordinates":[
130.334774,
32.803462
]
}
},
{
"type":"Feature",
"properties":{
"Name":"島原外港緑地全域",
"Jusho":"長崎県島原市下川尻町7番地5",
"la":"32.76779940640",
"ln":"130.37212178800"
},
"geometry":{
"type":"Point",
"coordinates":[
130.372121788,
32.7677994064
]
}
},
{
"type":"Feature",
"properties":{
"Name":"島原漁業協同組合三会支所",
"Jusho":"長崎県島原市洗切町丙1406番地1",
"la":"32.82479316640",
"ln":"130.35242491300"
},
"geometry":{
"type":"Point",
"coordinates":[
130.352424913,
32.8247931664
]
}
},
{
"type":"Feature",
"properties":{
"Name":"島原市医師会館",
"Jusho":"長崎県島原市萩原一丁目1230番地",
"la":"32.78542199910",
"ln":"130.36641600000"
},
"geometry":{
"type":"Point",
"coordinates":[
130.366416,
32.7854219991
]
}
},
{
"type":"Feature",
"properties":{
"Name":"島原市浦田保育園",
"Jusho":"長崎県島原市浦田一丁目852番地1",
"la":"32.77884836870",
"ln":"130.37296545500"
},
"geometry":{
"type":"Point",
"coordinates":[
130.372965455,
32.7788483687
]
}
},
{
"type":"Feature",
"properties":{
"Name":"島原市勤労者会館",
"Jusho":"長崎県島原市湖南町6954番地4",
"la":"32.77746905250",
"ln":"130.36907376800"
},
"geometry":{
"type":"Point",
"coordinates":[
130.369073768,
32.7774690525
]
}
},
{
"type":"Feature",
"properties":{
"Name":"島原市三会保育園",
"Jusho":"長崎県島原市油堀町丙652番地",
"la":"32.81054801070",
"ln":"130.31880562800"
},
"geometry":{
"type":"Point",
"coordinates":[
130.318805628,
32.8105480107
]
}
},
{
"type":"Feature",
"properties":{
"Name":"島原市体育館",
"Jusho":"長崎県島原市弁天町二丁目7295番地1",
"la":"32.78295300000",
"ln":"130.37650800000"
},
"geometry":{
"type":"Point",
"coordinates":[
130.376508,
32.782953
]
}
},
{
"type":"Feature",
"properties":{
"Name":"島原市農村環境改善センター",
"Jusho":"長崎県島原市中原町乙1935番地3",
"la":"32.81626798830",
"ln":"130.35049424600"
},
"geometry":{
"type":"Point",
"coordinates":[
130.350494246,
32.8162679883
]
}
},
{
"type":"Feature",
"properties":{
"Name":"島原市福祉センター",
"Jusho":"長崎県島原市霊南一丁目17番地",
"la":"32.78012659150",
"ln":"130.37720701500"
},
"geometry":{
"type":"Point",
"coordinates":[
130.377207015,
32.7801265915
]
}
},
{
"type":"Feature",
"properties":{
"Name":"島原市保健センター",
"Jusho":"長崎県島原市霊南二丁目45番地",
"la":"32.77926500000",
"ln":"130.37720800000"
},
"geometry":{
"type":"Point",
"coordinates":[
130.377208,
32.779265
]
}
},
{
"type":"Feature",
"properties":{
"Name":"島原市役所",
"Jusho":"長崎県島原市上の町537",
"la":"32.78806100000",
"ln":"130.37049900000"
},
"geometry":{
"type":"Point",
"coordinates":[
130.370499,
32.788061
]
}
},
{
"type":"Feature",
"properties":{
"Name":"島原市有明青少年武道館",
"Jusho":"長崎県島原市有明町大三東戊1450番地",
"la":"32.84703400000",
"ln":"130.33568500000"
},
"geometry":{
"type":"Point",
"coordinates":[
130.335685,
32.847034
]
}
},
{
"type":"Feature",
"properties":{
"Name":"島原市有明体育場",
"Jusho":"長崎県島原市有明町大三東戊1438番1",
"la":"32.84690680200",
"ln":"130.33620314700"
},
"geometry":{
"type":"Point",
"coordinates":[
130.336203147,
32.846906802
]
}
},
{
"type":"Feature",
"properties":{
"Name":"島原市有明大野浜運動場",
"Jusho":"長崎県島原市有明町大三東戊656番1",
"la":"32.85701890470",
"ln":"130.33821949200"
},
"geometry":{
"type":"Point",
"coordinates":[
130.338219492,
32.8570189047
]
}
},
{
"type":"Feature",
"properties":{
"Name":"島原市有明農業者トレーニングセンター",
"Jusho":"長崎県島原市有明町大三東戊1445番地",
"la":"32.84712016040",
"ln":"130.33566543500"
},
"geometry":{
"type":"Point",
"coordinates":[
130.335665435,
32.8471201604
]
}
},
{
"type":"Feature",
"properties":{
"Name":"島原市有明農村環境改善センター",
"Jusho":"長崎県島原市有明町大三東戊787番1",
"la":"32.85404099910",
"ln":"130.33410100000"
},
"geometry":{
"type":"Point",
"coordinates":[
130.334101,
32.8540409991
]
}
},
{
"type":"Feature",
"properties":{
"Name":"島原復興アリーナ",
"Jusho":"長崎県島原市平成町2番地1",
"la":"32.74538487290",
"ln":"130.37507172700"
},
"geometry":{
"type":"Point",
"coordinates":[
130.375071727,
32.7453848729
]
}
},
{
"type":"Feature",
"properties":{
"Name":"東向寺",
"Jusho":"長崎県島原市有明町湯江甲934番地",
"la":"32.85130500000",
"ln":"130.32813800000"
},
"geometry":{
"type":"Point",
"coordinates":[
130.328138,
32.851305
]
}
},
{
"type":"Feature",
"properties":{
"Name":"東向保育園",
"Jusho":"長崎県島原市有明町湯江甲421番地",
"la":"32.85755454650",
"ln":"130.32966057300"
},
"geometry":{
"type":"Point",
"coordinates":[
130.329660573,
32.8575545465
]
}
},
{
"type":"Feature",
"properties":{
"Name":"東小路自治会公民館",
"Jusho":"長崎県島原市有明町大三東丙479番地2",
"la":"32.84273786170",
"ln":"130.34242018800"
},
"geometry":{
"type":"Point",
"coordinates":[
130.342420188,
32.8427378617
]
}
},
{
"type":"Feature",
"properties":{
"Name":"特別養護老人ホームびざん",
"Jusho":"長崎県島原市緑町8200番地",
"la":"32.76809726260",
"ln":"130.36762029800"
},
"geometry":{
"type":"Point",
"coordinates":[
130.367620298,
32.7680972626
]
}
},
{
"type":"Feature",
"properties":{
"Name":"南下川尻地区公民館",
"Jusho":"長崎県島原市南下川尻町",
"la":"32.76489646430",
"ln":"130.36731134300"
},
"geometry":{
"type":"Point",
"coordinates":[
130.367311343,
32.7648964643
]
}
},
{
"type":"Feature",
"properties":{
"Name":"二ツ石営農研修所",
"Jusho":"長崎県島原市有明町大三東戊4896番地2",
"la":"32.81437449690",
"ln":"130.30431031900"
},
"geometry":{
"type":"Point",
"coordinates":[
130.304310319,
32.8143744969
]
}
},
{
"type":"Feature",
"properties":{
"Name":"柏野公民館",
"Jusho":"長崎県島原市南柏野町2911番地",
"la":"32.79418557310",
"ln":"130.35888517400"
},
"geometry":{
"type":"Point",
"coordinates":[
130.358885174,
32.7941855731
]
}
},
{
"type":"Feature",
"properties":{
"Name":"柏野自治会公民館",
"Jusho":"長崎県島原市有明町大三東戊4441番地1",
"la":"32.82940135110",
"ln":"130.31766665400"
},
"geometry":{
"type":"Point",
"coordinates":[
130.317666654,
32.8294013511
]
}
},
{
"type":"Feature",
"properties":{
"Name":"白山公民館",
"Jusho":"長崎県島原市西八幡町7657番地",
"la":"32.77687205210",
"ln":"130.36995337700"
},
"geometry":{
"type":"Point",
"coordinates":[
130.369953377,
32.7768720521
]
}
},
{
"type":"Feature",
"properties":{
"Name":"半田自治会公民館",
"Jusho":"長崎県島原市有明町大三東乙1064番地1",
"la":"32.83923087880",
"ln":"130.34455239200"
},
"geometry":{
"type":"Point",
"coordinates":[
130.344552392,
32.8392308788
]
}
},
{
"type":"Feature",
"properties":{
"Name":"舞人堂自治会公民館",
"Jusho":"長崎県島原市有明町湯江丙1524番地4",
"la":"32.84871878920",
"ln":"130.31522184000"
},
"geometry":{
"type":"Point",
"coordinates":[
130.31522184,
32.8487187892
]
}
},
{
"type":"Feature",
"properties":{
"Name":"払山自治会公民館",
"Jusho":"長崎県島原市有明町大三東丁1436番地1",
"la":"32.83705114910",
"ln":"130.33066062500"
},
"geometry":{
"type":"Point",
"coordinates":[
130.330660625,
32.8370511491
]
}
},
{
"type":"Feature",
"properties":{
"Name":"平山自治会公民館",
"Jusho":"長崎県島原市有明町湯江乙1137番地",
"la":"32.84008700000",
"ln":"130.31576400000"
},
"geometry":{
"type":"Point",
"coordinates":[
130.315764,
32.840087
]
}
},
{
"type":"Feature",
"properties":{
"Name":"本光寺",
"Jusho":"長崎県島原市本光寺町3380番地",
"la":"32.79133065390",
"ln":"130.35219179900"
},
"geometry":{
"type":"Point",
"coordinates":[
130.352191799,
32.7913306539
]
}
},
{
"type":"Feature",
"properties":{
"Name":"門前集落センター",
"Jusho":"長崎県島原市有明町大三東丁1360番地1",
"la":"32.84174339590",
"ln":"130.32998247600"
},
"geometry":{
"type":"Point",
"coordinates":[
130.329982476,
32.8417433959
]
}
},
{
"type":"Feature",
"properties":{
"Name":"野田自治会公民館",
"Jusho":"長崎県島原市有明町湯江丁2608番地1",
"la":"32.84909154470",
"ln":"130.30737015900"
},
"geometry":{
"type":"Point",
"coordinates":[
130.307370159,
32.8490915447
]
}
},
{
"type":"Feature",
"properties":{
"Name":"有明公民館",
"Jusho":"長崎県島原市有明町大三東戊1438番地1",
"la":"32.84750000000",
"ln":"130.33648700000"
},
"geometry":{
"type":"Point",
"coordinates":[
130.336487,
32.8475
]
}
},
{
"type":"Feature",
"properties":{
"Name":"有明町民センター",
"Jusho":"長崎県島原市",
"la":"32.78806100090",
"ln":"130.37049900000"
},
"geometry":{
"type":"Point",
"coordinates":[
130.370499,
32.7880610009
]
}
},
{
"type":"Feature",
"properties":{
"Name":"有明幼稚園",
"Jusho":"長崎県島原市坂上町7528番地",
"la":"32.77885014360",
"ln":"130.37100088600"
},
"geometry":{
"type":"Point",
"coordinates":[
130.371000886,
32.7788501436
]
}
},
{
"type":"Feature",
"properties":{
"Name":"理性院大師堂",
"Jusho":"長崎県島原市湊道一丁目7474番地2",
"la":"32.78065036950",
"ln":"130.37203381200"
},
"geometry":{
"type":"Point",
"coordinates":[
130.372033812,
32.7806503695
]
}
},
{
"type":"Feature",
"properties":{
"Name":"立野町公民館",
"Jusho":"長崎県島原市立野町乙1672番地2",
"la":"32.79723722840",
"ln":"130.32764994800"
},
"geometry":{
"type":"Point",
"coordinates":[
130.327649948,
32.7972372284
]
}
},
{
"type":"Feature",
"properties":{
"Name":"霊丘公民館",
"Jusho":"長崎県島原市新町二丁目103番地1",
"la":"32.78383700000",
"ln":"130.37122200000"
},
"geometry":{
"type":"Point",
"coordinates":[
130.371222,
32.783837
]
}
},
{
"type":"Feature",
"properties":{
"Name":"枦山自治会公民館",
"Jusho":"長崎県島原市有明町湯江乙2445番地2",
"la":"32.83728157930",
"ln":"130.31009389200"
},
"geometry":{
"type":"Point",
"coordinates":[
130.310093892,
32.8372815793
]
}
},
{
"type":"Feature",
"properties":{
"Name":"礫石原町公民館",
"Jusho":"長崎県島原市礫石原町甲1201番地169",
"la":"32.79846313220",
"ln":"130.30756031900"
},
"geometry":{
"type":"Point",
"coordinates":[
130.307560319,
32.7984631322
]
}
},
{
"type":"Feature",
"properties":{
"Name":"いいもりコミュニティ会館",
"Jusho":"長崎県諫早市飯盛町開1677番1号",
"la":"32.77723309910",
"ln":"130.02152181800"
},
"geometry":{
"type":"Point",
"coordinates":[
130.021521818,
32.7772330991
]
}
},
{
"type":"Feature",
"properties":{
"Name":"シーサイド１区公民館",
"Jusho":"長崎県諫早市多良見町シーサイド",
"la":"32.83684868370",
"ln":"129.98767165600"
},
"geometry":{
"type":"Point",
"coordinates":[
129.987671656,
32.8368486837
]
}
},
{
"type":"Feature",
"properties":{
"Name":"シーサイド２区公民館",
"Jusho":"長崎県諫早市多良見町シーサイド",
"la":"32.83889685770",
"ln":"129.98904871000"
},
"geometry":{
"type":"Point",
"coordinates":[
129.98904871,
32.8388968577
]
}
},
{
"type":"Feature",
"properties":{
"Name":"シーサイド４区公民館",
"Jusho":"長崎県諫早市多良見町シーサイド",
"la":"32.83972435150",
"ln":"129.99369979600"
},
"geometry":{
"type":"Point",
"coordinates":[
129.993699796,
32.8397243515
]
}
},
{
"type":"Feature",
"properties":{
"Name":"スポーツ交流館前広場",
"Jusho":"長崎県諫早市森山町下井牟田",
"la":"32.82600605540",
"ln":"130.11557502600"
},
"geometry":{
"type":"Point",
"coordinates":[
130.115575026,
32.8260060554
]
}
},
{
"type":"Feature",
"properties":{
"Name":"デイサービスいきいきハウス（中・北）",
"Jusho":"長崎県諫早市福田町2366番1号",
"la":"32.86264546890",
"ln":"130.05618375300"
},
"geometry":{
"type":"Point",
"coordinates":[
130.056183753,
32.8626454689
]
}
},
{
"type":"Feature",
"properties":{
"Name":"デイサービスかすみ荘",
"Jusho":"長崎県諫早市小野島町1565番1号",
"la":"32.84959465880",
"ln":"130.09852615100"
},
"geometry":{
"type":"Point",
"coordinates":[
130.098526151,
32.8495946588
]
}
},
{
"type":"Feature",
"properties":{
"Name":"デイサービス高望荘（真）",
"Jusho":"長崎県諫早市貝津町2661番1号",
"la":"32.83431405110",
"ln":"130.02044494200"
},
"geometry":{
"type":"Point",
"coordinates":[
130.020444942,
32.8343140511
]
}
},
{
"type":"Feature",
"properties":{
"Name":"のぞみ会館",
"Jusho":"長崎県諫早市多良見町木床106番地",
"la":"32.84633199910",
"ln":"129.97224700000"
},
"geometry":{
"type":"Point",
"coordinates":[
129.972247,
32.8463319991
]
}
},
{
"type":"Feature",
"properties":{
"Name":"ひばりが丘公民館（小栗）",
"Jusho":"長崎県諫早市小川町171番2号",
"la":"32.82969807040",
"ln":"130.05696381100"
},
"geometry":{
"type":"Point",
"coordinates":[
130.056963811,
32.8296980704
]
}
},
{
"type":"Feature",
"properties":{
"Name":"みのり会館",
"Jusho":"長崎県諫早市長田町2394番1号",
"la":"32.86301103840",
"ln":"130.07659330700"
},
"geometry":{
"type":"Point",
"coordinates":[
130.076593307,
32.8630110384
]
}
},
{
"type":"Feature",
"properties":{
"Name":"阿蘇区公民館",
"Jusho":"長崎県諫早市多良見町化屋",
"la":"32.82916910530",
"ln":"129.98133116700"
},
"geometry":{
"type":"Point",
"coordinates":[
129.981331167,
32.8291691053
]
}
},
{
"type":"Feature",
"properties":{
"Name":"安勝寺（金谷町）",
"Jusho":"長崎県諫早市金谷町9番1号",
"la":"32.84694435190",
"ln":"130.05307053700"
},
"geometry":{
"type":"Point",
"coordinates":[
130.053070537,
32.8469443519
]
}
},
{
"type":"Feature",
"properties":{
"Name":"囲営農研修所",
"Jusho":"長崎県諫早市飯盛町山口530番地",
"la":"32.78252074210",
"ln":"130.02822774200"
},
"geometry":{
"type":"Point",
"coordinates":[
130.028227742,
32.7825207421
]
}
},
{
"type":"Feature",
"properties":{
"Name":"井崎グランド",
"Jusho":"長崎県諫早市多良見町化屋",
"la":"32.93573784870",
"ln":"130.19474385400"
},
"geometry":{
"type":"Point",
"coordinates":[
130.194743854,
32.9357378487
]
}
},
{
"type":"Feature",
"properties":{
"Name":"井崎公民館",
"Jusho":"長崎県諫早市小長井町井崎725番地",
"la":"32.93259854490",
"ln":"130.19317184900"
},
"geometry":{
"type":"Point",
"coordinates":[
130.193171849,
32.9325985449
]
}
},
{
"type":"Feature",
"properties":{
"Name":"井樋ノ尾公民館",
"Jusho":"長崎県諫早市多良見町化屋",
"la":"32.82324971620",
"ln":"129.98133413800"
},
"geometry":{
"type":"Point",
"coordinates":[
129.981334138,
32.8232497162
]
}
},
{
"type":"Feature",
"properties":{
"Name":"宇都町公民館（中・南）",
"Jusho":"長崎県諫早市宇都町20番13号",
"la":"32.84467385090",
"ln":"130.04142647800"
},
"geometry":{
"type":"Point",
"coordinates":[
130.041426478,
32.8446738509
]
}
},
{
"type":"Feature",
"properties":{
"Name":"栄田町公民館（中・北）",
"Jusho":"長崎県諫早市栄田町31番26号",
"la":"32.85635511950",
"ln":"130.03775747800"
},
"geometry":{
"type":"Point",
"coordinates":[
130.037757478,
32.8563551195
]
}
},
{
"type":"Feature",
"properties":{
"Name":"永昌町公民館（中・北）",
"Jusho":"長崎県諫早市永昌町23番8号",
"la":"32.85047837280",
"ln":"130.03622426100"
},
"geometry":{
"type":"Point",
"coordinates":[
130.036224261,
32.8504783728
]
}
},
{
"type":"Feature",
"properties":{
"Name":"永昌東町公民館（中・北）",
"Jusho":"長崎県諫早市永昌東町5番14号",
"la":"32.84878251220",
"ln":"130.04311981100"
},
"geometry":{
"type":"Point",
"coordinates":[
130.043119811,
32.8487825122
]
}
},
{
"type":"Feature",
"properties":{
"Name":"円能寺公民館（本）",
"Jusho":"長崎県諫早市上大渡野町",
"la":"32.90406813480",
"ln":"130.02362347600"
},
"geometry":{
"type":"Point",
"coordinates":[
130.023623476,
32.9040681348
]
}
},
{
"type":"Feature",
"properties":{
"Name":"猿崎町公民館（長）",
"Jusho":"長崎県諫早市猿崎町",
"la":"32.88407625530",
"ln":"130.10282749400"
},
"geometry":{
"type":"Point",
"coordinates":[
130.102827494,
32.8840762553
]
}
},
{
"type":"Feature",
"properties":{
"Name":"下井牟田地区防災拠点施設",
"Jusho":"長崎県諫早市森山町下井牟田",
"la":"32.82688235200",
"ln":"130.11508481300"
},
"geometry":{
"type":"Point",
"coordinates":[
130.115084813,
32.826882352
]
}
},
{
"type":"Feature",
"properties":{
"Name":"下釜公民館",
"Jusho":"長崎県諫早市飯盛町下釜",
"la":"32.76396116190",
"ln":"130.02798866600"
},
"geometry":{
"type":"Point",
"coordinates":[
130.027988666,
32.7639611619
]
}
},
{
"type":"Feature",
"properties":{
"Name":"下大渡野構造改善センター（本）",
"Jusho":"長崎県諫早市下大渡野町524番1号",
"la":"32.88094100990",
"ln":"130.02204060800"
},
"geometry":{
"type":"Point",
"coordinates":[
130.022040608,
32.8809410099
]
}
},
{
"type":"Feature",
"properties":{
"Name":"化屋区公民館",
"Jusho":"長崎県諫早市多良見町化屋",
"la":"32.83213239600",
"ln":"129.99046993400"
},
"geometry":{
"type":"Point",
"coordinates":[
129.990469934,
32.832132396
]
}
},
{
"type":"Feature",
"properties":{
"Name":"化屋公民館",
"Jusho":"長崎県諫早市多良見町化屋",
"la":"32.83204002840",
"ln":"129.98814662000"
},
"geometry":{
"type":"Point",
"coordinates":[
129.98814662,
32.8320400284
]
}
},
{
"type":"Feature",
"properties":{
"Name":"開公民館",
"Jusho":"長崎県諫早市飯盛町開1911番地",
"la":"32.78066430460",
"ln":"130.02309634000"
},
"geometry":{
"type":"Point",
"coordinates":[
130.02309634,
32.7806643046
]
}
},
{
"type":"Feature",
"properties":{
"Name":"貝津町公民館（真）",
"Jusho":"長崎県諫早市貝津町2890番地",
"la":"32.83535804410",
"ln":"130.01882917400"
},
"geometry":{
"type":"Point",
"coordinates":[
130.018829174,
32.8353580441
]
}
},
{
"type":"Feature",
"properties":{
"Name":"釜公民館",
"Jusho":"長崎県諫早市小長井町遠竹",
"la":"32.95067480070",
"ln":"130.19982568500"
},
"geometry":{
"type":"Point",
"coordinates":[
130.199825685,
32.9506748007
]
}
},
{
"type":"Feature",
"properties":{
"Name":"諌早ゆたか荘（長）",
"Jusho":"長崎県諫早市長田町2826番1号",
"la":"32.86504346070",
"ln":"130.07611518800"
},
"geometry":{
"type":"Point",
"coordinates":[
130.076115188,
32.8650434607
]
}
},
{
"type":"Feature",
"properties":{
"Name":"丸尾１区公民館",
"Jusho":"長崎県諫早市多良見町化屋",
"la":"32.82407061640",
"ln":"129.98717570000"
},
"geometry":{
"type":"Point",
"coordinates":[
129.9871757,
32.8240706164
]
}
},
{
"type":"Feature",
"properties":{
"Name":"丸尾２区公民館",
"Jusho":"長崎県諫早市多良見町化屋",
"la":"32.82348194990",
"ln":"129.98937779800"
},
"geometry":{
"type":"Point",
"coordinates":[
129.989377798,
32.8234819499
]
}
},
{
"type":"Feature",
"properties":{
"Name":"岩屋川口公民館（長）",
"Jusho":"長崎県諫早市大場町",
"la":"32.91110900070",
"ln":"130.05874709300"
},
"geometry":{
"type":"Point",
"coordinates":[
130.058747093,
32.9111090007
]
}
},
{
"type":"Feature",
"properties":{
"Name":"岩名ふれあいの館（長）",
"Jusho":"長崎県諫早市白木峰町",
"la":"32.89435638740",
"ln":"130.07951319000"
},
"geometry":{
"type":"Point",
"coordinates":[
130.07951319,
32.8943563874
]
}
},
{
"type":"Feature",
"properties":{
"Name":"喜々津団地公民館",
"Jusho":"長崎県諫早市多良見町市布",
"la":"32.82417018810",
"ln":"129.97101910300"
},
"geometry":{
"type":"Point",
"coordinates":[
129.971019103,
32.8241701881
]
}
},
{
"type":"Feature",
"properties":{
"Name":"久山台コミュニティセンター（真）（久山台ニュータウン自治会）",
"Jusho":"長崎県諫早市久山台61番4号",
"la":"32.82538283020",
"ln":"129.99449405600"
},
"geometry":{
"type":"Point",
"coordinates":[
129.994494056,
32.8253828302
]
}
},
{
"type":"Feature",
"properties":{
"Name":"久山町公民館（真）",
"Jusho":"長崎県諫早市久山町2184番1号",
"la":"32.83074371660",
"ln":"130.00135572500"
},
"geometry":{
"type":"Point",
"coordinates":[
130.001355725,
32.8307437166
]
}
},
{
"type":"Feature",
"properties":{
"Name":"久保公民館",
"Jusho":"長崎県諫早市飯盛町久保",
"la":"32.76901781210",
"ln":"130.02000942000"
},
"geometry":{
"type":"Point",
"coordinates":[
130.02000942,
32.7690178121
]
}
},
{
"type":"Feature",
"properties":{
"Name":"教専寺",
"Jusho":"長崎県諫早市森山町上井牟田1843番地",
"la":"32.80780395940",
"ln":"130.11095569600"
},
"geometry":{
"type":"Point",
"coordinates":[
130.110955696,
32.8078039594
]
}
},
{
"type":"Feature",
"properties":{
"Name":"教法寺（上町）",
"Jusho":"長崎県諫早市上町11番8号",
"la":"32.84068800000",
"ln":"130.05678400000"
},
"geometry":{
"type":"Point",
"coordinates":[
130.056784,
32.840688
]
}
},
{
"type":"Feature",
"properties":{
"Name":"琴ノ尾公民館",
"Jusho":"長崎県諫早市多良見町佐瀬",
"la":"32.85124151860",
"ln":"129.90214680000"
},
"geometry":{
"type":"Point",
"coordinates":[
129.9021468,
32.8512415186
]
}
},
{
"type":"Feature",
"properties":{
"Name":"金谷町公民館（中・北）",
"Jusho":"長崎県諫早市金谷町6番1号",
"la":"32.84752774400",
"ln":"130.05123557900"
},
"geometry":{
"type":"Point",
"coordinates":[
130.051235579,
32.847527744
]
}
},
{
"type":"Feature",
"properties":{
"Name":"栗面町公民館（小栗）",
"Jusho":"長崎県諫早市栗面町771番1号",
"la":"32.83005820480",
"ln":"130.04434546400"
},
"geometry":{
"type":"Point",
"coordinates":[
130.044345464,
32.8300582048
]
}
},
{
"type":"Feature",
"properties":{
"Name":"群公民館",
"Jusho":"長崎県諫早市多良見町元釜",
"la":"32.84134889210",
"ln":"129.93278900600"
},
"geometry":{
"type":"Point",
"coordinates":[
129.932789006,
32.8413488921
]
}
},
{
"type":"Feature",
"properties":{
"Name":"恵仁荘（有）",
"Jusho":"長崎県諫早市有喜町648番地",
"la":"32.79128099910",
"ln":"130.07705100000"
},
"geometry":{
"type":"Point",
"coordinates":[
130.077051,
32.7912809991
]
}
},
{
"type":"Feature",
"properties":{
"Name":"慶師野地区防災拠点施設避難所",
"Jusho":"長崎県諫早市森山町慶師野",
"la":"32.82394557710",
"ln":"130.12023353300"
},
"geometry":{
"type":"Point",
"coordinates":[
130.120233533,
32.8239455771
]
}
},
{
"type":"Feature",
"properties":{
"Name":"慶巖寺（城見町）",
"Jusho":"長崎県諫早市城見町15番19号",
"la":"32.84715599200",
"ln":"130.04982502700"
},
"geometry":{
"type":"Point",
"coordinates":[
130.049825027,
32.847155992
]
}
},
{
"type":"Feature",
"properties":{
"Name":"県央農協森山支店",
"Jusho":"長崎県諫早市森山町田尻978番地",
"la":"32.83404045270",
"ln":"130.13550689800"
},
"geometry":{
"type":"Point",
"coordinates":[
130.135506898,
32.8340404527
]
}
},
{
"type":"Feature",
"properties":{
"Name":"元釜公民館",
"Jusho":"長崎県諫早市多良見町元釜",
"la":"32.85711997280",
"ln":"129.93326956400"
},
"geometry":{
"type":"Point",
"coordinates":[
129.933269564,
32.8571199728
]
}
},
{
"type":"Feature",
"properties":{
"Name":"原口町公民館（中・南）",
"Jusho":"長崎県諫早市原口町831番1号",
"la":"32.83846817330",
"ln":"130.05175150700"
},
"geometry":{
"type":"Point",
"coordinates":[
130.051751507,
32.8384681733
]
}
},
{
"type":"Feature",
"properties":{
"Name":"古場公民館",
"Jusho":"長崎県諫早市飯盛町古場896番地",
"la":"32.79258919820",
"ln":"129.99991023200"
},
"geometry":{
"type":"Point",
"coordinates":[
129.999910232,
32.7925891982
]
}
},
{
"type":"Feature",
"properties":{
"Name":"古場公民館（本）",
"Jusho":"長崎県諫早市上大渡野町",
"la":"32.91622257230",
"ln":"130.02486832100"
},
"geometry":{
"type":"Point",
"coordinates":[
130.024868321,
32.9162225723
]
}
},
{
"type":"Feature",
"properties":{
"Name":"後田公民館",
"Jusho":"長崎県諫早市飯盛町後田1720番地",
"la":"32.76709770160",
"ln":"130.02925989800"
},
"geometry":{
"type":"Point",
"coordinates":[
130.029259898,
32.7670977016
]
}
},
{
"type":"Feature",
"properties":{
"Name":"御手水営農研修センター（長）",
"Jusho":"長崎県諫早市御手水町890番地",
"la":"32.87759761840",
"ln":"130.06246052500"
},
"geometry":{
"type":"Point",
"coordinates":[
130.062460525,
32.8775976184
]
}
},
{
"type":"Feature",
"properties":{
"Name":"御手水町公民館（長）",
"Jusho":"長崎県諫早市御手水町",
"la":"32.88515505360",
"ln":"130.06551173300"
},
"geometry":{
"type":"Point",
"coordinates":[
130.065511733,
32.8851550536
]
}
},
{
"type":"Feature",
"properties":{
"Name":"光宗寺",
"Jusho":"長崎県諫早市高来町町名146番地",
"la":"32.90546053960",
"ln":"130.13772640600"
},
"geometry":{
"type":"Point",
"coordinates":[
130.137726406,
32.9054605396
]
}
},
{
"type":"Feature",
"properties":{
"Name":"幸町公民館（中・中）",
"Jusho":"長崎県諫早市幸町",
"la":"32.84030844430",
"ln":"130.06074555600"
},
"geometry":{
"type":"Point",
"coordinates":[
130.060745556,
32.8403084443
]
}
},
{
"type":"Feature",
"properties":{
"Name":"広川良公民館",
"Jusho":"長崎県諫早市小長井町古場365番37号",
"la":"32.95805001420",
"ln":"130.13499446400"
},
"geometry":{
"type":"Point",
"coordinates":[
130.134994464,
32.9580500142
]
}
},
{
"type":"Feature",
"properties":{
"Name":"広福寺（船越町）",
"Jusho":"長崎県諫早市船越町1047番地",
"la":"32.83728564550",
"ln":"130.05789104400"
},
"geometry":{
"type":"Point",
"coordinates":[
130.057891044,
32.8372856455
]
}
},
{
"type":"Feature",
"properties":{
"Name":"高天町構造改善センター（長）",
"Jusho":"長崎県諫早市高天町2221番地",
"la":"32.87801275350",
"ln":"130.09256471700"
},
"geometry":{
"type":"Point",
"coordinates":[
130.092564717,
32.8780127535
]
}
},
{
"type":"Feature",
"properties":{
"Name":"高来ふれあい会館",
"Jusho":"長崎県諫早市高来町黒崎325番地",
"la":"32.89905000000",
"ln":"130.12791100000"
},
"geometry":{
"type":"Point",
"coordinates":[
130.127911,
32.89905
]
}
},
{
"type":"Feature",
"properties":{
"Name":"高来公民館宇良分館",
"Jusho":"長崎県諫早市高来町山道407番1号",
"la":"32.90881900000",
"ln":"130.15066600000"
},
"geometry":{
"type":"Point",
"coordinates":[
130.150666,
32.908819
]
}
},
{
"type":"Feature",
"properties":{
"Name":"高来城の下グランド",
"Jusho":"長崎県諫早市高来町湯江",
"la":"32.90780950600",
"ln":"130.15734597800"
},
"geometry":{
"type":"Point",
"coordinates":[
130.157345978,
32.907809506
]
}
},
{
"type":"Feature",
"properties":{
"Name":"高来西ゆめ会館前広場",
"Jusho":"長崎県諫早市高来町小江",
"la":"32.88932566420",
"ln":"130.11015327800"
},
"geometry":{
"type":"Point",
"coordinates":[
130.110153278,
32.8893256642
]
}
},
{
"type":"Feature",
"properties":{
"Name":"高来町公民館",
"Jusho":"長崎県諫早市高来町三部一527-1",
"la":"32.90843900000",
"ln":"130.14102600000"
},
"geometry":{
"type":"Point",
"coordinates":[
130.141026,
32.908439
]
}
},
{
"type":"Feature",
"properties":{
"Name":"黒崎町公民館（小野）",
"Jusho":"長崎県諫早市黒崎町",
"la":"32.83435354170",
"ln":"130.09810220800"
},
"geometry":{
"type":"Point",
"coordinates":[
130.098102208,
32.8343535417
]
}
},